#Time(sec),Dtime(sec),,x(m),y(m),z(m),qx,qy,qz,qw,roll_x_G(deg),pitch_y_G(deg),yaw_z_G(deg),vx(m/s),vy(m/s),vz(m/s),wx(rad/s),wy(rad/s),wz(rad/s),,gt_x(m),gt_y(m),gt_z(m),gt_qx,gt_qy,gt_qz,gt_qw,gt_groll_x_G(deg),gt_pitch_y_G(deg),gt_yaw_z_G(deg),gt_vx(m/s),gt_vy(m/s),gt_vz(m/s),gt_wx(rad/s),gt_wy(rad/s),gt_wz(rad/s),,Sr,Sr_avg,
1559013412.7541408538818359,0.0000000000000000,,0.0000000000000002,0.0000000000000001,-0.0000000000000001,0.0000000000000000,-0.0000000000000001,0.0000000000000000,1.0000000000000000,-0.0755855138669150,0.2459037397968158,0.0004794994091153,0.0000000000000000,0.0000000000000000,0.0000000000000000,0.0000000000000000,0.0000000000000000,0.0000000000000000,,0.0000000000000000,0.0000000000000000,0.0000000000000000,0.0000000000000000,0.0000000000000000,0.0000000000000000,1.0000000000000000,-0.0755855138669150,0.2459037397968215,0.0004794994091152,-0.0098102642223239,-0.0059528849087656,-0.0021041124127805,0.0008114594966173,-0.0000641869410174,-0.0007574954070151,,0.0000000000000000,0.0000000000000000,
1559013412.7874608039855957,0.0333199501037598,,0.0000000000000002,0.0000000000000001,-0.0000000000000001,0.0000000000000000,-0.0000000000000001,0.0000000000000000,1.0000000000000000,-0.0755855138669150,0.2459037397968158,0.0004794994091153,0.0000000000000000,0.0000000000000000,0.0000000000000000,0.0000000000000000,0.0000000000000000,0.0000000000000000,,0.0000000000000000,0.0000000000000000,0.0000000000000000,0.0000000000000000,0.0000000000000000,0.0000000000000000,1.0000000000000000,-0.0755855138669150,0.2459037397968215,0.0004794994091152,-0.0098102642223239,-0.0059528849087656,-0.0021041124127805,0.0008114594966173,-0.0000641869410174,-0.0007574954070151,,0.0000000000000000,0.0000000000000000,
1559013412.8207807540893555,0.0666399002075195,,0.0000219726581638,-0.0000260111889973,-0.0000459141663904,-0.0000208610050351,-0.0000137221306289,-0.0000034844792411,0.9999999996821901,-0.0779777081630646,0.2443307657790641,0.0000823114382821,0.0005549145090711,-0.0009140744155948,-0.0007645881653806,-0.0006713226546122,-0.0001088443910840,-0.0002176123651700,,0.0000000000000000,0.0000000000000000,0.0000000000000000,0.0000000000000000,0.0000000000000000,0.0000000000000000,1.0000000000000000,-0.0755855138669150,0.2459037397968215,0.0004794994091152,-0.0098102642223239,-0.0059528849087656,-0.0021041124127805,0.0008114594966173,-0.0000641869410174,-0.0007574954070151,,0.0000000000000000,0.0000000000000000,
1559013412.8541007041931152,0.0999598503112793,,0.0000608926743231,-0.0000640802948601,-0.0001140602429562,-0.0000373096937066,-0.0000189844924195,-0.0000087132854731,0.9999999990858274,-0.0798651435414091,0.2437269247291102,-0.0005160265755550,0.0011061855532015,-0.0033799717536283,-0.0017536299372295,-0.0014824384616985,0.0004133351236126,0.0008436244272202,,0.0026245542083911,0.0026448552001494,-0.0084863851899029,-0.0000333937179824,0.0001718520074773,-0.0000101301488424,0.9999999846245635,-0.0794174526191618,0.2655949411350161,-0.0007079784706163,0.0011400097282603,-0.0002242026966996,-0.0186141021549702,-0.0007273238734342,-0.0001038627669914,-0.0002373664610786,,0.0000000000000000,0.0000000000000000,
1559013412.8874206542968750,0.1332798004150391,,0.0001262903034411,-0.0001468154741993,-0.0002142065874932,-0.0000378024141703,-0.0000235806923088,-0.0000050935236011,0.9999999989944923,-0.0799198270708824,0.2432008019201591,-0.0001005132246582,0.0021184657892204,-0.0024107857097970,-0.0026184181863062,0.0001285783637746,-0.0003722209284548,-0.0002117934720251,,0.0026245542083911,0.0026448552001494,-0.0084863851899029,-0.0000333937179824,0.0001718520074773,-0.0000101301488424,0.9999999846245635,-0.0794174526191618,0.2655949411350161,-0.0007079784706163,0.0011400097282603,-0.0002242026966996,-0.0186141021549702,-0.0007273238734342,-0.0001038627669914,-0.0002373664610786,,0.0000000000000000,0.0000000000000000,
1559013412.9207408428192139,0.1665999889373779,,0.0001876071963411,-0.0002485065635448,-0.0002723575101359,-0.0000332340376668,-0.0000278667317498,-0.0000049033733097,0.9999999990474505,-0.0793962315090670,0.2427096905476230,-0.0000780715043153,0.0016332172232536,-0.0030002443095807,-0.0000183282768429,0.0009260591413560,0.0006978172556181,-0.0004629382745979,,0.0013044971720459,0.0006642558835833,-0.0097306379038952,-0.0000438730574526,0.0002087906767953,-0.0000009822662857,0.9999999772403214,-0.0806136494002281,0.2698292134783979,0.0003343256994272,-0.0023964915890247,-0.0079505480825901,-0.0198433436453342,0.0003404117596801,-0.0015395777300000,-0.0001423610374331,,0.0000000000000000,0.0000000000000000,
1559013412.9540607929229736,0.1999199390411377,,0.0002510355284044,-0.0003552317527220,-0.0002739830334416,-0.0000129934686530,-0.0000142844809747,-0.0000089746469803,0.9999999997732896,-0.0770788454877928,0.2442654901962383,-0.0005467471256826,0.0015572095440772,-0.0016274100853720,0.0003069651755764,0.0011929260021615,0.0012332859105604,-0.0007229402316692,,0.0013044971720459,0.0006642558835833,-0.0097306379038952,-0.0000438730574526,0.0002087906767953,-0.0000009822662857,0.9999999772403214,-0.0806136494002281,0.2698292134783979,0.0003343256994272,-0.0023964915890247,-0.0079505480825901,-0.0198433436453342,0.0003404117596801,-0.0015395777300000,-0.0001423610374331,,0.0000000000000000,0.0000000000000000,
1559013412.9873807430267334,0.2332398891448975,,0.0003049992330981,-0.0004089312959995,-0.0003164140705479,-0.0000144173017045,-0.0000098617901226,-0.0000141313640163,0.9999999997475956,-0.0772445424394733,0.2447715032002950,-0.0011383418386656,0.0011389741805766,-0.0019570558982999,-0.0014499054642399,-0.0004121206084769,0.0004209957160276,0.0003212774096721,,0.0018857590854552,-0.0013061177091510,-0.0060609667982342,-0.0000362485746485,0.0002088160531889,0.0000027108259949,0.9999999775372739,-0.0797380425351669,0.2698326961289798,0.0007577056763264,-0.0000950830581132,-0.0141929863020778,-0.0110827842727304,0.0008529586484656,0.0008104145526886,-0.0009446555632167,,0.0000000000000000,0.0000000000000000,
1559013413.0207006931304932,0.2665598392486572,,0.0003431363790865,-0.0004716913804853,-0.0004165912864769,-0.0000362799963632,-0.0000178833168929,-0.0000100745123364,0.9999999991312265,-0.0797478174257171,0.2438528996089663,-0.0006721862495950,0.0008971832518353,-0.0020463925252434,-0.0023451758404527,-0.0009427345252527,-0.0001135738131031,0.0003124202551737,,0.0018767528659337,-0.0015868478416372,-0.0062711862608355,-0.0000291626588616,0.0002160709066437,-0.0000033503031968,0.9999999762258388,-0.0789291896576434,0.2706631018623400,0.0000621929295683,-0.0001832428679336,-0.0139995729550719,-0.0103720519691706,-0.0000324573375110,0.0006396181997843,0.0005033669876866,,0.0000000000000000,0.0000000000000000,
1559013413.0540206432342529,0.2998797893524170,,0.0003903418709308,-0.0005530731092706,-0.0004847153840386,-0.0000454537236579,-0.0000198192877273,-0.0000091906053814,0.9999999987283439,-0.0807986128321173,0.2436311815676687,-0.0005705755700852,0.0017486898863368,-0.0027608805572256,-0.0017974615562203,0.0003923254197449,-0.0003731200542663,0.0000570656395446,,-0.0012296630497877,0.0025351477552150,0.0010995718084875,-0.0000417926695341,0.0002369557506546,0.0000081066828663,0.9999999710198130,-0.0803705614379537,0.2730581080783792,0.0013715104470487,-0.0104640517383814,0.0027693663723767,0.0022680787369609,-0.0004222550487611,-0.0009954593842849,-0.0014647236093879,,0.0000000000000000,0.0000000000000000,
1559013413.0873408317565918,0.3331999778747559,,0.0004237535325746,-0.0005978757769990,-0.0004860558387063,-0.0000408711651292,-0.0000194033936083,-0.0000116516468054,0.9999999989086478,-0.0802746959483377,0.2436784607016801,-0.0008526676708120,0.0017248979687024,-0.0031915402052408,-0.0011769915969082,0.0001260234255512,-0.0003740971110650,0.0000545037719461,,-0.0012296630497877,0.0025351477552150,0.0010995718084875,-0.0000417926695341,0.0002369557506546,0.0000081066828663,0.9999999710198130,-0.0803705614379537,0.2730581080783792,0.0013715104470487,-0.0104640517383814,0.0027693663723767,0.0022680787369609,-0.0004222550487611,-0.0009954593842849,-0.0014647236093879,,0.0000000000000000,0.0000000000000000,
1559013413.1206507682800293,0.3665099143981934,,0.0004878406004025,-0.0007145164808269,-0.0005473966638525,-0.0000410329613645,-0.0000277651228368,-0.0000041844846178,0.9999999987639422,-0.0802895710848723,0.2427214417708148,0.0000043168062862,0.0027640081286105,-0.0047846129831608,-0.0033723550926010,0.0001177937450998,-0.0009142172566204,0.0011159593238686,,-0.0016435135824158,0.0026275468295871,0.0012304795801690,-0.0000513339756734,0.0002473163494147,-0.0000056877855006,0.9999999680835472,-0.0814710891680904,0.2742431862158812,-0.0002111219548778,-0.0103930579498410,0.0014988548355177,0.0039006241131574,0.0011318795150146,0.0002227528020740,-0.0000919199519558,,0.0000000000000000,0.0000000000000000,
1559013413.1539707183837891,0.3998298645019531,,0.0005995056444001,-0.0008566439646602,-0.0007327649312774,-0.0000265381122946,-0.0000211866395349,-0.0000015461423219,0.9999999994222321,-0.0786273002302369,0.2434756935053941,0.0003055903748232,0.0026085983736013,-0.0025300488559390,-0.0020217730056315,0.0006597571479929,0.0006968401992383,-0.0004655001468570,,0.0030802988584500,0.0012210024314830,-0.0004229099459523,-0.0000380366311522,0.0002537059910602,0.0000099031762481,0.9999999670442055,-0.0799392118169074,0.2749778185721677,0.0015748725432740,0.0080886157229543,-0.0046372590586543,0.0003316676011309,0.0006035095429979,0.0012304764240980,0.0005028592422605,,0.0000000000000000,0.0000000000000000,
1559013413.1872906684875488,0.4331498146057129,,0.0006708280535326,-0.0009374410434306,-0.0007886293560881,-0.0000239243097753,-0.0000153891067688,-0.0000099970235310,0.9999999995454312,-0.0783319266856501,0.2441387409349561,-0.0006637158717837,0.0014403157798811,-0.0019550996460505,0.0001425410149573,0.0001302729644698,0.0012312538768607,-0.0009994849524831,,0.0032453695944055,0.0011196545295340,-0.0004223351860165,-0.0000312984294318,0.0002538822486879,0.0000161588989184,0.9999999671515505,-0.0791638111367561,0.2749989768490645,0.0022919017707144,0.0086654815822840,-0.0050508026033640,-0.0003003584279213,0.0014034562045708,-0.0017996052047238,-0.0003075636050198,,0.0000000000000000,0.0000000000000000,
1559013413.2206108570098877,0.4664700031280518,,0.0007284480847740,-0.0008886798055659,-0.0007315426503732,-0.0000182412903460,-0.0000186754749532,-0.0000192787412147,0.9999999994734061,-0.0776852396993974,0.2437607350538383,-0.0017268373669011,0.0022551233246094,-0.0001487526029335,-0.0023618151901572,0.0012059961659142,-0.0008934233754680,-0.0012704684032654,,0.0032453695944055,0.0011196545295340,-0.0004223351860165,-0.0000312984294318,0.0002538822486879,0.0000161588989184,0.9999999671515505,-0.0791638111367561,0.2749989768490645,0.0022919017707144,0.0086654815822840,-0.0050508026033640,-0.0003003584279213,0.0014034562045708,-0.0017996052047238,-0.0003075636050198,,0.0000000000000000,0.0000000000000000,
1559013413.2539308071136475,0.4997899532318115,,0.0008172569504523,-0.0010119790301468,-0.0008235256994094,-0.0000074805758919,-0.0000191322881270,-0.0000098931098345,0.9999999997400615,-0.0764475561189151,0.2437098389225161,-0.0006512680545896,0.0023071680042153,-0.0030403304775361,-0.0029493196222834,-0.0001473785159736,0.0001537888844754,0.0005882698132561,,0.0013329283684650,-0.0002645851969253,-0.0013593500048340,-0.0000230157938096,0.0002529160120719,0.0000307535759244,0.9999999672789903,-0.0782070900445297,0.2748904838150207,0.0039647358401133,0.0011904048733413,-0.0095880255103111,-0.0023563199210912,0.0018597589805722,0.0016142132226378,-0.0009464622708037,,0.0000000000000000,0.0000000000000000,
1559013413.2872507572174072,0.5331099033355713,,0.0008935208046479,-0.0010958182594844,-0.0009060431874277,-0.0000056884388149,-0.0000201549613367,0.0000003033674073,0.9999999997806637,-0.0762371993694586,0.2435941994401221,0.0005173230478747,0.0028410667154186,-0.0024794003608571,-0.0030071039997963,0.0006566373430543,0.0001604724200918,0.0000633609281094,,-0.0003187015053108,0.0000959066590073,-0.0209231593457670,-0.0000160718343075,0.0002776230263452,0.0000108136414350,0.9999999612751075,-0.0774217422934056,0.2777186218234659,0.0016761845038021,-0.0058840299025178,-0.0058508231304586,-0.0372426919639111,0.0013397382572293,0.0005982400616631,-0.0003023762255907,,0.0000000000000000,0.0000000000000000,
1559013413.3205707073211670,0.5664298534393311,,0.0009951982182421,-0.0012131531457154,-0.0010001340825457,-0.0000014850003536,-0.0000206998518061,0.0000006541984066,0.9999999997844415,-0.0757553488026031,0.2435318125822043,0.0005575984039445,0.0028836259937274,-0.0036783624248951,-0.0020648491029995,0.0001275833293951,-0.0001059132195216,-0.0002099267707992,,-0.0003187015053108,0.0000959066590073,-0.0209231593457670,-0.0000160718343075,0.0002776230263452,0.0000108136414350,0.9999999612751075,-0.0774217422934056,0.2777186218234659,0.0016761845038021,-0.0058840299025178,-0.0058508231304586,-0.0372426919639111,0.0013397382572293,0.0005982400616631,-0.0003023762255907,,0.0000000000000000,0.0000000000000000,
1559013413.3538906574249268,0.5997498035430908,,0.0010999179217119,-0.0014225795496706,-0.0010351757295186,0.0000043934131235,-0.0000162811148428,0.0000009098638132,0.9999999998573976,-0.0750816095366971,0.2440382001633807,0.0005862160352841,0.0023110752826805,-0.0042703206512106,-0.0012300466856947,0.0006530873697241,0.0004249039443886,0.0003315248716414,,0.0034269625326508,0.0011286720590091,-0.0090409392735334,-0.0000107213567495,0.0003332832900764,0.0000064883889218,0.9999999443825994,-0.0768108869699027,0.2840961473448347,0.0011722296041699,0.0091384267434478,-0.0020928373560309,-0.0114530222490430,0.0010196233633906,0.0007099295035005,-0.0002983235754073,,0.0000000000000000,0.0000000000000000,
1559013413.3872108459472656,0.6330699920654297,,0.0011845489660562,-0.0015685045096971,-0.0011043254401402,0.0000078473906284,-0.0000121962159875,0.0000079801407943,0.9999999998629941,-0.0746823477269446,0.2445073567525054,0.0013957964876588,0.0025653085598002,-0.0044282211197489,-0.0033201967549531,-0.0001479433812554,-0.0003807027096621,0.0008508336235349,,0.0040679258189634,0.0016302978887204,-0.0017103729637689,0.0000057362566524,0.0003389510514528,0.0000028056137798,0.9999999425357027,-0.0749269346787147,0.2847450587356998,0.0007499853509923,0.0094946585595608,-0.0007214926299639,0.0039329784922302,-0.0014333359431475,0.0007109196740203,-0.0008072421769612,,0.0000000000000000,0.0000000000000000,
1559013413.4205307960510254,0.6663899421691895,,0.0012636713183671,-0.0016682855519276,-0.0011304306278263,-0.0000012825929525,-0.0000167952704810,0.0000061574632457,0.9999999998391799,-0.0757294608710614,0.2439800769620470,0.0011876399531001,0.0025380079825348,-0.0042143529182327,-0.0041795334988360,-0.0001469483454496,-0.0006470104174288,0.0008489669138842,,0.0040371625405149,0.0010407715328566,-0.0011724512895224,0.0000182179897012,0.0003403120708404,-0.0000080441169780,0.9999999418955441,-0.0735023907927335,0.2848993990187070,-0.0004930345491329,0.0076945354230702,-0.0024773650802672,0.0028743059374392,0.0014570327475667,-0.0012100221356377,0.0000713423796697,,0.0000000000000000,0.0000000000000000,
1559013413.4538507461547852,0.6997098922729492,,0.0013472231677933,-0.0017649930323920,-0.0012517382184272,-0.0000100271440000,-0.0000277924084688,0.0000034957271798,0.9999999995574093,-0.0767328137774996,0.2427194996575317,0.0008843168548302,0.0031104743245537,-0.0022350841676611,-0.0040966738558378,0.0001356783143168,-0.0009010839794823,-0.0007481214004494,,0.0040371625405149,0.0010407715328566,-0.0011724512895224,0.0000182179897012,0.0003403120708404,-0.0000080441169780,0.9999999418955441,-0.0735023907927335,0.2848993990187070,-0.0004930345491329,0.0076945354230702,-0.0024773650802672,0.0028743059374392,0.0014570327475667,-0.0012100221356377,0.0000713423796697,,0.0000000000000000,0.0000000000000000,
1559013413.4871706962585449,0.7330298423767090,,0.0014530219632927,-0.0017491061283143,-0.0013573690532859,0.0000029372639322,-0.0000222055255525,-0.0000060438814586,0.9999999997308793,-0.0752518709696906,0.2433582645659350,-0.0002097346495973,0.0034344835736546,-0.0046397646235841,-0.0026996673165747,0.0001189234799767,0.0001547659385333,0.0005908316580088,,0.0028244609372718,-0.0020864745447010,-0.0040981470072898,0.0000272535559166,0.0003338402301539,-0.0000050454464155,0.9999999438912424,-0.0724653892738492,0.2841582340357628,-0.0001480977271716,0.0034915832802653,-0.0125113883987069,-0.0027146551292390,0.0007540810620412,0.0003361692652106,-0.0002933166106232,,0.0000000000000000,0.0000000000000000,
1559013413.5204906463623047,0.7663497924804688,,0.0015811508686769,-0.0019042615695277,-0.0014616280197480,0.0000037036447988,-0.0000214918463567,0.0000036418445405,0.9999999997555603,-0.0751593114715638,0.2434415067362797,0.0009000673100279,0.0038192714051592,-0.0054563858894154,-0.0033775370883278,0.0003785556952231,-0.0001161932510019,0.0013904185549725,,0.0028910345138242,-0.0023383199389853,-0.0041449240337843,0.0000373961634486,0.0003340290623401,-0.0000106710419311,0.9999999434561191,-0.0713061125007729,0.2841790525900197,-0.0007923905845583,0.0037497158627957,-0.0126193119212985,-0.0020666199270636,0.0008638525614515,0.0007067462429404,0.0000795015148469,,0.0000000000000000,0.0000000000000000,
1559013413.5538108348846436,0.7996699810028076,,0.0016827713191157,-0.0020716588955003,-0.0015630207754856,0.0000041225707328,-0.0000292368567890,0.0000197870428640,0.9999999993683418,-0.0751034180468994,0.2425564273794570,0.0027513518482038,0.0035027058187593,-0.0056196957718626,-0.0038627200883849,0.0006458527252226,-0.0003815239019700,0.0013911137129204,,0.0009705727291415,0.0016289898501757,-0.0079331041607371,0.0000413433631328,0.0003589990839138,-0.0000095545487231,0.9999999346595452,-0.0708532497001342,0.2870405726501778,-0.0006679541082759,-0.0035913039464504,0.0022433528210968,-0.0086488155648112,-0.0000468759790238,-0.0001395221770508,-0.0007117160712369,,0.0000000000000000,0.0000000000000000,
1559013413.5871307849884033,0.8329899311065674,,0.0017931268927858,-0.0022140503049769,-0.0016654180412383,0.0000116322159296,-0.0000291244035549,0.0000235142826336,0.9999999992317696,-0.0742410553406991,0.2425698549023323,0.0031784235417038,0.0025178977982232,-0.0034593363507118,-0.0014049353665386,0.0011872512626139,0.0006950419602396,0.0000722180545389,,0.0008416231557927,0.0017042349993819,-0.0082787919112038,0.0000540832522323,0.0003709936414145,-0.0000274513881228,0.9999999293425681,-0.0694029478739007,0.2884124663842267,-0.0027200200000634,-0.0031365249305964,0.0013117705238983,-0.0091546773910522,-0.0008535996312276,-0.0001344025076833,-0.0015033677918836,,0.0000000000000000,0.0000000000000000,
1559013413.6204507350921631,0.8663098812103271,,0.0018308145490291,-0.0021805637655061,-0.0016529593896604,0.0000124716450140,-0.0000297108981643,0.0000258387471317,0.9999999991470399,-0.0741437297755824,0.2425029933757698,0.0034448747224197,0.0029277832633648,-0.0034123879389522,-0.0022993362692130,0.0001240333574507,0.0001585183175117,0.0000582371648434,,0.0030406504889629,0.0022882742342330,-0.0062925504181727,0.0000611729674452,0.0003626874159403,-0.0000190422897520,0.9999999321765465,-0.0685860076404653,0.2874618788989146,-0.0017548979202029,0.0040563573129475,0.0002654088311829,-0.0037910772953182,0.0001189401809825,-0.0001427652314305,-0.0001788293011487,,0.0000000000000000,0.0000000000000000,
1559013413.6537706851959229,0.8996298313140869,,0.0019316951613122,-0.0022860378069958,-0.0017477247059298,0.0000123439686940,-0.0000333562701300,0.0000279911362335,0.9999999989757411,-0.0741573185308599,0.2420855875314711,0.0036920686015656,0.0032916150036488,-0.0041802941731517,-0.0029010894006624,-0.0004136805087264,0.0001528118256918,0.0005857079187916,,0.0036291435458029,0.0025966150466021,-0.0043469637549630,0.0000571760738891,0.0003901364780748,-0.0000200743580797,0.9999999220607196,-0.0690446522828446,0.2906071492304136,-0.0018773020674637,0.0051087369211018,0.0014169181231409,0.0000617773694103,-0.0004234086372890,-0.0003483407199383,-0.0010793746914715,,0.0000000000000000,0.0000000000000000,
1559013413.6870906352996826,0.9329497814178467,,0.0020102504605244,-0.0021777101933444,-0.0018730187034182,0.0000004454633177,-0.0000293059067763,0.0000322389081927,0.9999999990508092,-0.0755187013449815,0.2425504046015533,0.0041782647960651,0.0030577942858269,-0.0043684464195382,-0.0028512251639081,-0.0012110265888899,0.0004180645456728,0.0003135917816756,,0.0029954825554080,0.0032025419981495,0.0006789376870445,0.0000544467831987,0.0004025603575399,-0.0000166703444748,0.9999999173513996,-0.0693556131155782,0.2920313069036726,-0.0014891490537248,0.0025517339818180,0.0034124318044633,0.0093907183036208,0.0006610900745727,-0.0005176760023460,0.0005640679155476,,0.0000000000000000,0.0000000000000000,
1559013413.7204108238220215,0.9662699699401855,,0.0020907791972036,-0.0022785031023184,-0.0019491275827636,-0.0000086926592521,-0.0000273560105737,0.0000328666795742,0.9999999990479339,-0.0765655401964519,0.2427739753560815,0.0042499366716938,0.0038334595064958,-0.0050192631158287,-0.0045129097172347,-0.0004097003673322,-0.0009124190017545,0.0005782410889059,,0.0029954825554080,0.0032025419981495,0.0006789376870445,0.0000544467831987,0.0004025603575399,-0.0000166703444748,0.9999999173513996,-0.0693556131155782,0.2920313069036726,-0.0014891490537248,0.0025517339818180,0.0034124318044633,0.0093907183036208,0.0006610900745727,-0.0005176760023460,0.0005640679155476,,0.0000000000000000,0.0000000000000000,
1559013413.7537307739257812,0.9995899200439453,,0.0021653625418816,-0.0023587363160141,-0.0020110145409425,-0.0000038575131818,-0.0000285998605476,0.0000372263975225,0.9999999988906815,-0.0760093473098771,0.2426320833827541,0.0047497010035156,0.0036093392875251,-0.0048406052561096,-0.0027193169825602,0.0001189234778320,0.0001547659429095,0.0005908316627057,,0.0029821578802633,0.0023954715740928,-0.0033581745908973,0.0000636555501370,0.0004000566115030,-0.0000217090852176,0.9999999177156937,-0.0683030665391002,0.2917436920126553,-0.0020657681279611,0.0022860211320221,-0.0006600108463317,0.0015310561284423,-0.0004109627625439,-0.0006739070522599,-0.0001190709881485,,0.0000000000000000,0.0000000000000000,
1559013413.7870507240295410,1.0329098701477051,,0.0023097076237122,-0.0025200546781235,-0.0021327184350810,-0.0000000766624268,-0.0000267863426294,0.0000437467075760,0.9999999986843557,-0.0755729003860830,0.2428408663825583,0.0054965930857298,0.0038271904145147,-0.0030140689418250,-0.0039809635952239,-0.0001377236301348,-0.0003731979860415,-0.0002143553587993,,0.0029821578802633,0.0023954715740928,-0.0033581745908973,0.0000636555501370,0.0004000566115030,-0.0000217090852176,0.9999999177156937,-0.0683030665391002,0.2917436920126553,-0.0020657681279611,0.0022860211320221,-0.0006600108463317,0.0015310561284423,-0.0004109627625439,-0.0006739070522599,-0.0001190709881485,,0.0000000000000000,0.0000000000000000,
1559013413.8203706741333008,1.0662298202514648,,0.0023239599965963,-0.0024127513356586,-0.0020700385714200,-0.0000041887942709,-0.0000285771220852,0.0000462550433871,0.9999999985131365,-0.0760428983133160,0.2426360592641827,0.0057843136174028,0.0037754138000348,-0.0040160816635516,-0.0038677394051932,-0.0004126854748044,-0.0001134958829041,0.0005838412151662,,0.0028483643782737,0.0054159764026453,-0.0048358352553247,0.0000756474026680,0.0004063720092715,-0.0000323465478623,0.9999999140464770,-0.0669346459473181,0.2924658971404100,-0.0032850968095539,0.0015071481466293,0.0085062691941857,-0.0014686621725559,-0.0004123515100218,-0.0004598114755936,-0.0001185764558613,,0.0000000000000000,0.0000000000000000,
1559013413.8536908626556396,1.0995500087738037,,0.0023239599965963,-0.0024127513356586,-0.0020700385714200,-0.0000041887942709,-0.0000285771220852,0.0000462550433871,0.9999999985131365,-0.0760428983133160,0.2426360592641827,0.0057843136174028,0.0037754138000348,-0.0040160816635516,-0.0038677394051932,-0.0004126854748044,-0.0001134958829041,0.0005838412151662,,0.0052727955121410,0.0028594060605301,-0.0016091656637851,0.0000741511501028,0.0004075664680992,-0.0000336539987448,0.9999999136292910,-0.0671068135670647,0.2926025797277269,-0.0034351616037410,0.0104847270995378,-0.0010913329897448,0.0042982785962522,0.0000560693915759,0.0001306207850575,-0.0007089182618074,,0.0000000000000000,0.0000000000000000,
1559013413.8870108127593994,1.1328699588775635,,0.0025604719203822,-0.0025818429383200,-0.0023145864574500,-0.0000120084167398,-0.0000380746779768,0.0000365734106236,0.9999999985342513,-0.0769437245587062,0.2415462854619782,0.0046763453101320,0.0039186607719403,-0.0020472520234824,-0.0042935767876468,0.0004004204023656,-0.0011682908194916,-0.0004811290017274,,0.0054303640759792,0.0028405871846140,-0.0015512931906976,0.0000727297327581,0.0004122941432348,-0.0000389757507913,0.9999999116024042,-0.0672725866643876,0.2931435651078277,-0.0040457387794924,0.0105438055470586,-0.0008907766314223,0.0042810388840735,0.0001138636871474,-0.0001375615538564,-0.0004429370164871,,0.0000000000000000,0.0000000000000000,
1559013413.9203307628631592,1.1661899089813232,,0.0027276909296969,-0.0027223636304493,-0.0024530351394985,-0.0000318477696587,-0.0000445808725071,0.0000335886790934,0.9999999979350331,-0.0792186223068966,0.2408003524353425,0.0043354110813063,0.0039338450624844,-0.0043257557027303,-0.0034772605881559,-0.0004152404145557,-0.0001153720718719,0.0008501384539346,,0.0054303640759792,0.0028405871846140,-0.0015512931906976,0.0000727297327581,0.0004122941432348,-0.0000389757507913,0.9999999116024042,-0.0672725866643876,0.2931435651078277,-0.0040457387794924,0.0105438055470586,-0.0008907766314223,0.0042810388840735,0.0001138636871474,-0.0001375615538564,-0.0004429370164871,,0.0000000000000000,0.0000000000000000,
1559013413.9536507129669189,1.1995098590850830,,0.0027365721150263,-0.0024093205681910,-0.0025730455676031,-0.0000323202484100,-0.0000407456669451,0.0000393883513775,0.9999999978718751,-0.0792699267876040,0.2412407340551176,0.0049994184093641,0.0033791882798699,-0.0032044252338925,-0.0024755346103746,0.0011785914073833,0.0009557210999867,0.0008729764981285,,0.0042457708010142,0.0032688893773403,-0.0056604679087909,0.0000648888487885,0.0004357793942480,-0.0000388127972930,0.9999999021896570,-0.0681711214985140,0.2958347627029305,-0.0040308126094763,0.0040785656310618,0.0004996526986361,-0.0031115380115807,-0.0004219063557684,-0.0014084292342886,-0.0011841928353533,,0.0000000000000000,0.0000000000000000,
1559013413.9869606494903564,1.2328197956085205,,0.0029151134512984,-0.0025948891518932,-0.0027587335539047,-0.0000323785325474,-0.0000297763818555,0.0000530435127230,0.9999999976256918,-0.0792698939706051,0.2424998349604476,0.0065624989642772,0.0031779444088172,-0.0038519624527553,-0.0046095894296667,-0.0004122553108833,-0.0009142951837633,0.0008445383359025,,0.0016163225134831,0.0018428269025782,0.0076378858718637,0.0000685984619212,0.0004543867289951,-0.0000311516418720,0.9999998939282577,-0.0677419600665057,0.2979681196768502,-0.0031553800325751,-0.0052592363208532,-0.0075239953584969,0.0202106647193432,0.0005249262321740,0.0007250083726831,-0.0012422207510099,,0.0000000000000000,0.0000000000000000,
1559013414.0202808380126953,1.2661399841308594,,0.0029294098347574,-0.0030099059944801,-0.0019283708823179,-0.0000318024572089,-0.0000334559727885,0.0000524907468786,0.9999999975570116,-0.0792041703113913,0.2420780962315636,0.0064997236677749,0.0020000586483263,-0.0017065134440664,-0.0011761478100102,0.0001236031797572,0.0009593176146417,-0.0002024599372302,,0.0016163225134831,0.0018428269025782,0.0076378858718637,0.0000685984619212,0.0004543867289951,-0.0000311516418720,0.9999998939282577,-0.0677419600665057,0.2979681196768502,-0.0031553800325751,-0.0052592363208532,-0.0075239953584969,0.0202106647193432,0.0005249262321740,0.0007250083726831,-0.0012422207510099,,0.0000000000000000,0.0000000000000000,
1559013414.0536007881164551,1.2994599342346191,,0.0030401340941626,-0.0030936858616913,-0.0020357706705779,-0.0000303124884101,-0.0000320288063266,0.0000561719055326,0.9999999974500129,-0.0790316278552656,0.2422421974175218,0.0069213304309856,0.0042557789712232,-0.0026280644577654,-0.0050118980009694,0.0001254585655088,-0.0009085887704091,0.0003170675440124,,0.0000121213038593,0.0015928919038833,-0.0050828893196578,0.0000748137299263,0.0004453782290903,-0.0000428664643663,0.9999998971017973,-0.0670360616612345,0.2969341739491855,-0.0044962081267990,-0.0103412009775639,-0.0070697003975511,-0.0045804427936673,-0.0004666797758546,-0.0001374986022711,0.0000456533380202,,0.0000000000000000,0.0000000000000000,
1559013414.0869207382202148,1.3327798843383789,,0.0031459709875847,-0.0030504239247212,-0.0021221756042902,-0.0000268114530273,-0.0000305810185632,0.0000585333496209,0.9999999974598972,-0.0786292772844923,0.2424084430754540,0.0071916981140551,0.0040169957371092,-0.0020857018483117,-0.0030165417672284,-0.0001387186596554,-0.0001068903386873,-0.0002124886825763,,-0.0001918267742289,0.0014583252582462,-0.0051793105503548,0.0000672918954053,0.0004469704203664,-0.0000485581158316,0.9999998966656715,-0.0679011019789145,0.2971157712807340,-0.0051490438799222,-0.0097791878506541,-0.0069832173176110,-0.0047325701452792,0.0013753385283053,0.0003016986011062,-0.0014640276785940,,0.0000000000000000,0.0000000000000000,
1559013414.1202406883239746,1.3660998344421387,,0.0032639008603079,-0.0031314889290385,-0.0022052326867674,-0.0000329245890231,-0.0000355647937748,0.0000579465126936,0.9999999971466594,-0.0793301073751404,0.2418372951654714,0.0071252443137169,0.0038425473157402,-0.0019515453001421,-0.0032223437161326,-0.0006632276669424,-0.0009040152073757,-0.0007558070381329,,-0.0003862388438266,0.0013193463922199,-0.0052756966752279,0.0000762091679498,0.0004512275026457,-0.0000531757478453,0.9999998938791161,-0.0668817920699509,0.2976029888637595,-0.0056783421457382,-0.0093114748597145,-0.0073452508077025,-0.0049650780856609,0.0013335975818336,0.0000820299610496,-0.0005578060518019,,0.0000000000000000,0.0000000000000000,
1559013414.1535606384277344,1.3994197845458984,,0.0034446953941962,-0.0034221393924681,-0.0022256928699412,-0.0000333132044679,-0.0000280225516842,0.0000469451896739,0.9999999979505581,-0.0793799696861769,0.2426998697255455,0.0058634084337985,0.0032870059656902,-0.0030245193177954,-0.0023033856066572,-0.0004060156924186,0.0001584403152692,-0.0002131838439895,,0.0054194410451250,0.0039221283223847,-0.0059444888312575,0.0000707223501789,0.0004701856227759,-0.0000471678987493,0.9999998858495028,-0.0675073877342590,0.2997762539914523,-0.0049928816865142,0.0113711925223470,0.0025506995152682,-0.0051999506540596,-0.0004708282649517,0.0001321081072092,-0.0002189685619669,,0.0000000000000000,0.0000000000000000,
1559013414.1868808269500732,1.4327399730682373,,0.0035422245286834,-0.0035037707642002,-0.0023115812898741,-0.0000314207506571,-0.0000236064101744,0.0000444942852464,0.9999999982378662,-0.0791642884033304,0.2432055323954032,0.0055818638398940,0.0030623821060419,-0.0021385918096875,-0.0026979389584193,-0.0006691978769425,0.0006938310419360,-0.0007446067824034,,0.0016039150001529,0.0026808541271728,-0.0077449373068534,0.0000509286114285,0.0004870076570089,-0.0000417809085965,0.9999998792420798,-0.0697727422121326,0.3017045906296459,-0.0043790822358526,-0.0030165864154696,-0.0030540812294930,-0.0095399990677834,0.0000660082805553,-0.0000287355851469,0.0002058113022940,,0.0000000000000000,0.0000000000000000,
1559013414.2202007770538330,1.4660599231719971,,0.0036245500964411,-0.0033394692855030,-0.0023732059928481,-0.0000346544929428,-0.0000202128940391,0.0000508270126233,0.9999999979035600,-0.0795317329463621,0.2435953990192649,0.0063070292283542,0.0028335008303063,-0.0026133885680178,-0.0038451307667749,-0.0004055855183901,-0.0006423589879294,0.0000475132688551,,0.0016039150001529,0.0026808541271728,-0.0077449373068534,0.0000509286114285,0.0004870076570089,-0.0000417809085965,0.9999998792420798,-0.0697727422121326,0.3017045906296459,-0.0043790822358526,-0.0030165864154696,-0.0030540812294930,-0.0095399990677834,0.0000660082805553,-0.0000287355851469,0.0002058113022940,,0.0000000000000000,0.0000000000000000,
1559013414.2535207271575928,1.4993798732757568,,0.0037034938743055,-0.0034285720413174,-0.0024616783442314,-0.0000474894623175,-0.0000265953892296,0.0000555036485793,0.9999999969783906,-0.0810002590627451,0.2428648266013581,0.0068439654488452,0.0027084133012291,-0.0034691726969077,-0.0021918087993814,-0.0009478444007490,-0.0001173262370746,0.0008450146980570,,0.0001515348646201,0.0012294817827928,-0.0051123345942179,0.0000495634790215,0.0004787440758719,-0.0000295359639095,0.9999998837375924,-0.0699224355375030,0.3007594300014954,-0.0029747703706644,-0.0074289659969509,-0.0072463871911168,-0.0031776153482497,0.0000637078628642,-0.0005068728933111,-0.0000599529594183,,0.0000000000000000,0.0000000000000000,
1559013414.2868406772613525,1.5326998233795166,,0.0037934769358454,-0.0034797171210509,-0.0024177641743689,-0.0000617118008767,-0.0000236338365116,0.0000609060462918,0.9999999959617746,-0.0826273595586541,0.2432051403187352,0.0074626143458439,0.0032305504170752,-0.0017592769526284,-0.0029280989702419,-0.0006774275659143,0.0001537108927112,0.0003168487873640,,0.0001515348646201,0.0012294817827928,-0.0051123345942179,0.0000495634790215,0.0004787440758719,-0.0000295359639095,0.9999998837375924,-0.0699224355375030,0.3007594300014954,-0.0029747703706644,-0.0074289659969509,-0.0072463871911168,-0.0031776153482497,0.0000637078628642,-0.0005068728933111,-0.0000599529594183,,0.0000000000000000,0.0000000000000000,
1559013414.3201606273651123,1.5660197734832764,,0.0039072998953180,-0.0035193588039943,-0.0025816638611476,-0.0000715441308457,-0.0000295922371377,0.0000630896276118,0.9999999950127177,-0.0837530324849948,0.2425227750854336,0.0077138121081304,0.0030088717537451,-0.0016181640574502,-0.0056230660472236,-0.0006779924317697,-0.0003807807112769,0.0005794126080131,,0.0033008006095580,0.0011785803558295,0.0061231132623880,0.0000425381149729,0.0005060812556475,-0.0000255228093975,0.9999998707104205,-0.0707253920346598,0.3038926008353187,-0.0025192764290060,0.0057506039738655,-0.0057758740149438,0.0190748348832130,-0.0001634397485759,0.0007278783014044,-0.0009080261806957,,0.0000000000000000,0.0000000000000000,
1559013414.3534808158874512,1.5993399620056152,,0.0039928788564674,-0.0035258756138595,-0.0027093152096664,-0.0000914300216837,-0.0000295661299212,0.0000652240765910,0.9999999932561076,-0.0860307447109405,0.2425262555044569,0.0079584669068422,0.0024327871226521,-0.0023113722689979,-0.0033859682687991,-0.0001448235767704,0.0001556650004640,0.0003219725185404,,0.0034192999153591,0.0010579430106152,0.0064953994279523,0.0000345271351897,0.0005111463805106,-0.0000263829984575,0.9999998684205874,-0.0716438772364495,0.3044728703048402,-0.0026190585096938,0.0061334241181612,-0.0059950468130410,0.0181544125080109,-0.0012176220770925,0.0004556177300401,-0.0002580562722869,,0.0000000000000000,0.0000000000000000,
1559013414.3868007659912109,1.6326599121093750,,0.0040796471903972,-0.0036185077899642,-0.0028035082446546,-0.0000992350520661,-0.0000328201452736,0.0000641034689763,0.9999999924829940,-0.0869257042208543,0.2421532494854281,0.0078306087904205,0.0021243108150644,-0.0029945946773263,-0.0001967986591656,-0.0004080057700450,0.0006910557316789,-0.0002094504099519,,0.0057367386720548,0.0016183337584161,0.0098573301577264,0.0000261658727469,0.0004975904176237,-0.0000332114235218,0.9999998753080546,-0.0726057057987067,0.3029184345740711,-0.0034000292129137,0.0127253644168377,-0.0035268568899482,0.0208079684525728,-0.0005384065443650,-0.0007062302902341,-0.0015981659526005,,0.0000000000000000,0.0000000000000000,
1559013414.4201207160949707,1.6659798622131348,,0.0041198213541720,-0.0036403488556586,-0.0026437030588476,-0.0000969999691958,-0.0000320130158815,0.0000597613418361,0.9999999929973774,-0.0866716969059047,0.2422450187735578,0.0073328944029159,0.0019748827543636,-0.0035475891587381,-0.0017122932510701,-0.0006789874714916,-0.0001144729962505,0.0005812793254109,,0.0057367386720548,0.0016183337584161,0.0098573301577264,0.0000261658727469,0.0004975904176237,-0.0000332114235218,0.9999998753080546,-0.0726057057987067,0.3029184345740711,-0.0034000292129137,0.0127253644168377,-0.0035268568899482,0.0208079684525728,-0.0005384065443650,-0.0007062302902341,-0.0015981659526005,,0.0000000000000000,0.0000000000000000,
1559013414.4534406661987305,1.6992998123168945,,0.0041984293650470,-0.0037601448822943,-0.0027689497742297,-0.0001049293196457,-0.0000413862581350,0.0000739630036121,0.9999999909032448,-0.0875734736945889,0.2411732964725089,0.0089618558834780,0.0029344494876846,-0.0036688538748992,-0.0068160258674708,-0.0004108301050236,-0.0019814022736205,0.0011033687091515,,0.0021895927776940,0.0029798482027788,-0.0017919951850399,0.0000030791525065,0.0005051542388313,-0.0000423319240284,0.9999998715088527,-0.0752563039453160,0.3037837185136449,-0.0044476326101652,-0.0012074953410774,0.0004014892037958,0.0003388677432667,0.0008526051533408,0.0004610072937794,-0.0004364303313196,,0.0000000000000000,0.0000000000000000,
1559013414.4867608547210693,1.7326200008392334,,0.0042468776970321,-0.0036001561739419,-0.0029229451918359,-0.0001037719633927,-0.0000504107576218,0.0000821031928547,0.9999999899746005,-0.0874369641726444,0.2401404829744876,0.0098961255584166,0.0023073086921465,-0.0034266324106770,-0.0043641842340870,0.0003872155391696,-0.0003768724914041,0.0005896600819089,,-0.0014186147277336,0.0028985353920135,-0.0137229153900472,-0.0000057996978002,0.0005104819711338,-0.0000229059692081,0.9999998694249101,-0.0762630878852232,0.3043971376825290,-0.0022228761208905,-0.0113122472539544,-0.0013487567193806,-0.0224984772503376,0.0019746769685298,0.0005661716568284,0.0000881503365235,,0.0000000000000000,0.0000000000000000,
1559013414.5200808048248291,1.7659399509429932,,0.0043514704169423,-0.0037122780177474,-0.0030375513713974,-0.0001008629388857,-0.0000536108250731,0.0000790807190231,0.9999999903493934,-0.0871051105092008,0.2397732636275983,0.0095502766141625,0.0039589226885708,-0.0030860831810925,-0.0018998908056618,0.0001291432157373,0.0001622706049499,-0.0004743573444917,,-0.0014186147277336,0.0028985353920135,-0.0137229153900472,-0.0000057996978002,0.0005104819711338,-0.0000229059692081,0.9999998694249101,-0.0762630878852232,0.3043971376825290,-0.0022228761208905,-0.0113122472539544,-0.0013487567193806,-0.0224984772503376,0.0019746769685298,0.0005661716568284,0.0000881503365235,,0.0000000000000000,0.0000000000000000,
1559013414.5534007549285889,1.7992599010467529,,0.0044904077458692,-0.0036982615304002,-0.0028713874131299,-0.0000976073119266,-0.0000384438528479,0.0000693570244280,0.9999999920922431,-0.0867366557095072,0.2415096613510299,0.0084335332404664,0.0046981832920667,-0.0042088394155281,-0.0003816196859244,-0.0004166656329610,0.0009517348842118,0.0005913080251477,,0.0019871844674433,0.0011427158324406,0.0014052757964757,0.0000145126597581,0.0004981842610422,-0.0000104171448080,0.9999998757466462,-0.0739285600851628,0.3029898472145832,-0.0007887165253009,0.0037218257784843,-0.0071086878888309,0.0082138963043690,0.0013264474691823,-0.0008638858562335,-0.0011839268263429,,0.0000000000000000,0.0000000000000000,
1559013414.5867207050323486,1.8325798511505127,,0.0046667457450906,-0.0038131840788721,-0.0029027307752245,-0.0001082061099165,-0.0000203458518939,0.0000723689236931,0.9999999913201116,-0.0879495826562411,0.2435841141314359,0.0087757617108682,0.0054838750057317,-0.0038654175583676,-0.0024832839842136,-0.0004146755629582,0.0004191194658566,0.0005875745982669,,0.0020652066108007,0.0009959875257683,0.0015828023016906,0.0000327981342627,0.0004967082862369,-0.0000168803536144,0.9999998759600995,-0.0718367374209462,0.3028197834051907,-0.0015280938783045,0.0044686226174235,-0.0073079913854599,0.0093747563660145,0.0018572803819552,0.0001997409417527,-0.0008685792563483,,0.0000000000000000,0.0000000000000000,
1559013414.6200406551361084,1.8658998012542725,,0.0048950464111346,-0.0038811037508452,-0.0026367041710740,-0.0001067817234271,-0.0000109298202866,0.0000794515286849,0.9999999910828287,-0.0877828138725751,0.2446642557781698,0.0095858337372622,0.0045366534971011,-0.0044164413719312,-0.0035076634946621,-0.0001499334711821,0.0001519126322784,0.0008545670001858,,0.0047568128774480,0.0037095875125719,0.0024648328165501,0.0000356404946868,0.0005075731344468,-0.0000260096516513,0.9999998702113747,-0.0715160763899768,0.3040634651266995,-0.0025756846490801,0.0136421741917729,0.0022794245742261,0.0105858491733670,0.0010575925698504,0.0012645954266191,-0.0008035744540393,,0.0000000000000000,0.0000000000000000,
1559013414.6533608436584473,1.8992199897766113,,0.0050204956791648,-0.0039903136750815,-0.0027382403268634,-0.0001049179706786,-0.0000125667685101,0.0000823059010708,0.9999999910300172,-0.0875678575419719,0.2444771241367618,0.0099131880707665,0.0037084800919723,-0.0032836657284516,-0.0032876756719333,0.0001285783454361,-0.0003722210155665,-0.0002117935211366,,0.0047568128774480,0.0037095875125719,0.0024648328165501,0.0000356404946868,0.0005075731344468,-0.0000260096516513,0.9999998702113747,-0.0715160763899768,0.3040634651266995,-0.0025756846490801,0.0136421741917729,0.0022794245742261,0.0105858491733670,0.0010575925698504,0.0012645954266191,-0.0008035744540393,,0.0000000000000000,0.0000000000000000,
1559013414.6866807937622070,1.9325399398803711,,0.0051743654035079,-0.0045038787961125,-0.0026441059672898,-0.0000979121744518,-0.0000183934753825,0.0000746050278381,0.9999999922544881,-0.0867688747214672,0.2438081173359916,0.0090316616427936,0.0042331356981870,-0.0043736110719641,-0.0028244348205484,0.0001209135307660,-0.0003778495633972,0.0005870982107767,,0.0052291259185608,0.0066394057520543,0.0041492087002540,0.0000389100275542,0.0005036717400379,-0.0000269764555915,0.9999998720365213,-0.0711419311843265,0.3036162666879023,-0.0026857110020908,0.0098902173340321,0.0114108640700579,0.0103509873151779,0.0004561709356494,0.0000499343514093,-0.0024497949052602,,0.0000000000000000,0.0000000000000000,
1559013414.7200007438659668,1.9658598899841309,,0.0053389787367513,-0.0046261640631426,-0.0027285373862029,-0.0000997601613105,-0.0000136296086191,0.0000769360358194,0.9999999919714951,-0.0869794581436560,0.2443544103635652,0.0092980072388386,0.0051981665833963,-0.0044370407798025,-0.0023366498869835,-0.0004182255136310,0.0006835509632029,0.0008557385291765,,0.0048463070129249,-0.0018530932854782,-0.0043371194688543,0.0000496536779303,0.0005462905973898,-0.0000412375629876,0.9999998487002679,-0.0699188675543722,0.3084979834910337,-0.0043255173052810,0.0092678898945451,-0.0197609998285770,-0.0056686224415898,0.0003229734138586,0.0009426797041669,0.0000063279644564,,0.0000000000000000,0.0000000000000000,
1559013414.7533206939697266,1.9991798400878906,,0.0055694554842525,-0.0045831480742302,-0.0027834634040363,-0.0001067075256996,-0.0000086723828206,0.0000884556611912,0.9999999903569450,-0.0877698728501105,0.2449244086387057,0.0106172709198172,0.0061416682794315,-0.0046724449609158,-0.0036518230490046,-0.0009452894563776,-0.0001154500910843,0.0005787174210563,,0.0052264772958771,-0.0026613178782102,-0.0045826045094389,0.0000475461241026,0.0005503896550055,-0.0000303206917289,0.9999998469456131,-0.0701543412170739,0.3089692817089975,-0.0030752484778133,0.0105025302618742,-0.0202286429703236,-0.0065599353983998,-0.0001585589197930,0.0001465858949814,-0.0005223532207310,,0.0000000000000000,0.0000000000000000,
1559013414.7866406440734863,2.0324997901916504,,0.0057577168953991,-0.0046786125470915,-0.0028672197304341,-0.0000970885490711,0.0000015770324266,0.0000775689491363,0.9999999922771924,-0.0866728790383266,0.2460970404294621,0.0093680633610996,0.0051760286158603,-0.0021528452246052,-0.0022625650537956,0.0006684169949570,0.0004361609461409,-0.0012662586402869,,0.0018265234022796,0.0015953799455236,-0.0011554579264682,0.0000444837004642,0.0005729476672168,-0.0000262091427368,0.9999998345326123,-0.0705030742439686,0.3115548276295116,-0.0026075822996182,-0.0026890477165580,-0.0041862255893648,-0.0000044877328946,0.0005216741119511,0.0008985064923763,-0.0011142032453790,,0.0000000000000000,0.0000000000000000,
1559013414.8199608325958252,2.0658199787139893,,0.0058820601134844,-0.0043602485398444,-0.0025914472180371,-0.0000761229467933,0.0000031574886546,0.0000674201835398,0.9999999948249231,-0.0842753801708371,0.2462763388404471,0.0082048423374038,0.0054243939484177,-0.0043517256958078,-0.0031217766192005,0.0009182596265867,-0.0006431022890090,0.0008592143404779,,0.0017678621869116,0.0015124191525959,-0.0011558191354735,0.0000500246131654,0.0005711314993747,-0.0000341708840095,0.9999998350693360,-0.0698725603466937,0.3113455691600101,-0.0035193152565481,-0.0028836037963629,-0.0044308807700872,0.0001653605722822,-0.0004792680847459,0.0003601763455663,-0.0004656376258936,,0.0000000000000000,0.0000000000000000,
1559013414.8532807826995850,2.0991399288177490,,0.0060122705882542,-0.0044294743336897,-0.0026421783325297,-0.0000745446516426,0.0000044925487630,0.0000661410626714,0.9999999950241358,-0.0840951412379148,0.2464291089097005,0.0080580521171667,0.0050742500814064,-0.0026233763223449,-0.0017082576446188,-0.0004095657005785,0.0004228717769998,0.0000549801288073,,0.0017678621869116,0.0015124191525959,-0.0011558191354735,0.0000500246131654,0.0005711314993747,-0.0000341708840095,0.9999998350693360,-0.0698725603466937,0.3113455691600101,-0.0035193152565481,-0.0028836037963629,-0.0044308807700872,0.0001653605722822,-0.0004792680847459,0.0003601763455663,-0.0004656376258936,,0.0000000000000000,0.0000000000000000,
1559013414.8865907192230225,2.1324498653411865,,0.0061674108898959,-0.0045259074478073,-0.0027261266840882,-0.0000751451349614,0.0000078606269156,0.0000778393600013,0.9999999941162266,-0.0841581642078752,0.2468169347591836,0.0093980511264960,0.0038460450188673,-0.0034040461456690,-0.0021584598972510,0.0001128185349153,0.0004173211601561,0.0011252928398888,,0.0035853931829597,0.0016109033633505,0.0015901379357438,0.0000526102442627,0.0005726425298447,-0.0000379765869908,0.9999998339352233,-0.0695783964641965,0.3115181782101862,-0.0039554728880048,0.0037116021849215,-0.0034948575776070,0.0057091480121017,0.0006449705688283,0.0007822083425708,0.0002719526237343,,0.0000000000000000,0.0000000000000000,
1559013414.9199106693267822,2.1657698154449463,,0.0062681338496642,-0.0046118582224074,-0.0027909088564181,-0.0000916734085660,0.0000097491942411,0.0000830739430627,0.9999999922998297,-0.0860495689837915,0.2470343417159236,0.0099975748526057,0.0040925270331328,-0.0038348943311654,-0.0025013829590927,-0.0014763335807373,0.0001507796577467,0.0003091631956406,,0.0035853931829597,0.0016109033633505,0.0015901379357438,0.0000526102442627,0.0005726425298447,-0.0000379765869908,0.9999998339352233,-0.0695783964641965,0.3115181782101862,-0.0039554728880048,0.0037116021849215,-0.0034948575776070,0.0057091480121017,0.0006449705688283,0.0007822083425708,0.0002719526237343,,0.0000000000000000,0.0000000000000000,
1559013414.9532308578491211,2.1990900039672852,,0.0064011194646663,-0.0047564937723666,-0.0026510150354032,-0.0000981619180026,0.0000091528078476,0.0000839915831312,0.9999999916129391,-0.0867926503970853,0.2469662116628281,0.0101028190109997,0.0041027983142812,-0.0038702277147308,-0.0017863639448210,0.0001214783844249,0.0001566419985385,0.0003245344012318,,0.0037245920093585,0.0014593189274381,0.0018194195298815,0.0000452053608667,0.0005873934933458,-0.0000412583801236,0.9999998256115376,-0.0704288468814915,0.3132080009324146,-0.0043341840155431,0.0031235220376402,-0.0038933986797929,0.0055238688364625,0.0007684917072766,-0.0006610307609662,0.0011769605334848,,0.0000000000000000,0.0000000000000000,
1559013414.9865508079528809,2.2324099540710449,,0.0066172847484876,-0.0049028843385577,-0.0027475440386353,-0.0000959877410996,0.0000120910224840,0.0000812851870931,0.9999999920164395,-0.0865448166936204,0.2473024463212097,0.0097922123478359,0.0047492595434369,-0.0025533558265896,-0.0011484751493981,0.0001226081218283,0.0012256251777655,-0.0002005932546020,,0.0018623154410093,0.0027256348443475,0.0001956494993356,0.0000609717752342,0.0005685389954785,-0.0000005049907428,0.9999998365227858,-0.0685993416432927,0.3110533887813620,0.0003396554353508,-0.0041805850341916,0.0011643896577880,0.0006084713968448,-0.0011163554154336,-0.0002244176284876,-0.0005613433313556,,0.0000000000000000,0.0000000000000000,
1559013415.0198707580566406,2.2657299041748047,,0.0067056264072329,-0.0044901506539254,-0.0028079668952201,-0.0000922149201210,0.0000144487627007,0.0000875345317710,0.9999999918126738,-0.0861093789147625,0.2475735982808647,0.0105079645991659,0.0060353782966421,-0.0026827143129515,-0.0034456811708799,0.0006550774127978,-0.0001077116126911,0.0003277914202840,,0.0029704976370324,0.0010159144944673,-0.0068657866970963,0.0000582245274008,0.0005601235302483,0.0000018985634455,0.9999998414339528,-0.0689128105575490,0.3100893950405605,0.0006161232992979,0.0019557164050639,-0.0059154736809433,-0.0117896087467670,-0.0002207496145274,0.0013766620540991,-0.0006734695052728,,0.0000000000000000,0.0000000000000000,
1559013415.0531907081604004,2.2990498542785645,,0.0069046596999580,-0.0046240448326176,-0.0029142200947754,-0.0000974485382449,0.0000144816823153,0.0000958209004645,0.9999999905562091,-0.0867050177972436,0.2475787675138109,0.0114575063424416,0.0051631060296538,-0.0031068608803095,-0.0022947220716090,0.0001265882263968,0.0001603943507377,-0.0002080600747156,,0.0029704976370324,0.0010159144944673,-0.0068657866970963,0.0000582245274008,0.0005601235302483,0.0000018985634455,0.9999998414339528,-0.0689128105575490,0.3100893950405605,0.0006161232992979,0.0019557164050639,-0.0059154736809433,-0.0117896087467670,-0.0002207496145274,0.0013766620540991,-0.0006734695052728,,0.0000000000000000,0.0000000000000000,
1559013415.0865106582641602,2.3323698043823242,,0.0070602818296934,-0.0046182494332651,-0.0029222309178780,-0.0000931383383276,0.0000153689806224,0.0000834689041658,0.9999999920609932,-0.0862171930519956,0.2476783989877546,0.0100419237076784,0.0048645105048649,-0.0019125050891517,-0.0025499559562151,-0.0003963608757088,-0.0003685466305623,-0.0010158089611274,,0.0029221986643147,0.0009211528264380,-0.0058647508733388,0.0000569818828218,0.0005542338034713,0.0000084162661342,0.9999998447535492,-0.0690515848017236,0.3094154253685485,0.0013637793337315,0.0021712789312005,-0.0055115297436714,-0.0089211678132415,0.0002103293809341,-0.0018684096867219,-0.0012658763444051,,0.0000000000000000,0.0000000000000000,
1559013415.1198308467864990,2.3656899929046631,,0.0072026843639186,-0.0047139967981635,-0.0029935754742152,-0.0001026105827203,0.0000150494217237,0.0000828813253266,0.9999999911876346,-0.0873029252157627,0.2476417751635036,0.0099746268003443,0.0048230835929062,-0.0020142246034920,-0.0024030137260207,-0.0001371588350356,0.0001612934813720,-0.0004769192029609,,0.0051925544355761,0.0023813793912971,-0.0010522355678721,0.0000469439347328,0.0005700122294068,-0.0000046649478309,0.9999998364302685,-0.0702091373472664,0.3112216003752460,-0.0001381758148190,0.0089325234293938,0.0004224320291542,0.0012637828476727,-0.0005778026534244,-0.0005969690391794,-0.0000826702453196,,0.0000000000000000,0.0000000000000000,
1559013415.1531507968902588,2.3990099430084229,,0.0073857105892154,-0.0046124767526850,-0.0030590849104895,-0.0001038557014700,0.0000204608124917,0.0000892351824233,0.9999999904162155,-0.0874424177872306,0.2482629216582434,0.0107018471172997,0.0047174518257523,-0.0020754254759534,-0.0030013754698360,0.0001240332827113,0.0001585181729502,0.0000582371525798,,0.0046368757536828,0.0024083626879825,-0.0023725760559474,0.0000458798311537,0.0005587346913442,0.0000202892320099,0.9999998426494540,-0.0703171895108751,0.3099329308591345,0.0027229777647251,0.0063844979740679,-0.0001243474544026,-0.0025399073492736,-0.0001940629445016,0.0010972442105412,0.0014111992204562,,0.0000000000000000,0.0000000000000000,
1559013415.1864707469940186,2.4323298931121826,,0.0075610263396748,-0.0047020264819683,-0.0031789471665444,-0.0001129981162447,0.0000125105047941,0.0000900722889604,0.9999999894809479,-0.0884897241782516,0.2473521152089662,0.0107990557990977,0.0046247533284367,-0.0006609235314552,-0.0026596854043225,0.0001362430902496,-0.0003665925092623,-0.0010106852425137,,0.0035860365057522,0.0049728162104847,-0.0003948088862355,0.0000461034086983,0.0005572411736923,0.0000432721577387,0.9999998427421228,-0.0702788005443683,0.3097651381373013,0.0053568951747581,0.0022059706971049,0.0089474814012647,0.0013144835829735,-0.0006860076682642,-0.0004370108363219,-0.0000765325530665,,0.0000000000000000,0.0000000000000000,
1559013415.2197906970977783,2.4656498432159424,,0.0076198397826606,-0.0046513460042832,-0.0030608188825141,-0.0001204730876472,0.0000122008968734,0.0000888329980353,0.9999999887230357,-0.0893469070925971,0.2473165095848641,0.0106570825673020,0.0042109374333633,-0.0029752577793520,-0.0009130102100333,-0.0001442588000608,0.0006901565345649,0.0000594087043749,,0.0035860365057522,0.0049728162104847,-0.0003948088862355,0.0000461034086983,0.0005572411736923,0.0000432721577387,0.9999998427421228,-0.0702788005443683,0.3097651381373013,0.0053568951747581,0.0022059706971049,0.0089474814012647,0.0013144835829735,-0.0006860076682642,-0.0004370108363219,-0.0000765325530665,,0.0000000000000000,0.0000000000000000,
1559013415.2531106472015381,2.4989697933197021,,0.0077943583157101,-0.0047469747651734,-0.0031310311556945,-0.0001156383563485,0.0000196754268209,0.0000899138461526,0.9999999890780743,-0.0887922828508742,0.2481731551552297,0.0107797181702163,0.0054065684097049,-0.0029429012810341,-0.0031566293845194,0.0001214783156578,0.0001566419882794,0.0003245343952228,,0.0036304880783306,0.0051519430538680,-0.0003610028637882,0.0000409396240160,0.0005788687692688,0.0000372948730190,0.9999998309219795,-0.0708737745339409,0.3122426262887678,0.0046684425669311,0.0018805343424901,0.0090315490961075,0.0019654412753880,-0.0017144266748801,0.0002639917656779,-0.0012922289315611,,0.0000000000000000,0.0000000000000000,
1559013415.2864308357238770,2.5322899818420410,,0.0079950668112090,-0.0046968448218590,-0.0030580949069541,-0.0001149996900119,0.0000181162211254,0.0000800618473525,0.9999999900184872,-0.0887239780576339,0.2479928586089240,0.0096510104159746,0.0066044321092077,-0.0013461285265495,-0.0048974105021133,-0.0003979208124186,-0.0006367305181771,-0.0007513784448107,,0.0036304880783306,0.0051519430538680,-0.0003610028637882,0.0000409396240160,0.0005788687692688,0.0000372948730190,0.9999998309219795,-0.0708737745339409,0.3122426262887678,0.0046684425669311,0.0018805343424901,0.0090315490961075,0.0019654412753880,-0.0017144266748801,0.0002639917656779,-0.0012922289315611,,0.0000000000000000,0.0000000000000000,
1559013415.3197507858276367,2.5656099319458008,,0.0081923466147309,-0.0047906943215650,-0.0031684818018881,-0.0001128651489730,0.0000282444865917,0.0000831446295654,0.9999999897753390,-0.0884777657412795,0.2491539572196516,0.0100026173700077,0.0053818566327595,-0.0022264022347520,-0.0030224744697514,0.0003918951388380,0.0004276790985854,-0.0002036315092980,,0.0024622045541892,0.0033692700341506,0.0010831382365003,0.0000311932746903,0.0005793344129262,0.0000361975982775,0.9999998310441615,-0.0719912381284506,0.3122958639970193,0.0045419871211058,-0.0010414639255032,0.0009290307061747,0.0048048202879727,0.0009482172317803,0.0003190914285369,-0.0010488524567336,,0.0000000000000000,0.0000000000000000,
1559013415.3530707359313965,2.5989298820495605,,0.0082685357690018,-0.0048740668407861,-0.0028711063506962,-0.0000972735139979,0.0000263990465629,0.0000815806016579,0.9999999915927797,-0.0866918860156155,0.2489420833598713,0.0098237415346732,0.0049459979771073,-0.0021129199587518,-0.0020478152325294,0.0006581971330317,0.0004286561553840,-0.0002010696416995,,-0.0009817813704339,-0.0000302048205232,-0.0113073154465510,0.0000366397794939,0.0005790403470259,0.0000539893675716,0.9999998302274612,-0.0713571827692653,0.3122647584925159,0.0065812067841531,-0.0103610353544354,-0.0106029035523534,-0.0180826224386692,0.0003542889317032,0.0002166567428503,-0.0017341335769743,,0.0000000000000000,0.0000000000000000,
1559013415.3863906860351562,2.6322498321533203,,0.0084414183087813,-0.0049634154169992,-0.0029950873293841,-0.0001007275343452,0.0000153792611769,0.0000849872780912,0.9999999911973023,-0.0870861013558888,0.2476798965556644,0.0102159028534789,0.0053641663893022,-0.0020704373705215,-0.0029097953652846,-0.0004070108418032,0.0004247478863580,-0.0002113171276478,,-0.0014185691403290,-0.0004501569395737,-0.0120030723032950,0.0000434684384757,0.0005856383472689,0.0000345169022151,0.9999998269733873,-0.0705855220237378,0.3130179456839972,0.0043492845201148,-0.0107360417023301,-0.0110346311703324,-0.0169592592865229,-0.0017026001587510,0.0004706384497695,-0.0002738574403338,,0.0000000000000000,0.0000000000000000,
1559013415.4197106361389160,2.6655697822570801,,0.0084969497292651,-0.0049381289865389,-0.0032024365093465,-0.0001068856969351,0.0000224393306251,0.0000831399366685,0.9999999905798376,-0.0877926244343583,0.2484886783158101,0.0100030472375699,0.0053971874258479,-0.0013139691284063,-0.0037725417009836,-0.0006682029595501,0.0004275231947798,-0.0007464734831886,,0.0003574812231935,0.0003619826310008,-0.0030307031033011,0.0000280967192277,0.0006463813474378,0.0000294119631035,0.9999997902683102,-0.0723496947302187,0.3199778806545092,0.0037542767039110,-0.0030758511275053,-0.0073704370297492,-0.0008689275127836,-0.0003743243869394,0.0005830600857735,-0.0002860996755771,,0.0000000000000000,0.0000000000000000,
1559013415.4530308246612549,2.6988899707794189,,0.0087123543309511,-0.0050234279986530,-0.0033482168539950,-0.0001063494413781,0.0000256524684819,0.0000789424878157,0.9999999908999154,-0.0877332225271663,0.2488561859600383,0.0095215277347433,0.0049169486290647,-0.0036386719816552,-0.0025027706232145,-0.0001483736737393,0.0004200964124813,0.0005901364640138,,0.0032467484218093,0.0019975254871323,0.0013584030478750,0.0000208630925172,0.0006477631435398,0.0000398047980743,0.9999997891915874,-0.0731727237161890,0.3201377922878259,0.0049444838312599,0.0078006898984313,-0.0011601021979004,0.0067432597279549,-0.0003846271429211,-0.0008461753022857,-0.0015661191428080,,0.0000000000000000,0.0000000000000000,
1559013415.4863507747650146,2.7322099208831787,,0.0087919250750468,-0.0046602671532497,-0.0030364903510629,-0.0001061290479368,0.0000189494230177,0.0000769362199207,0.9999999912291815,-0.0877090142939295,0.2480877447844060,0.0092927194079165,0.0063263026763079,-0.0016738257565822,-0.0044589428007635,0.0003978653441529,-0.0011701671726908,-0.0002148317906065,,0.0032467484218093,0.0019975254871323,0.0013584030478750,0.0000208630925172,0.0006477631435398,0.0000398047980743,0.9999997891915874,-0.0731727237161890,0.3201377922878259,0.0049444838312599,0.0078006898984313,-0.0011601021979004,0.0067432597279549,-0.0003846271429211,-0.0008461753022857,-0.0015661191428080,,0.0000000000000000,0.0000000000000000,
