#Time(sec),Dtime(sec),,x(m),y(m),z(m),qx,qy,qz,qw,roll_x_G(deg),pitch_y_G(deg),yaw_z_G(deg),vx(m/s),vy(m/s),vz(m/s),wx(rad/s),wy(rad/s),wz(rad/s),,gt_x(m),gt_y(m),gt_z(m),gt_qx,gt_qy,gt_qz,gt_qw,gt_groll_x_G(deg),gt_pitch_y_G(deg),gt_yaw_z_G(deg),gt_vx(m/s),gt_vy(m/s),gt_vz(m/s),gt_wx(rad/s),gt_wy(rad/s),gt_wz(rad/s),,Sr,Sr_avg,
1559013412.7541408538818359,0.0000000000000000,,0.0000000000000002,0.0000000000000001,-0.0000000000000001,0.0000000000000000,-0.0000000000000001,0.0000000000000000,1.0000000000000000,-0.0755855138669150,0.2459037397968158,0.0004794994091153,0.0000000000000000,0.0000000000000000,0.0000000000000000,0.0000000000000000,0.0000000000000000,0.0000000000000000,,0.0000000000000000,0.0000000000000000,0.0000000000000000,0.0000000000000000,0.0000000000000000,0.0000000000000000,1.0000000000000000,-0.0755855138669150,0.2459037397968215,0.0004794994091152,-0.0098102642223239,-0.0059528849087656,-0.0021041124127805,0.0008114594966173,-0.0000641869410174,-0.0007574954070151,,0.0000000000000000,0.0000000000000000,
1559013412.7874608039855957,0.0333199501037598,,0.0000219726581638,-0.0000260111889973,-0.0000459141663904,-0.0000208610050351,-0.0000137221306289,-0.0000034844792411,0.9999999996821901,-0.0779777081630646,0.2443307657790641,0.0000823114382821,0.0005549145090711,-0.0009140744155948,-0.0007645881653806,-0.0006713226546122,-0.0001088443910840,-0.0002176123651700,,0.0000000000000000,0.0000000000000000,0.0000000000000000,0.0000000000000000,0.0000000000000000,0.0000000000000000,1.0000000000000000,-0.0755855138669150,0.2459037397968215,0.0004794994091152,-0.0098102642223239,-0.0059528849087656,-0.0021041124127805,0.0008114594966173,-0.0000641869410174,-0.0007574954070151,,0.0000000000000000,0.0000000000000000,
1559013412.8207807540893555,0.0666399002075195,,0.0000608926743231,-0.0000640802948601,-0.0001140602429562,-0.0000373096937066,-0.0000189844924195,-0.0000087132854731,0.9999999990858274,-0.0798651435414091,0.2437269247291102,-0.0005160265755550,0.0011061855532015,-0.0033799717536283,-0.0017536299372295,-0.0014824384616985,0.0004133351236126,0.0008436244272202,,0.0026245542083911,0.0026448552001494,-0.0084863851899029,-0.0000333937179824,0.0001718520074773,-0.0000101301488424,0.9999999846245635,-0.0794174526191618,0.2655949411350161,-0.0007079784706163,0.0011400097282603,-0.0002242026966996,-0.0186141021549702,-0.0007273238734342,-0.0001038627669914,-0.0002373664610786,,0.0000000000000000,0.0000000000000000,
1559013412.8541007041931152,0.0999598503112793,,0.0001262903034411,-0.0001468154741993,-0.0002142065874932,-0.0000378024141703,-0.0000235806923088,-0.0000050935236011,0.9999999989944923,-0.0799198270708824,0.2432008019201591,-0.0001005132246582,0.0021184657892204,-0.0024107857097970,-0.0026184181863062,0.0001285783637746,-0.0003722209284548,-0.0002117934720251,,0.0026245542083911,0.0026448552001494,-0.0084863851899029,-0.0000333937179824,0.0001718520074773,-0.0000101301488424,0.9999999846245635,-0.0794174526191618,0.2655949411350161,-0.0007079784706163,0.0011400097282603,-0.0002242026966996,-0.0186141021549702,-0.0007273238734342,-0.0001038627669914,-0.0002373664610786,,0.0000000000000000,0.0000000000000000,
1559013412.8874206542968750,0.1332798004150391,,0.0001876071963411,-0.0002485065635448,-0.0002723575101359,-0.0000332340376668,-0.0000278667317498,-0.0000049033733097,0.9999999990474505,-0.0793962315090670,0.2427096905476230,-0.0000780715043153,0.0016332172232536,-0.0030002443095807,-0.0000183282768429,0.0009260591413560,0.0006978172556181,-0.0004629382745979,,0.0013044971720459,0.0006642558835833,-0.0097306379038952,-0.0000438730574526,0.0002087906767953,-0.0000009822662857,0.9999999772403214,-0.0806136494002281,0.2698292134783979,0.0003343256994272,-0.0023964915890247,-0.0079505480825901,-0.0198433436453342,0.0003404117596801,-0.0015395777300000,-0.0001423610374331,,0.0000000000000000,0.0000000000000000,
1559013412.9207408428192139,0.1665999889373779,,0.0002510355284044,-0.0003552317527220,-0.0002739830334416,-0.0000129934686530,-0.0000142844809747,-0.0000089746469803,0.9999999997732896,-0.0770788454877928,0.2442654901962383,-0.0005467471256826,0.0015572095440772,-0.0016274100853720,0.0003069651755764,0.0011929260021615,0.0012332859105604,-0.0007229402316692,,0.0013044971720459,0.0006642558835833,-0.0097306379038952,-0.0000438730574526,0.0002087906767953,-0.0000009822662857,0.9999999772403214,-0.0806136494002281,0.2698292134783979,0.0003343256994272,-0.0023964915890247,-0.0079505480825901,-0.0198433436453342,0.0003404117596801,-0.0015395777300000,-0.0001423610374331,,0.0000000000000000,0.0000000000000000,
1559013412.9540607929229736,0.1999199390411377,,0.0003049992330981,-0.0004089312959995,-0.0003164140705479,-0.0000144173017045,-0.0000098617901226,-0.0000141313640163,0.9999999997475956,-0.0772445424394733,0.2447715032002950,-0.0011383418386656,0.0011389741805766,-0.0019570558982999,-0.0014499054642399,-0.0004121206084769,0.0004209957160276,0.0003212774096721,,0.0018767528659337,-0.0015868478416372,-0.0062711862608355,-0.0000291626588616,0.0002160709066437,-0.0000033503031968,0.9999999762258388,-0.0789291896576434,0.2706631018623400,0.0000621929295683,-0.0001832428679336,-0.0139995729550719,-0.0103720519691706,-0.0000324573375110,0.0006396181997843,0.0005033669876866,,0.0000000000000000,0.0000000000000000,
1559013412.9873807430267334,0.2332398891448975,,0.0003431363790865,-0.0004716913804853,-0.0004165912864769,-0.0000362799963632,-0.0000178833168929,-0.0000100745123364,0.9999999991312265,-0.0797478174257171,0.2438528996089663,-0.0006721862495950,0.0008971832518353,-0.0020463925252434,-0.0023451758404527,-0.0009427345252527,-0.0001135738131031,0.0003124202551737,,0.0003195640245647,0.0012565451760955,0.0004369553676586,-0.0000203842576571,0.0002228644697758,0.0000059252942832,0.9999999749404003,-0.0779184667913354,0.2714430136939749,0.0011242835076430,-0.0063411630690098,-0.0023399125784636,0.0026414536405355,0.0006563157658093,0.0000575598314754,0.0000708336956450,,0.0000000000000000,0.0000000000000000,
1559013413.0207006931304932,0.2665598392486572,,0.0003903418709308,-0.0005530731092706,-0.0004847153840386,-0.0000454537236579,-0.0000198192877273,-0.0000091906053814,0.9999999987283439,-0.0807986128321173,0.2436311815676687,-0.0005705755700852,0.0017486898863368,-0.0027608805572256,-0.0017974615562203,0.0003923254197449,-0.0003731200542663,0.0000570656395446,,0.0001864124072654,0.0012166738894161,0.0004830618136631,-0.0000185716344986,0.0002542559187380,0.0000077107003256,0.9999999674747831,-0.0777098268087173,0.2750404781751465,0.0013241122817303,-0.0062631070613861,-0.0018153276760131,0.0017081610858440,-0.0014693180564791,-0.0002084249572363,0.0000913238181965,,0.0000000000000000,0.0000000000000000,
1559013413.0540206432342529,0.2998797893524170,,0.0004236196530547,-0.0005970447256445,-0.0004861490338580,-0.0000408711486128,-0.0000194033449269,-0.0000116517238766,0.9999999989086484,-0.0802746940935195,0.2436784662681636,-0.0008526765102203,0.0017244448729217,-0.0031887275552749,-0.0011773073507349,0.0001260234255512,-0.0003740971110650,0.0000545037719461,,-0.0012296630497877,0.0025351477552150,0.0010995718084875,-0.0000417926695341,0.0002369557506546,0.0000081066828663,0.9999999710198130,-0.0803705614379537,0.2730581080783792,0.0013715104470487,-0.0104640517383814,0.0027693663723767,0.0022680787369609,-0.0004222550487611,-0.0009954593842849,-0.0014647236093879,,0.0000000000000000,0.0000000000000000,
1559013413.0873408317565918,0.3331999778747559,,0.0004876930764404,-0.0007136007133376,-0.0005474993769305,-0.0000410329448481,-0.0000277650741549,-0.0000041845616898,0.9999999987639439,-0.0802895692299539,0.2427214473373387,0.0000043079667670,0.0027635550985459,-0.0047818003345002,-0.0033726708373151,0.0001177937451100,-0.0009142172565912,0.0011159593238225,,-0.0012296630497877,0.0025351477552150,0.0010995718084875,-0.0000417926695341,0.0002369557506546,0.0000081066828663,0.9999999710198130,-0.0803705614379537,0.2730581080783792,0.0013715104470487,-0.0104640517383814,0.0027693663723767,0.0022680787369609,-0.0004222550487611,-0.0009954593842849,-0.0014647236093879,,0.0000000000000000,0.0000000000000000,
1559013413.1206507682800293,0.3665099143981934,,0.0005994175552884,-0.0008567612694824,-0.0007330913919867,-0.0000265381069643,-0.0000211865635048,-0.0000015462738021,0.9999999994222338,-0.0786272996838353,0.2434757021975175,0.0003055752964367,0.0026083577840252,-0.0025303707850601,-0.0020226664618753,0.0006597571480030,0.0006968401992675,-0.0004655001469031,,0.0030802988584500,0.0012210024314830,-0.0004229099459523,-0.0000380366311522,0.0002537059910602,0.0000099031762481,0.9999999670442055,-0.0799392118169074,0.2749778185721677,0.0015748725432740,0.0080886157229543,-0.0046372590586543,0.0003316676011309,0.0006035095429979,0.0012304764240980,0.0005028592422605,,0.0000000000000000,0.0000000000000000,
1559013413.1539707183837891,0.3998298645019531,,0.0006707327196536,-0.0009375680461775,-0.0007889827273999,-0.0000239243044449,-0.0000153890307382,-0.0000099971550126,0.9999999995454312,-0.0783319261393931,0.2441387496271865,-0.0006637309503024,0.0014400752516162,-0.0019554215858828,0.0001416475582413,0.0001302729644723,0.0012312538769070,-0.0009994849525637,,-0.0003187015053108,0.0000959066590073,-0.0209231593457670,-0.0000160718343075,0.0002776230263452,0.0000108136414350,0.9999999612751075,-0.0774217422934056,0.2777186218234659,0.0016761845038021,-0.0058840299025178,-0.0058508231304586,-0.0372426919639111,0.0013397382572293,0.0005982400616631,-0.0003023762255907,,0.0000000000000000,0.0000000000000000,
1559013413.1872906684875488,0.4331498146057129,,0.0007285149214347,-0.0008899413557738,-0.0007317283816414,-0.0000182413010610,-0.0000186754623608,-0.0000192788090347,0.9999999994734048,-0.0776852409604952,0.2437607364863977,-0.0017268451404638,0.0022552824200620,-0.0001517506703116,-0.0023622566875688,0.0012059961659168,-0.0008934233754217,-0.0012704684033460,,-0.0003187015053108,0.0000959066590073,-0.0209231593457670,-0.0000160718343075,0.0002776230263452,0.0000108136414350,0.9999999612751075,-0.0774217422934056,0.2777186218234659,0.0016761845038021,-0.0058840299025178,-0.0058508231304586,-0.0372426919639111,0.0013397382572293,0.0005982400616631,-0.0003023762255907,,0.0000000000000000,0.0000000000000000,
1559013413.2206108570098877,0.4664700031280518,,0.0008173309708357,-0.0010133760341136,-0.0008237313723599,-0.0000074805866071,-0.0000191322755350,-0.0000098931776555,0.9999999997400609,-0.0764475573800113,0.2437098403551336,-0.0006512758282512,0.0023073270550992,-0.0030433285488918,-0.0029497610554209,-0.0001473785159827,0.0001537888844795,0.0005882698132169,,-0.0003187015053108,0.0000959066590073,-0.0209231593457670,-0.0000160718343075,0.0002776230263452,0.0000108136414350,0.9999999612751075,-0.0774217422934056,0.2777186218234659,0.0016761845038021,-0.0058840299025178,-0.0058508231304586,-0.0372426919639111,0.0013397382572293,0.0005982400616631,-0.0003023762255907,,0.0000000000000000,0.0000000000000000,
1559013413.2539308071136475,0.4997899532318115,,0.0008936128386068,-0.0010937271786896,-0.0009069083421053,-0.0000056884419031,-0.0000201549014622,0.0000003035424841,0.9999999997806647,-0.0762371996376771,0.2435942063278092,0.0005173431012776,0.0028412524456507,-0.0024751844661519,-0.0030088480705047,0.0006566373430452,0.0001604724200959,0.0000633609280703,,-0.0005509754171336,-0.0001456836824130,-0.0224293881837500,-0.0000085451778506,0.0002747311364235,0.0000002491187608,0.9999999622248595,-0.0765647796794137,0.2773856195816288,0.0004662457421669,-0.0052228411659598,-0.0065887318924069,-0.0385861136019230,-0.0007309849024750,-0.0003088524681516,-0.0003365832380950,,0.0000000000000000,0.0000000000000000,
1559013413.2872507572174072,0.5331099033355713,,0.0009952967818645,-0.0012109139188498,-0.0010010605253667,-0.0000014850034416,-0.0000206997919303,0.0000006543734855,0.9999999997844428,-0.0757553490708135,0.2435318194699515,0.0005576184576134,0.0028838117640912,-0.0036741465429756,-0.0020665932093568,0.0001275833293956,-0.0001059132194841,-0.0002099267706668,,-0.0005509754171336,-0.0001456836824130,-0.0224293881837500,-0.0000085451778506,0.0002747311364235,0.0000002491187608,0.9999999622248595,-0.0765647796794137,0.2773856195816288,0.0004662457421669,-0.0052228411659598,-0.0065887318924069,-0.0385861136019230,-0.0007309849024750,-0.0003088524681516,-0.0003365832380950,,0.0000000000000000,0.0000000000000000,
1559013413.3205707073211670,0.5664298534393311,,0.0010998848014545,-0.0014187629987265,-0.0010360089644780,0.0000043934028307,-0.0000162810527344,0.0000009099989382,0.9999999998573987,-0.0750816106499948,0.2440382073008386,0.0005862315102600,0.0023110165845747,-0.0042635214133425,-0.0012315312587679,0.0006530873697246,0.0004249039444261,0.0003315248717738,,0.0034269625326508,0.0011286720590091,-0.0090409392735334,-0.0000107213567495,0.0003332832900764,0.0000064883889218,0.9999999443825994,-0.0768108869699027,0.2840961473448347,0.0011722296041699,0.0091384267434478,-0.0020928373560309,-0.0114530222490430,0.0010196233633906,0.0007099295035005,-0.0002983235754073,,0.0000000000000000,0.0000000000000000,
1559013413.3538906574249268,0.5997498035430908,,0.0011845137857451,-0.0015644491007230,-0.0011052108261608,0.0000078473803354,-0.0000121961538775,0.0000079802759210,0.9999999998629938,-0.0746823488401455,0.2445073638900944,0.0013958119628388,0.0025652500108210,-0.0044214218819606,-0.0033216813754091,-0.0001479433812576,-0.0003807027096230,0.0008508336236405,,0.0038770528996077,0.0016472316239445,-0.0017817424349745,-0.0000074296579382,0.0003350296155490,0.0000100847786441,0.9999999437991255,-0.0764317786616396,0.2842968057608064,0.0015842104441551,0.0097196577116847,-0.0004313084064052,0.0031110367272049,0.0015891643706709,0.0003474377153907,-0.0016894822474569,,0.0000000000000000,0.0000000000000000,
1559013413.3872108459472656,0.6330699920654297,,0.0012635822973839,-0.0016646406133686,-0.0011315946677237,-0.0000012825837019,-0.0000167952844174,0.0000061575041472,0.9999999998391793,-0.0757294597909866,0.2439800753712365,0.0011876446422034,0.0025378672099690,-0.0042085822873271,-0.0041813762066172,-0.0001469483454518,-0.0006470104173897,0.0008489669139898,,0.0040371625405149,0.0010407715328566,-0.0011724512895224,0.0000182179897012,0.0003403120708404,-0.0000080441169780,0.9999999418955441,-0.0735023907927335,0.2848993990187070,-0.0004930345491329,0.0076945354230702,-0.0024773650802672,0.0028743059374392,0.0014570327475667,-0.0012100221356377,0.0000713423796697,,0.0000000000000000,0.0000000000000000,
1559013413.4205307960510254,0.6663899421691895,,0.0013471299063277,-0.0017611742818841,-0.0012529577615326,-0.0000100271347488,-0.0000277924224057,0.0000034957680816,0.9999999995574088,-0.0767328126973974,0.2427194980666993,0.0008843215439672,0.0031103334721858,-0.0022293135082931,-0.0040985164604831,0.0001356783143279,-0.0009010839795002,-0.0007481214004164,,0.0028244609372718,-0.0020864745447010,-0.0040981470072898,0.0000272535559166,0.0003338402301539,-0.0000050454464155,0.9999999438912424,-0.0724653892738492,0.2841582340357628,-0.0001480977271716,0.0034915832802653,-0.0125113883987069,-0.0027146551292390,0.0007540810620412,0.0003361692652106,-0.0002933166106232,,0.0000000000000000,0.0000000000000000,
1559013413.4538507461547852,0.6997098922729492,,0.0014524127234747,-0.0017425389956899,-0.0013590750462646,0.0000029372541028,-0.0000222055868951,-0.0000060437356399,0.9999999997308791,-0.0752518720246373,0.2433582575585859,-0.0002097179305824,0.0034336090421311,-0.0046303403599325,-0.0027021150207197,0.0001189234799877,0.0001547659385154,0.0005908316580418,,0.0028244609372718,-0.0020864745447010,-0.0040981470072898,0.0000272535559166,0.0003338402301539,-0.0000050454464155,0.9999999438912424,-0.0724653892738492,0.2841582340357628,-0.0001480977271716,0.0034915832802653,-0.0125113883987069,-0.0027146551292390,0.0007540810620412,0.0003361692652106,-0.0002933166106232,,0.0000000000000000,0.0000000000000000,
1559013413.4871706962585449,0.7330298423767090,,0.0015805109048965,-0.0018973632668165,-0.0014634200245844,0.0000037036349687,-0.0000214919076999,0.0000036419903614,0.9999999997555585,-0.0751593125266381,0.2434414997288490,0.0009000840292883,0.0038183970156727,-0.0054469616012679,-0.0033799848104962,0.0003785556952268,-0.0001161932510546,0.0013904185550953,,0.0009705727291415,0.0016289898501757,-0.0079331041607371,0.0000413433631328,0.0003589990839138,-0.0000095545487231,0.9999999346595452,-0.0708532497001342,0.2870405726501778,-0.0006679541082759,-0.0035913039464504,0.0022433528210968,-0.0086488155648112,-0.0000468759790238,-0.0001395221770508,-0.0007117160712369,,0.0000000000000000,0.0000000000000000,
1559013413.5204906463623047,0.7663497924804688,,0.0016811807999133,-0.0020610630703802,-0.0015662418552136,0.0000041225116754,-0.0000292369467498,0.0000197872255998,0.9999999993683357,-0.0751034247252609,0.2425564170983890,0.0027513728021033,0.0035006187296171,-0.0056057914136731,-0.0038669461537017,0.0006458527252263,-0.0003815239020226,0.0013911137130432,,0.0009049911250469,0.0016716632260573,-0.0081049924384131,0.0000501230371511,0.0003626649995588,-0.0000170555534951,0.9999999328354414,-0.0698511788821507,0.2874595744438982,-0.0015276880078354,-0.0032216487452388,0.0018814789364114,-0.0086492393165827,0.0019662324339151,0.0004521511436906,-0.0012100221356377,,0.0000000000000000,0.0000000000000000,
1559013413.5538108348846436,0.7996699810028076,,0.0017914630214659,-0.0022029658809727,-0.0016687876253743,0.0000116321568715,-0.0000291244935153,0.0000235144653729,0.9999999992317635,-0.0742410620191829,0.2425698446211688,0.0031784444959328,0.0025158107485503,-0.0034454319911045,-0.0014091616462658,0.0011872512625902,0.0006950419601713,0.0000722180547037,,0.0008416231557927,0.0017042349993819,-0.0082787919112038,0.0000540832522323,0.0003709936414145,-0.0000274513881228,0.9999999293425681,-0.0694029478739007,0.2884124663842267,-0.0027200200000634,-0.0031365249305964,0.0013117705238983,-0.0091546773910522,-0.0008535996312276,-0.0001344025076833,-0.0015033677918836,,0.0000000000000000,0.0000000000000000,
1559013413.5871307849884033,0.8329899311065674,,0.0018294695205099,-0.0021663103324226,-0.0016569316698291,0.0000124715521693,-0.0000297109617919,0.0000258390448287,0.9999999991470315,-0.0741437402695518,0.2425029861294329,0.0034449088460999,0.0029261675309668,-0.0033952624950750,-0.0023041084527087,0.0001240333574270,0.0001585183174434,0.0000582371650082,,0.0030406504889629,0.0022882742342330,-0.0062925504181727,0.0000611729674452,0.0003626874159403,-0.0000190422897520,0.9999999321765465,-0.0685860076404653,0.2874618788989146,-0.0017548979202029,0.0040563573129475,0.0002654088311829,-0.0037910772953182,0.0001189401809825,-0.0001427652314305,-0.0001788293011487,,0.0000000000000000,0.0000000000000000,
1559013413.6204507350921631,0.8663098812103271,,0.0019303014484409,-0.0022712685552491,-0.0017518407138349,0.0000123438758497,-0.0000333563337578,0.0000279914339349,0.9999999989757317,-0.0741573290249274,0.2420855802851425,0.0036921027257932,0.0032899992689907,-0.0041631686569415,-0.0029058615729224,-0.0004136805087665,0.0001528118256468,0.0005857079190650,,0.0036291435458029,0.0025966150466021,-0.0043469637549630,0.0000571760738891,0.0003901364780748,-0.0000200743580797,0.9999999220607196,-0.0690446522828446,0.2906071492304136,-0.0018773020674637,0.0051087369211018,0.0014169181231409,0.0000617773694103,-0.0004234086372890,-0.0003483407199383,-0.0010793746914715,,0.0000000000000000,0.0000000000000000,
1559013413.6537706851959229,0.8996298313140869,,0.0019946458325770,-0.0021450694014454,-0.0018614853762858,0.0000034851169912,-0.0000303552108605,0.0000314521457708,0.9999999990385889,-0.0751707701505747,0.2424300334749872,0.0040882557151440,0.0033282551227900,-0.0039092141061624,-0.0036607294847284,-0.0006764325289310,-0.0001125967563083,0.0003149820978447,,0.0036291435458029,0.0025966150466021,-0.0043469637549630,0.0000571760738891,0.0003901364780748,-0.0000200743580797,0.9999999220607196,-0.0690446522828446,0.2906071492304136,-0.0018773020674637,0.0051087369211018,0.0014169181231409,0.0000617773694103,-0.0004234086372890,-0.0003483407199383,-0.0010793746914715,,0.0000000000000000,0.0000000000000000,
1559013413.6870906352996826,0.9329497814178467,,0.0020904634106322,-0.0022670272979190,-0.0019520269561293,-0.0000086926805911,-0.0000273560912268,0.0000328669287558,0.9999999990479234,-0.0765655425201923,0.2427739661519192,0.0042499652383754,0.0038331177305057,-0.0050068258249830,-0.0045160511391563,-0.0004097003673334,-0.0009124190018273,0.0005782410891167,,0.0029954825554080,0.0032025419981495,0.0006789376870445,0.0000544467831987,0.0004025603575399,-0.0000166703444748,0.9999999173513996,-0.0693556131155782,0.2920313069036726,-0.0014891490537248,0.0025517339818180,0.0034124318044633,0.0093907183036208,0.0006610900745727,-0.0005176760023460,0.0005640679155476,,0.0000000000000000,0.0000000000000000,
1559013413.7204108238220215,0.9662699699401855,,0.0021544385767331,-0.0023256556469616,-0.0019653506447236,-0.0000038573671637,-0.0000286034799770,0.0000372248283742,0.9999999988906370,-0.0760093313571545,0.2426316683885868,0.0047495217390554,0.0035979381276374,-0.0048060692226889,-0.0026716281681746,0.0001189234778309,0.0001547659428368,0.0005908316629165,,0.0029821578802633,0.0023954715740928,-0.0033581745908973,0.0000636555501370,0.0004000566115030,-0.0000217090852176,0.9999999177156937,-0.0683030665391002,0.2917436920126553,-0.0020657681279611,0.0022860211320221,-0.0006600108463317,0.0015310561284423,-0.0004109627625439,-0.0006739070522599,-0.0001190709881485,,0.0000000000000000,0.0000000000000000,
1559013413.7537307739257812,0.9995899200439453,,0.0022983255198117,-0.0024855870644819,-0.0020851393941436,-0.0000000765164235,-0.0000267899621359,0.0000437451384147,0.9999999986843274,-0.0755728844380889,0.2428404513801291,0.0054964138182344,0.0038157867212405,-0.0029795324375573,-0.0039332750451413,-0.0001377236298333,-0.0003731979895430,-0.0002143553601381,,0.0029821578802633,0.0023954715740928,-0.0033581745908973,0.0000636555501370,0.0004000566115030,-0.0000217090852176,0.9999999177156937,-0.0683030665391002,0.2917436920126553,-0.0020657681279611,0.0022860211320221,-0.0006600108463317,0.0015310561284423,-0.0004109627625439,-0.0006739070522599,-0.0001190709881485,,0.0000000000000000,0.0000000000000000,
1559013413.7870507240295410,1.0329098701477051,,0.0023126226445058,-0.0023851129979118,-0.0020248182505910,-0.0000041884846337,-0.0000285805997614,0.0000462530142374,0.9999999985131323,-0.0760428638390503,0.2426356604429316,0.0057840816183236,0.0037642771174869,-0.0039889383832858,-0.0038233086144119,-0.0004126854745030,-0.0001134958864056,0.0005838412138273,,0.0028483643782737,0.0054159764026453,-0.0048358352553247,0.0000756474026680,0.0004063720092715,-0.0000323465478623,0.9999999140464770,-0.0669346459473181,0.2924658971404100,-0.0032850968095539,0.0015071481466293,0.0085062691941857,-0.0014686621725559,-0.0004123515100218,-0.0004598114755936,-0.0001185764558613,,0.0000000000000000,0.0000000000000000,
1559013413.8203706741333008,1.0662298202514648,,0.0023126226445058,-0.0023851129979118,-0.0020248182505910,-0.0000041884846337,-0.0000285805997614,0.0000462530142374,0.9999999985131323,-0.0760428638390503,0.2426356604429316,0.0057840816183236,0.0037642771174869,-0.0039889383832858,-0.0038233086144119,-0.0004126854745030,-0.0001134958864056,0.0005838412138273,,0.0052727955121410,0.0028594060605301,-0.0016091656637851,0.0000741511501028,0.0004075664680992,-0.0000336539987448,0.9999999136292910,-0.0671068135670647,0.2926025797277269,-0.0034351616037410,0.0104847270995378,-0.0010913329897448,0.0042982785962522,0.0000560693915759,0.0001306207850575,-0.0007089182618074,,0.0000000000000000,0.0000000000000000,
1559013413.8536908626556396,1.0995500087738037,,0.0025484073175879,-0.0025524332847305,-0.0022664666388998,-0.0000120081070775,-0.0000380781557454,0.0000365713813658,0.9999999985341967,-0.0769436900755452,0.2415458866286258,0.0046761133015066,0.0039075200262921,-0.0020201099407447,-0.0042491452943574,0.0004004204027616,-0.0011682908228457,-0.0004811290035417,,0.0052727955121410,0.0028594060605301,-0.0016091656637851,0.0000741511501028,0.0004075664680992,-0.0000336539987448,0.9999999136292910,-0.0671068135670647,0.2926025797277269,-0.0034351616037410,0.0104847270995378,-0.0010913329897448,0.0042982785962522,0.0000560693915759,0.0001306207850575,-0.0007089182618074,,0.0000000000000000,0.0000000000000000,
1559013413.8870108127593994,1.1328699588775635,,0.0025484073175879,-0.0025524332847305,-0.0022664666388998,-0.0000120081070775,-0.0000380781557454,0.0000365713813658,0.9999999985341967,-0.0769436900755452,0.2415458866286258,0.0046761133015066,0.0039075200262921,-0.0020201099407447,-0.0042491452943574,0.0004004204027616,-0.0011682908228457,-0.0004811290035417,,0.0054303640759792,0.0028405871846140,-0.0015512931906976,0.0000727297327581,0.0004122941432348,-0.0000389757507913,0.9999999116024042,-0.0672725866643876,0.2931435651078277,-0.0040457387794924,0.0105438055470586,-0.0008907766314223,0.0042810388840735,0.0001138636871474,-0.0001375615538564,-0.0004429370164871,,0.0000000000000000,0.0000000000000000,
1559013413.9203307628631592,1.1661899089813232,,0.0027703560574197,-0.0027517640943191,-0.0024441264426147,-0.0000323120550441,-0.0000407593604932,0.0000393781046439,0.9999999978719853,-0.0792689929417929,0.2412391632679424,0.0049982462929178,0.0034087209510305,-0.0035040811897686,-0.0023627713328334,0.0011785914077794,0.0009557210966326,0.0008729764963142,,0.0042457708010142,0.0032688893773403,-0.0056604679087909,0.0000648888487885,0.0004357793942480,-0.0000388127972930,0.9999999021896570,-0.0681711214985140,0.2958347627029305,-0.0040308126094763,0.0040785656310618,0.0004996526986361,-0.0031115380115807,-0.0004219063557684,-0.0014084292342886,-0.0011841928353533,,0.0000000000000000,0.0000000000000000,
1559013413.9536507129669189,1.1995098590850830,,0.0029505288810487,-0.0029538823843254,-0.0026235853139854,-0.0000323703391418,-0.0000297900759226,0.0000530332657269,0.9999999976260927,-0.0792689601546271,0.2424982641010073,0.0065613268279391,0.0032074520705221,-0.0041516289328946,-0.0044968253121074,-0.0004122553067423,-0.0009142951985260,0.0008445383231683,,0.0016163225134831,0.0018428269025782,0.0076378858718637,0.0000685984619212,0.0004543867289951,-0.0000311516418720,0.9999998939282577,-0.0677419600665057,0.2979681196768502,-0.0031553800325751,-0.0052592363208532,-0.0075239953584969,0.0202106647193432,0.0005249262321740,0.0007250083726831,-0.0012422207510099,,0.0000000000000000,0.0000000000000000,
1559013413.9869606494903564,1.2328197956085205,,0.0029684427469623,-0.0033613656956842,-0.0017512781155130,-0.0000317947441444,-0.0000334707366362,0.0000524811027870,0.9999999975572690,-0.0792032912448069,0.2420764028817950,0.0064986207828307,0.0020317879321676,-0.0019927040409935,-0.0010320071573619,0.0001236031838982,0.0009593175998789,-0.0002024599499644,,0.0016163225134831,0.0018428269025782,0.0076378858718637,0.0000685984619212,0.0004543867289951,-0.0000311516418720,0.9999998939282577,-0.0677419600665057,0.2979681196768502,-0.0031553800325751,-0.0052592363208532,-0.0075239953584969,0.0202106647193432,0.0005249262321740,0.0007250083726831,-0.0012422207510099,,0.0000000000000000,0.0000000000000000,
1559013414.0202808380126953,1.2661399841308594,,0.0030802825193097,-0.0034552019750087,-0.0018536120760524,-0.0000303047753182,-0.0000320435705005,0.0000561622612637,0.9999999974503153,-0.0790307487934444,0.2422405040287796,0.0069202275244587,0.0042874958716332,-0.0029142606897392,-0.0048677561948722,0.0001254585693778,-0.0009085887865461,0.0003170675320458,,-0.0003862388438266,0.0013193463922199,-0.0052756966752279,0.0000762091679498,0.0004512275026457,-0.0000531757478453,0.9999998938791161,-0.0668817920699509,0.2976029888637595,-0.0056783421457382,-0.0093114748597145,-0.0073452508077025,-0.0049650780856609,0.0013335975818336,0.0000820299610496,-0.0005578060518019,,0.0000000000000000,0.0000000000000000,
1559013414.0536007881164551,1.2994599342346191,,0.0031833055146326,-0.0033993433993530,-0.0019416098376859,-0.0000268045315624,-0.0000305956650807,0.0000585241304393,0.9999999974601743,-0.0786284887337572,0.2424067632417800,0.0071906438992730,0.0040456755661731,-0.0023544561354929,-0.0028775213886507,-0.0001387186557864,-0.0001068903548243,-0.0002124886945430,,-0.0003862388438266,0.0013193463922199,-0.0052756966752279,0.0000762091679498,0.0004512275026457,-0.0000531757478453,0.9999998938791161,-0.0668817920699509,0.2976029888637595,-0.0056783421457382,-0.0093114748597145,-0.0073452508077025,-0.0049650780856609,0.0013335975818336,0.0000820299610496,-0.0005578060518019,,0.0000000000000000,0.0000000000000000,
1559013414.0869207382202148,1.3327798843383789,,0.0033021000738451,-0.0034885056891321,-0.0020204777569578,-0.0000329176675452,-0.0000355794404713,0.0000579372932171,0.9999999971469004,-0.0793293188168098,0.2418356153052529,0.0071241900715388,0.0038712204442939,-0.0022203057538067,-0.0030833267465718,-0.0006632276636041,-0.0009040152232715,-0.0007558070494756,,-0.0005695107067441,0.0011753494670631,-0.0053720416089590,0.0000732402329876,0.0004666305450950,-0.0000575712412892,0.9999998867886710,-0.0672245097017332,0.2993674002054934,-0.0061843887103450,-0.0087402760982513,-0.0075568733736873,-0.0051086759194732,-0.0005755241727456,0.0005565957981162,0.0000478677466162,,0.0000000000000000,0.0000000000000000,
1559013414.1202406883239746,1.3660998344421387,,0.0034832362144710,-0.0037835780320895,-0.0020406335588532,-0.0000333066427632,-0.0000280371094324,0.0000469360735446,0.9999999979507964,-0.0793792222933069,0.2426982000842212,0.0058623660285138,0.0033151826760729,-0.0032895969784245,-0.0021677269935045,-0.0004060156890803,0.0001584402993735,-0.0002131838553321,,0.0054194410451250,0.0039221283223847,-0.0059444888312575,0.0000707223501789,0.0004701856227759,-0.0000471678987493,0.9999998858495028,-0.0675073877342590,0.2997762539914523,-0.0049928816865142,0.0113711925223470,0.0025506995152682,-0.0051999506540596,-0.0004708282649517,0.0001321081072092,-0.0002189685619669,,0.0000000000000000,0.0000000000000000,
1559013414.1535606384277344,1.3994197845458984,,0.0035816144241365,-0.0038731932284954,-0.0021224353720056,-0.0000314141888301,-0.0000236209681605,0.0000444851690061,0.9999999982381343,-0.0791635409969891,0.2432038627305864,0.0055808214220793,0.0030905505672396,-0.0024036730914183,-0.0025622789429735,-0.0006691978738595,0.0006938310262095,-0.0007446067935286,,0.0017337937437958,0.0027914976925686,-0.0073980466569868,0.0000657147087486,0.0004684735527028,-0.0000318904734004,0.9999998875985463,-0.0680728783992629,0.2995822330364225,-0.0032422190918197,-0.0032952094916254,-0.0025957324542105,-0.0077453418634832,-0.0003198916092515,-0.0001808123633964,-0.0010700231650844,,0.0000000000000000,0.0000000000000000,
1559013414.1868808269500732,1.4327399730682373,,0.0036600687613311,-0.0036914895436562,-0.0021822020302671,-0.0000346488235337,-0.0000202275321127,0.0000508183340837,0.9999999979039016,-0.0795310876038076,0.2435937202421194,0.0063060369900643,0.0028582527261762,-0.0028597716884015,-0.0037115068707850,-0.0004055855153071,-0.0006423590036559,0.0000475132577299,,0.0016039150001529,0.0026808541271728,-0.0077449373068534,0.0000509286114285,0.0004870076570089,-0.0000417809085965,0.9999998792420798,-0.0697727422121326,0.3017045906296459,-0.0043790822358526,-0.0030165864154696,-0.0030540812294930,-0.0095399990677834,0.0000660082805553,-0.0000287355851469,0.0002058113022940,,0.0000000000000000,0.0000000000000000,
1559013414.2202007770538330,1.4660599231719971,,0.0037397580394978,-0.0037880081595103,-0.0022666517406988,-0.0000474837929948,-0.0000266100274547,0.0000554949696581,0.9999999969787521,-0.0809996137317460,0.2428631477910554,0.0068429731842491,0.0027331561943320,-0.0037155631864238,-0.0020581914114537,-0.0009478443982631,-0.0001173262527733,0.0008450146875924,,0.0016039150001529,0.0026808541271728,-0.0077449373068534,0.0000509286114285,0.0004870076570089,-0.0000417809085965,0.9999998792420798,-0.0697727422121326,0.3017045906296459,-0.0043790822358526,-0.0030165864154696,-0.0030540812294930,-0.0095399990677834,0.0000660082805553,-0.0000287355851469,0.0002058113022940,,0.0000000000000000,0.0000000000000000,
1559013414.2535207271575928,1.4993798732757568,,0.0038290075086638,-0.0038416216132927,-0.0022175984944600,-0.0000617063556589,-0.0000236485432343,0.0000608974483117,0.9999999959622866,-0.0826267398809179,0.2432034536559980,0.0074616313936321,0.0032542864518396,-0.0020023456042507,-0.0027937417137724,-0.0006774275634284,0.0001537108770125,0.0003168487768994,,0.0002987987401741,0.0013703470549558,-0.0050418977993937,0.0000542421005806,0.0004873639966526,-0.0000263471795140,0.9999998794199705,-0.0693845930889136,0.3017476779729769,-0.0026103510301210,-0.0070480327121913,-0.0073105720803142,-0.0040192874148488,-0.0008900916436687,-0.0017317757010460,-0.0002116747200489,,0.0000000000000000,0.0000000000000000,
1559013414.2868406772613525,1.5326998233795166,,0.0039436652010940,-0.0038898041267513,-0.0023767757631314,-0.0000715386856703,-0.0000296069440638,0.0000630810292732,0.9999999950132147,-0.0837524128100984,0.2425210883883177,0.0077128291277596,0.0030325984660129,-0.0018612396181985,-0.0054887137053016,-0.0006779924294477,-0.0003807807269929,0.0005794125976856,,0.0001515348646201,0.0012294817827928,-0.0051123345942179,0.0000495634790215,0.0004787440758719,-0.0000295359639095,0.9999998837375924,-0.0699224355375030,0.3007594300014954,-0.0029747703706644,-0.0074289659969509,-0.0072463871911168,-0.0031776153482497,0.0000637078628642,-0.0005068728933111,-0.0000599529594183,,0.0000000000000000,0.0000000000000000,
1559013414.3201606273651123,1.5660197734832764,,0.0040162966106778,-0.0038785229636961,-0.0024888530083392,-0.0000910616411307,-0.0000299715154729,0.0000644076275458,0.9999999933305717,-0.0859889329173037,0.2424796671421833,0.0078649722361641,0.0023154475391553,-0.0010254102755360,-0.0027387546674269,-0.0006691978815539,0.0006938310171250,-0.0007446067835672,,0.0034192999153591,0.0010579430106152,0.0064953994279523,0.0000345271351897,0.0005111463805106,-0.0000263829984575,0.9999998684205874,-0.0716438772364495,0.3044728703048402,-0.0026190585096938,0.0061334241181612,-0.0059950468130410,0.0181544125080109,-0.0012176220770925,0.0004556177300401,-0.0002580562722869,,0.0000000000000000,0.0000000000000000,
1559013414.3534808158874512,1.5993399620056152,,0.0041165967512868,-0.0039916350259722,-0.0025955332771255,-0.0000992302383131,-0.0000328347506971,0.0000640951469591,0.9999999924835257,-0.0869251567644345,0.2421515744413219,0.0078296575049807,0.0021473360910970,-0.0032286463726941,-0.0000664452915793,-0.0004080057681731,0.0006910557162060,-0.0002094504198217,,0.0021895927776940,0.0029798482027788,-0.0017919951850399,0.0000030791525065,0.0005051542388313,-0.0000423319240284,0.9999998715088527,-0.0752563039453160,0.3037837185136449,-0.0044476326101652,-0.0012074953410774,0.0004014892037958,0.0003388677432667,0.0008526051533408,0.0004610072937794,-0.0004364303313196,,0.0000000000000000,0.0000000000000000,
1559013414.3868007659912109,1.6326599121093750,,0.0041476012388777,-0.0039979386071136,-0.0023621319333323,-0.0000969960171991,-0.0000320306427003,0.0000597510529469,0.9999999929978112,-0.0866712491717289,0.2422429971947133,0.0073317182188214,0.0019917932139493,-0.0037670594818697,-0.0015395868229941,-0.0006789874696196,-0.0001144730117234,0.0005812793155411,,0.0021652563266717,0.0029830315984504,-0.0017711143889034,0.0000129066003569,0.0005100100540465,-0.0000459568410642,0.9999998688055579,-0.0741321804956379,0.3043396591730880,-0.0048631812643290,-0.0012841224670410,-0.0001002111966955,0.0015639855992049,0.0004832490230910,0.0007252815994434,-0.0001657244720263,,0.0000000000000000,0.0000000000000000,
1559013414.4201207160949707,1.6659798622131348,,0.0042268036411499,-0.0041254434370009,-0.0024813099280040,-0.0001049253679708,-0.0000414038852755,0.0000739527143343,0.9999999909036908,-0.0875730260151747,0.2411712748411251,0.0089606796665619,0.0029513451089092,-0.0038883304400086,-0.0066433229854106,-0.0004108301036066,-0.0019814022933773,0.0011033686970961,,0.0021652563266717,0.0029830315984504,-0.0017711143889034,0.0000129066003569,0.0005100100540465,-0.0000459568410642,0.9999998688055579,-0.0741321804956379,0.3043396591730880,-0.0048631812643290,-0.0012841224670410,-0.0001002111966955,0.0015639855992049,0.0004832490230910,0.0007252815994434,-0.0001657244720263,,0.0000000000000000,0.0000000000000000,
1559013414.4534406661987305,1.6992998123168945,,0.0042720507443599,-0.0039549824831294,-0.0026388873679718,-0.0001037685939171,-0.0000504283006685,0.0000820932684214,0.9999999899748804,-0.0874365830361799,0.2401384710422222,0.0098949911331082,0.0023220013809732,-0.0036360249092704,-0.0041966622581783,0.0003872155405866,-0.0003768725111608,0.0005896600698535,,-0.0014186147277336,0.0028985353920135,-0.0137229153900472,-0.0000057996978002,0.0005104819711338,-0.0000229059692081,0.9999998694249101,-0.0762630878852232,0.3043971376825290,-0.0022228761208905,-0.0113122472539544,-0.0013487567193806,-0.0224984772503376,0.0019746769685298,0.0005661716568284,0.0000881503365235,,0.0000000000000000,0.0000000000000000,
1559013414.4867608547210693,1.7326200008392334,,0.0043771601745142,-0.0040744611275830,-0.0027476052330646,-0.0001008595693713,-0.0000536283684807,0.0000790707944276,0.9999999903495774,-0.0871047293586904,0.2397712516583889,0.0095491421633136,0.0039736059120816,-0.0032954772192858,-0.0017323674780669,0.0001291432167352,0.0001622705854831,-0.0004743573560190,,-0.0014186147277336,0.0028985353920135,-0.0137229153900472,-0.0000057996978002,0.0005104819711338,-0.0000229059692081,0.9999998694249101,-0.0762630878852232,0.3043971376825290,-0.0022228761208905,-0.0113122472539544,-0.0013487567193806,-0.0224984772503376,0.0019746769685298,0.0005661716568284,0.0000881503365235,,0.0000000000000000,0.0000000000000000,
1559013414.5200808048248291,1.7659399509429932,,0.0045150654781918,-0.0040581655488903,-0.0025780695972096,-0.0000976043121799,-0.0000384614623415,0.0000693471584052,0.9999999920925431,-0.0867363169007659,0.2415076418287374,0.0084324055132745,0.0047120124863165,-0.0044133516227769,-0.0002150471894439,-0.0004166656319632,0.0009517348647450,0.0005913080136204,,0.0021569559694145,0.0008463975722888,0.0017737355212673,0.0000397605860765,0.0004972441031336,-0.0000275520140034,0.9999998752041344,-0.0710447551230397,0.3028796325554119,-0.0027506743039883,0.0050291824154556,-0.0075368159450591,0.0100390929728746,0.0008411775343120,0.0002563290181570,-0.0013905941741541,,0.0000000000000000,0.0000000000000000,
1559013414.5534007549285889,1.7992599010467529,,0.0046918897727188,-0.0041802734980854,-0.0026035581462944,-0.0001082031100316,-0.0000203634616322,0.0000723590573377,0.9999999913207918,-0.0879492438581549,0.2435820945681084,0.0087746339730049,0.0054976850834873,-0.0040699357108072,-0.0023167151203140,-0.0004146755622369,0.0004191194464916,0.0005875745868702,,0.0047568128774480,0.0037095875125719,0.0024648328165501,0.0000356404946868,0.0005075731344468,-0.0000260096516513,0.9999998702113747,-0.0715160763899768,0.3040634651266995,-0.0025756846490801,0.0136421741917729,0.0022794245742261,0.0105858491733670,0.0010575925698504,0.0012645954266191,-0.0008035744540393,,0.0000000000000000,0.0000000000000000,
1559013414.5867207050323486,1.8325798511505127,,0.0049203622216480,-0.0042443618753447,-0.0023288747081682,-0.0001067793581291,-0.0000109475909982,0.0000794419286991,0.9999999910836495,-0.0877825476883650,0.2446622178171935,0.0095847365505728,0.0045502660633110,-0.0046149327537921,-0.0033395653582412,-0.0001499334704608,0.0001519126129133,0.0008545669887891,,0.0048156837642820,0.0062237242223286,0.0038197723035811,0.0000351297156098,0.0005140273588113,-0.0000062339267155,0.9999998672514491,-0.0715637410734696,0.3048059729383173,-0.0003105032281870,0.0113962255418301,0.0109010646119714,0.0102634755894542,0.0009090397506952,-0.0008152950322255,-0.0005353579181246,,0.0000000000000000,0.0000000000000000,
1559013414.6200406551361084,1.8658998012542725,,0.0050462221846570,-0.0043595492188502,-0.0024253464738199,-0.0001049156054435,-0.0000125845395373,0.0000822963009497,0.9999999910308320,-0.0875675913690879,0.2444750861409077,0.0099120908643532,0.0037220818135830,-0.0034821581652490,-0.0031195766951909,0.0001285783456693,-0.0003722210348783,-0.0002117935320628,,0.0052291259185608,0.0066394057520543,0.0041492087002540,0.0000389100275542,0.0005036717400379,-0.0000269764555915,0.9999998720365213,-0.0711419311843265,0.3036162666879023,-0.0026857110020908,0.0098902173340321,0.0114108640700579,0.0103509873151779,0.0004561709356494,0.0000499343514093,-0.0024497949052602,,0.0000000000000000,0.0000000000000000,
1559013414.6533608436584473,1.8992199897766113,,0.0052004829673147,-0.0048842479550022,-0.0023261290134465,-0.0000979104781863,-0.0000184113653876,0.0000745953278402,0.9999999922550484,-0.0867686852346765,0.2438060657054922,0.0090305529962945,0.0042466765166338,-0.0045742838851984,-0.0026567704095610,0.0001209135309991,-0.0003778495827090,0.0005870981998505,,0.0052291259185608,0.0066394057520543,0.0041492087002540,0.0000389100275542,0.0005036717400379,-0.0000269764555915,0.9999998720365213,-0.0711419311843265,0.3036162666879023,-0.0026857110020908,0.0098902173340321,0.0114108640700579,0.0103509873151779,0.0004561709356494,0.0000499343514093,-0.0024497949052602,,0.0000000000000000,0.0000000000000000,
1559013414.6866807937622070,1.9325399398803711,,0.0053655727491784,-0.0050135836746451,-0.0024046672924627,-0.0000997584650464,-0.0000136474989487,0.0000769263356063,0.9999999919721667,-0.0869792686671690,0.2443523586933680,0.0092968985723581,0.0052116928097923,-0.0046377156638545,-0.0021689859491256,-0.0004182255139699,0.0006835509439561,0.0008557385183460,,0.0052992022006456,0.0021277216428973,0.0025175264658012,0.0000476123484674,0.0005473681313105,-0.0000393663722158,0.9999998482857294,-0.0701517556464427,0.3086217226336049,-0.0041113765776248,0.0099888993427157,-0.0060158413834870,0.0076656071469188,-0.0002192421816289,-0.0002745102974586,-0.0012161586200818,,0.0000000000000000,0.0000000000000000,
1559013414.7200007438659668,1.9658598899841309,,0.0055942340294153,-0.0049612111683597,-0.0024616516035437,-0.0001067065998088,-0.0000086903436649,0.0000884462215589,0.9999999903577227,-0.0877697715537299,0.2449223489286673,0.0106161921411799,0.0061540387261603,-0.0048652560644946,-0.0034877872350053,-0.0009452894567165,-0.0001154501103310,0.0005787174102258,,0.0048463070129249,-0.0018530932854782,-0.0043371194688543,0.0000496536779303,0.0005462905973898,-0.0000412375629876,0.9999998487002679,-0.0699188675543722,0.3084979834910337,-0.0043255173052810,0.0092678898945451,-0.0197609998285770,-0.0056686224415898,0.0003229734138586,0.0009426797041669,0.0000063279644564,,0.0000000000000000,0.0000000000000000,
1559013414.7533206939697266,1.9991798400878906,,0.0057829310250290,-0.0050634497413369,-0.0025396422435453,-0.0000970876229045,0.0000015590711660,0.0000775595095042,0.9999999922780426,-0.0866727776990041,0.2460949806831475,0.0093669845639266,0.0051883877801657,-0.0023456537314188,-0.0020985251765682,0.0006684169940207,0.0004361609270288,-0.0012662586506476,,0.0050306412913612,-0.0022553857574116,-0.0044513011141840,0.0000528530867372,0.0005470135817998,-0.0000352669572085,0.9999998483694555,-0.0695489346579165,0.3085817133850298,-0.0036412316935952,0.0100358575582504,-0.0200687516480684,-0.0060759009793401,0.0004965229309164,0.0002437760995235,0.0009104041382670,,0.0000000000000000,0.0000000000000000,
1559013414.7866406440734863,2.0324997901916504,,0.0058778852387347,-0.0047073003088831,-0.0022425407012219,-0.0000784321833145,0.0000047564162882,0.0000652500423795,0.9999999947841006,-0.0845410564604585,0.2464592326858071,0.0079559035812748,0.0054731462586609,-0.0027554859330298,-0.0029014422595132,0.0009310343167673,-0.0006337213950699,-0.0004722718897384,,0.0052264772958771,-0.0026613178782102,-0.0045826045094389,0.0000475461241026,0.0005503896550055,-0.0000303206917289,0.9999998469456131,-0.0701543412170739,0.3089692817089975,-0.0030752484778133,0.0105025302618742,-0.0202286429703236,-0.0065599353983998,-0.0001585589197930,0.0001465858949814,-0.0005223532207310,,0.0000000000000000,0.0000000000000000,
1559013414.8199608325958252,2.0658199787139893,,0.0060624420898425,-0.0048207195699094,-0.0023157912331527,-0.0000742433586673,0.0000041945727309,0.0000676102887774,0.9999999949495891,-0.0840598943424245,0.2463951956288196,0.0082264621407890,0.0052228847117774,-0.0031570289864078,-0.0023887409018465,0.0001199184815198,-0.0001115419091512,0.0005889649227342,,0.0017678621869116,0.0015124191525959,-0.0011558191354735,0.0000500246131654,0.0005711314993747,-0.0000341708840095,0.9999998350693360,-0.0698725603466937,0.3113455691600101,-0.0035193152565481,-0.0028836037963629,-0.0044308807700872,0.0001653605722822,-0.0004792680847459,0.0003601763455663,-0.0004656376258936,,0.0000000000000000,0.0000000000000000,
1559013414.8532807826995850,2.0991399288177490,,0.0061697959838187,-0.0049535015417841,-0.0024209951137478,-0.0000751411360226,0.0000078443970690,0.0000778249093062,0.9999999941177793,-0.0841577132171704,0.2468150726140592,0.0093963977807138,0.0038468506132499,-0.0036085705457625,-0.0020126415984970,0.0001128185334615,0.0004173211411617,0.0011252928299777,,0.0017678621869116,0.0015124191525959,-0.0011558191354735,0.0000500246131654,0.0005711314993747,-0.0000341708840095,0.9999998350693360,-0.0698725603466937,0.3113455691600101,-0.0035193152565481,-0.0028836037963629,-0.0044308807700872,0.0001653605722822,-0.0004792680847459,0.0003601763455663,-0.0004656376258936,,0.0000000000000000,0.0000000000000000,
1559013414.8865907192230225,2.1324498653411865,,0.0062910453077774,-0.0050572423364476,-0.0024937014914993,-0.0000953421699855,0.0000101289982411,0.0000811655982690,0.9999999921097099,-0.0864709155498286,0.2470775897425057,0.0097788271497812,0.0040956513949281,-0.0026177745582927,-0.0022805255588483,-0.0014661138262920,0.0001582843731133,-0.0007560257986410,,0.0035853931829597,0.0016109033633505,0.0015901379357438,0.0000526102442627,0.0005726425298447,-0.0000379765869908,0.9999998339352233,-0.0695783964641965,0.3115181782101862,-0.0039554728880048,0.0037116021849215,-0.0034948575776070,0.0057091480121017,0.0006449705688283,0.0007822083425708,0.0002719526237343,,0.0000000000000000,0.0000000000000000,
1559013414.9199106693267822,2.1657698154449463,,0.0063799879009234,-0.0050967997001852,-0.0022582354294782,-0.0000984695283926,0.0000087403056212,0.0000831649185682,0.9999999916554778,-0.0868283110457531,0.2469188111698659,0.0100081560975864,0.0042041829954624,-0.0042260489117576,-0.0025591596800740,0.0001209135193647,-0.0003778496146793,0.0005870982075044,,0.0037245920093585,0.0014593189274381,0.0018194195298815,0.0000452053608667,0.0005873934933458,-0.0000412583801236,0.9999998256115376,-0.0704288468814915,0.3132080009324146,-0.0043341840155431,0.0031235220376402,-0.0038933986797929,0.0055238688364625,0.0007684917072766,-0.0006610307609662,0.0011769605334848,,0.0000000000000000,0.0000000000000000,
1559013414.9532308578491211,2.1990900039672852,,0.0066162316712741,-0.0052704964094732,-0.0023551386370261,-0.0000959904722005,0.0000120717890667,0.0000812730464569,0.9999999920173964,-0.0865451358084277,0.2473002403937034,0.0097908242356016,0.0047484467554052,-0.0027206315127999,-0.0009699148014838,0.0001226081181194,0.0012256251573770,-0.0002005932681893,,0.0018623154410093,0.0027256348443475,0.0001956494993356,0.0000609717752342,0.0005685389954785,-0.0000005049907428,0.9999998365227858,-0.0685993416432927,0.3110533887813620,0.0003396554353508,-0.0041805850341916,0.0011643896577880,0.0006084713968448,-0.0011163554154336,-0.0002244176284876,-0.0005613433313556,,0.0000000000000000,0.0000000000000000,
1559013414.9865508079528809,2.2324099540710449,,0.0066788781388467,-0.0047787278672278,-0.0023936955723715,-0.0000922237728209,0.0000144278632551,0.0000875215989897,0.9999999918132911,-0.0861103999367569,0.2475712013813642,0.0105064859629259,0.0060230116647077,-0.0028121008506449,-0.0032597065416103,0.0006550774090889,-0.0001077116330796,0.0003277914066967,,0.0029704976370324,0.0010159144944673,-0.0068657866970963,0.0000582245274008,0.0005601235302483,0.0000018985634455,0.9999998414339528,-0.0689128105575490,0.3100893950405605,0.0006161232992979,0.0019557164050639,-0.0059154736809433,-0.0117896087467670,-0.0002207496145274,0.0013766620540991,-0.0006734695052728,,0.0000000000000000,0.0000000000000000,
1559013415.0198707580566406,2.2657299041748047,,0.0068774776034819,-0.0049171674596986,-0.0024934127532010,-0.0000974573912680,0.0000144607826194,0.0000958079673325,0.9999999905568882,-0.0867060388763203,0.2475763705863540,0.0114560276783758,0.0051507230406583,-0.0032362428056212,-0.0021087487060592,0.0001265882178347,0.0001603943284688,-0.0002080600884391,,0.0029704976370324,0.0010159144944673,-0.0068657866970963,0.0000582245274008,0.0005601235302483,0.0000018985634455,0.9999998414339528,-0.0689128105575490,0.3100893950405605,0.0006161232992979,0.0019557164050639,-0.0059154736809433,-0.0117896087467670,-0.0002207496145274,0.0013766620540991,-0.0006734695052728,,0.0000000000000000,0.0000000000000000,
1559013415.0531907081604004,2.2990498542785645,,0.0070315584043499,-0.0049171776032986,-0.0025036385839375,-0.0000931468535068,0.0000153480634659,0.0000834560309865,0.9999999920615957,-0.0862181753592972,0.2476760000596005,0.0100404519062014,0.0048516268213260,-0.0020424360010563,-0.0023677931865681,-0.0003963608842709,-0.0003685466528312,-0.0010158089748508,,0.0029221986643147,0.0009211528264380,-0.0058647508733388,0.0000569818828218,0.0005542338034713,0.0000084162661342,0.9999998447535492,-0.0690515848017236,0.3094154253685485,0.0013637793337315,0.0021712789312005,-0.0055115297436714,-0.0089211678132415,0.0002103293809341,-0.0018684096867219,-0.0012658763444051,,0.0000000000000000,0.0000000000000000,
1559013415.0865106582641602,2.3323698043823242,,0.0071735735218965,-0.0050168374422613,-0.0025694956674676,-0.0001026190980161,0.0000150285043523,0.0000828684517452,0.9999999911881423,-0.0873039075346475,0.2476393761961439,0.0099731549758855,0.0048101879909068,-0.0021441537436870,-0.0022208533640035,-0.0001371588433228,0.0001612934593432,-0.0004769192166822,,0.0029519888838059,0.0008384119710609,-0.0059934795015772,0.0000581090590179,0.0005500910080263,-0.0000013667004831,0.9999998470106645,-0.0689278484126669,0.3089392815590514,0.0002433889468124,0.0020987750031054,-0.0055223274976015,-0.0086310729384422,-0.0007987834396772,0.0002558300329838,-0.0004012739227619,,0.0000000000000000,0.0000000000000000,
1559013415.1198308467864990,2.3656899929046631,,0.0073531261121387,-0.0049177407280888,-0.0026359851427112,-0.0001038639841486,0.0000204398665691,0.0000892221932866,0.9999999904169425,-0.0874433735307345,0.2482605194023826,0.0107003620537542,0.0047032523817992,-0.0022044487420084,-0.0028223427184483,0.0001240332744241,0.0001585181509214,0.0000582371388585,,0.0051925544355761,0.0023813793912971,-0.0010522355678721,0.0000469439347328,0.0005700122294068,-0.0000046649478309,0.9999998364302685,-0.0702091373472664,0.3112216003752460,-0.0001381758148190,0.0089325234293938,0.0004224320291542,0.0012637828476727,-0.0005778026534244,-0.0005969690391794,-0.0000826702453196,,0.0000000000000000,0.0000000000000000,
1559013415.1531507968902588,2.3990099430084229,,0.0075279438541773,-0.0050118217323232,-0.0027495570029937,-0.0001130063991866,0.0000124895586141,0.0000900592994520,0.9999999894814436,-0.0884906799422159,0.2473497129107908,0.0107975707225960,0.0046105422751602,-0.0007899441051201,-0.0024806547683155,0.0001362430821367,-0.0003665925310619,-0.0010106852565234,,0.0046368757536828,0.0024083626879825,-0.0023725760559474,0.0000458798311537,0.0005587346913442,0.0000202892320099,0.9999998426494540,-0.0703171895108751,0.3099329308591345,0.0027229777647251,0.0063844979740679,-0.0001243474544026,-0.0025399073492736,-0.0001940629445016,0.0010972442105412,0.0014111992204562,,0.0000000000000000,0.0000000000000000,
1559013415.1864707469940186,2.4323298931121826,,0.0075827869524936,-0.0049583944108985,-0.0026366777630286,-0.0001204818335505,0.0000121797811707,0.0000888199637211,0.9999999887233973,-0.0893479159282307,0.2473140878458736,0.0106555924019739,0.0041952400317272,-0.0031015338751736,-0.0007383701247810,-0.0001442588081737,0.0006901565127653,0.0000594086903652,,0.0046368757536828,0.0024083626879825,-0.0023725760559474,0.0000458798311537,0.0005587346913442,0.0000202892320099,0.9999998426494540,-0.0703171895108751,0.3099329308591345,0.0027229777647251,0.0063844979740679,-0.0001243474544026,-0.0025399073492736,-0.0001940629445016,0.0010972442105412,0.0014111992204562,,0.0000000000000000,0.0000000000000000,
1559013415.2197906970977783,2.4656498432159424,,0.0077567545638180,-0.0050584590330683,-0.0027007520865263,-0.0001156471023275,0.0000196543106867,0.0000899008116284,0.9999999890786498,-0.0887932917090970,0.2481707333750472,0.0107782279615794,0.0053908537517636,-0.0030691693758417,-0.0029819883698355,0.0001214783071055,0.0001566419667685,0.0003245343811820,,0.0036304880783306,0.0051519430538680,-0.0003610028637882,0.0000409396240160,0.0005788687692688,0.0000372948730190,0.9999998309219795,-0.0708737745339409,0.3122426262887678,0.0046684425669311,0.0018805343424901,0.0090315490961075,0.0019654412753880,-0.0017144266748801,0.0002639917656779,-0.0012922289315611,,0.0000000000000000,0.0000000000000000,
1559013415.2531106472015381,2.4989697933197021,,0.0079569983287378,-0.0049962174269964,-0.0026327869126223,-0.0001150100620880,0.0000180949701455,0.0000800489804377,0.9999999900187094,-0.0887251731450297,0.2479904214099809,0.0096495394331328,0.0065886972486683,-0.0014659690149193,-0.0047268777626495,-0.0003979208209710,-0.0006367305396880,-0.0007513784588514,,0.0036304880783306,0.0051519430538680,-0.0003610028637882,0.0000409396240160,0.0005788687692688,0.0000372948730190,0.9999998309219795,-0.0708737745339409,0.3122426262887678,0.0046684425669311,0.0018805343424901,0.0090315490961075,0.0019654412753880,-0.0017144266748801,0.0002639917656779,-0.0012922289315611,,0.0000000000000000,0.0000000000000000,
1559013415.2864308357238770,2.5322899818420410,,0.0081537258475590,-0.0050942767124092,-0.0027371802843962,-0.0001128755211598,0.0000282232352440,0.0000831317623540,0.9999999897758379,-0.0884789608639746,0.2491515199853415,0.0100011463357785,0.0053661031022998,-0.0023462344461670,-0.0028519416817296,0.0003918951288453,0.0004276790773840,-0.0002036315227925,,0.0024622045541892,0.0033692700341506,0.0010831382365003,0.0000311932746903,0.0005793344129262,0.0000361975982775,0.9999998310441615,-0.0719912381284506,0.3122958639970193,0.0045419871211058,-0.0010414639255032,0.0009290307061747,0.0048048202879727,0.0009482172317803,0.0003190914285369,-0.0010488524567336,,0.0000000000000000,0.0000000000000000,
1559013415.3197507858276367,2.5656099319458008,,0.0082284174403251,-0.0051771923956496,-0.0024428455424997,-0.0000972844779475,0.0000263775476178,0.0000815678975889,0.9999999915933167,-0.0866931488643719,0.2489396178060695,0.0098222891979901,0.0049298441421827,-0.0022309046435964,-0.0018808106243462,0.0006581971230390,0.0004286561341827,-0.0002010696551940,,-0.0011975343005169,-0.0002381331457557,-0.0116585177331550,0.0000383786624462,0.0005816846829044,0.0000424769116023,0.9999998291828455,-0.0711643361308447,0.3125660771103843,0.0052616856179353,-0.0107396440580487,-0.0107621066272259,-0.0173117518424988,-0.0005886165308766,0.0007920654607005,-0.0003913546097465,,0.0000000000000000,0.0000000000000000,
1559013415.3530707359313965,2.5989298820495605,,0.0084008140833089,-0.0052700936924196,-0.0025617955966304,-0.0001007384986669,0.0000153577619975,0.0000849745738713,0.9999999911976080,-0.0870873642397160,0.2476774309743240,0.0102144505219525,0.0053480028676382,-0.0021884163481629,-0.0027427914198376,-0.0004070108523593,0.0004247478654148,-0.0002113171407699,,-0.0014185691403290,-0.0004501569395737,-0.0120030723032950,0.0000434684384757,0.0005856383472689,0.0000345169022151,0.9999998269733873,-0.0705855220237378,0.3130179456839972,0.0043492845201148,-0.0107360417023301,-0.0110346311703324,-0.0169592592865229,-0.0017026001587510,0.0004706384497695,-0.0002738574403338,,0.0000000000000000,0.0000000000000000,
1559013415.3863906860351562,2.6322498321533203,,0.0084558180543806,-0.0052484000965529,-0.0027709839758716,-0.0001068964542334,0.0000224179442736,0.0000831272832117,0.9999999905802194,-0.0877938635745855,0.2484862256586078,0.0100016007114940,0.0053809915981412,-0.0014319645482042,-0.0036081600157729,-0.0006682029701062,0.0004275231738366,-0.0007464734963107,,0.0004262861186348,0.0005055146716519,-0.0030225889805924,0.0000281378091692,0.0006375103836657,0.0000326667861107,0.9999997958608069,-0.0723431701832275,0.3189618250253319,0.0041285725274775,-0.0035836682654917,-0.0071170125156641,-0.0000942988626775,-0.0000557013772777,-0.0000009190291053,-0.0005030430038460,,0.0000000000000000,0.0000000000000000,
1559013415.4197106361389160,2.6655697822570801,,0.0086458322712626,-0.0053195685901802,-0.0028979012882403,-0.0001059877250434,0.0000245764818324,0.0000774486524203,0.9999999910821525,-0.0876925207813074,0.2487326399747600,0.0093505220795168,0.0049486948131117,-0.0014711630636358,-0.0025301880778482,0.0003970049953647,0.0004314314184575,-0.0007362260337433,,0.0003574812231935,0.0003619826310008,-0.0030307031033011,0.0000280967192277,0.0006463813474378,0.0000294119631035,0.9999997902683102,-0.0723496947302187,0.3199778806545092,0.0037542767039110,-0.0030758511275053,-0.0073704370297492,-0.0008689275127836,-0.0003743243869394,0.0005830600857735,-0.0002860996755771,,0.0000000000000000,0.0000000000000000,
1559013415.4530308246612549,2.6988899707794189,,0.0087371276747163,-0.0049902507217349,-0.0026846708380861,-0.0001071349033483,0.0000218689560327,0.0000774640369873,0.9999999910215922,-0.0878239922502896,0.2484223933783697,0.0093527241257777,0.0060065218793290,-0.0017353068001653,-0.0038246426009553,-0.0006632278023812,-0.0009040153475705,-0.0007558070523907,,0.0003574812231935,0.0003619826310008,-0.0030307031033011,0.0000280967192277,0.0006463813474378,0.0000294119631035,0.9999997902683102,-0.0723496947302187,0.3199778806545092,0.0037542767039110,-0.0030758511275053,-0.0073704370297492,-0.0008689275127836,-0.0003743243869394,0.0005830600857735,-0.0002860996755771,,0.0000000000000000,0.0000000000000000,
1559013415.4863507747650146,2.7322099208831787,,0.0088286263067883,-0.0050213335500176,-0.0027371818104280,-0.0001061677967943,0.0000177244722210,0.0000765286814188,0.9999999912788016,-0.0877136657889062,0.2479473097119679,0.0092462184492531,0.0059567183411488,-0.0018359200951854,-0.0026861448802911,0.0001265881099753,0.0001603942626532,-0.0002080600944103,,0.0034025515714207,0.0019694676577049,0.0014925504697577,0.0000218994381274,0.0006415251941719,0.0000333035632454,0.9999997934283349,-0.0730576655340355,0.3194220055325690,0.0042004903961273,0.0078299734741449,-0.0012851294595748,0.0068843513727188,0.0005175640108064,-0.0001538863434689,-0.0014675890561193,,0.0000000000000000,0.0000000000000000,
