#Time(sec),Dtime(sec),,x(m),y(m),z(m),qx,qy,qz,qw,roll_x_G(deg),pitch_y_G(deg),yaw_z_G(deg),vx(m/s),vy(m/s),vz(m/s),wx(rad/s),wy(rad/s),wz(rad/s),,gt_x(m),gt_y(m),gt_z(m),gt_qx,gt_qy,gt_qz,gt_qw,gt_groll_x_G(deg),gt_pitch_y_G(deg),gt_yaw_z_G(deg),gt_vx(m/s),gt_vy(m/s),gt_vz(m/s),gt_wx(rad/s),gt_wy(rad/s),gt_wz(rad/s),,Sr,Sr_avg,
1559013412.7541408538818359,0.0000000000000000,,0.0000000000000002,0.0000000000000001,-0.0000000000000001,0.0000000000000000,-0.0000000000000001,0.0000000000000000,1.0000000000000000,-0.0755855138669150,0.2459037397968158,0.0004794994091153,0.0000000000000000,0.0000000000000000,0.0000000000000000,0.0000000000000000,0.0000000000000000,0.0000000000000000,,0.0000000000000000,0.0000000000000000,0.0000000000000000,0.0000000000000000,0.0000000000000000,0.0000000000000000,1.0000000000000000,-0.0755855138669150,0.2459037397968215,0.0004794994091152,-0.0098102642223239,-0.0059528849087656,-0.0021041124127805,0.0008114594966173,-0.0000641869410174,-0.0007574954070151,,0.0000000000000000,0.0000000000000000,
1559013412.7874608039855957,0.0333199501037598,,0.0000000000000002,0.0000000000000001,-0.0000000000000001,0.0000000000000000,-0.0000000000000001,0.0000000000000000,1.0000000000000000,-0.0755855138669150,0.2459037397968158,0.0004794994091153,0.0000000000000000,0.0000000000000000,0.0000000000000000,0.0000000000000000,0.0000000000000000,0.0000000000000000,,0.0000000000000000,0.0000000000000000,0.0000000000000000,0.0000000000000000,0.0000000000000000,0.0000000000000000,1.0000000000000000,-0.0755855138669150,0.2459037397968215,0.0004794994091152,-0.0098102642223239,-0.0059528849087656,-0.0021041124127805,0.0008114594966173,-0.0000641869410174,-0.0007574954070151,,0.0000000000000000,0.0000000000000000,
1559013412.8207807540893555,0.0666399002075195,,0.0000219726581638,-0.0000260111889973,-0.0000459141663904,-0.0000208610050351,-0.0000137221306289,-0.0000034844792411,0.9999999996821901,-0.0779777081630646,0.2443307657790641,0.0000823114382821,0.0005549145090711,-0.0009140744155948,-0.0007645881653806,-0.0006713226546122,-0.0001088443910840,-0.0002176123651700,,0.0000000000000000,0.0000000000000000,0.0000000000000000,0.0000000000000000,0.0000000000000000,0.0000000000000000,1.0000000000000000,-0.0755855138669150,0.2459037397968215,0.0004794994091152,-0.0098102642223239,-0.0059528849087656,-0.0021041124127805,0.0008114594966173,-0.0000641869410174,-0.0007574954070151,,0.0000000000000000,0.0000000000000000,
1559013412.8541007041931152,0.0999598503112793,,0.0000608926743231,-0.0000640802948601,-0.0001140602429562,-0.0000373096937066,-0.0000189844924195,-0.0000087132854731,0.9999999990858274,-0.0798651435414091,0.2437269247291102,-0.0005160265755550,0.0011061855532015,-0.0033799717536283,-0.0017536299372295,-0.0014824384616985,0.0004133351236126,0.0008436244272202,,0.0026245542083911,0.0026448552001494,-0.0084863851899029,-0.0000333937179824,0.0001718520074773,-0.0000101301488424,0.9999999846245635,-0.0794174526191618,0.2655949411350161,-0.0007079784706163,0.0011400097282603,-0.0002242026966996,-0.0186141021549702,-0.0007273238734342,-0.0001038627669914,-0.0002373664610786,,0.0000000000000000,0.0000000000000000,
1559013412.8874206542968750,0.1332798004150391,,0.0001262903034411,-0.0001468154741993,-0.0002142065874932,-0.0000378024141703,-0.0000235806923088,-0.0000050935236011,0.9999999989944923,-0.0799198270708824,0.2432008019201591,-0.0001005132246582,0.0021184657892204,-0.0024107857097970,-0.0026184181863062,0.0001285783637746,-0.0003722209284548,-0.0002117934720251,,0.0026245542083911,0.0026448552001494,-0.0084863851899029,-0.0000333937179824,0.0001718520074773,-0.0000101301488424,0.9999999846245635,-0.0794174526191618,0.2655949411350161,-0.0007079784706163,0.0011400097282603,-0.0002242026966996,-0.0186141021549702,-0.0007273238734342,-0.0001038627669914,-0.0002373664610786,,0.0000000000000000,0.0000000000000000,
1559013412.9207408428192139,0.1665999889373779,,0.0001876071963411,-0.0002485065635448,-0.0002723575101359,-0.0000332340376668,-0.0000278667317498,-0.0000049033733097,0.9999999990474505,-0.0793962315090670,0.2427096905476230,-0.0000780715043153,0.0016332172232536,-0.0030002443095807,-0.0000183282768429,0.0009260591413560,0.0006978172556181,-0.0004629382745979,,0.0013044971720459,0.0006642558835833,-0.0097306379038952,-0.0000438730574526,0.0002087906767953,-0.0000009822662857,0.9999999772403214,-0.0806136494002281,0.2698292134783979,0.0003343256994272,-0.0023964915890247,-0.0079505480825901,-0.0198433436453342,0.0003404117596801,-0.0015395777300000,-0.0001423610374331,,0.0000000000000000,0.0000000000000000,
1559013412.9540607929229736,0.1999199390411377,,0.0002510355284044,-0.0003552317527220,-0.0002739830334416,-0.0000129934686530,-0.0000142844809747,-0.0000089746469803,0.9999999997732896,-0.0770788454877928,0.2442654901962383,-0.0005467471256826,0.0015572095440772,-0.0016274100853720,0.0003069651755764,0.0011929260021615,0.0012332859105604,-0.0007229402316692,,0.0013044971720459,0.0006642558835833,-0.0097306379038952,-0.0000438730574526,0.0002087906767953,-0.0000009822662857,0.9999999772403214,-0.0806136494002281,0.2698292134783979,0.0003343256994272,-0.0023964915890247,-0.0079505480825901,-0.0198433436453342,0.0003404117596801,-0.0015395777300000,-0.0001423610374331,,0.0000000000000000,0.0000000000000000,
1559013412.9873807430267334,0.2332398891448975,,0.0003049992330981,-0.0004089312959995,-0.0003164140705479,-0.0000144173017045,-0.0000098617901226,-0.0000141313640163,0.9999999997475956,-0.0772445424394733,0.2447715032002950,-0.0011383418386656,0.0011389741805766,-0.0019570558982999,-0.0014499054642399,-0.0004121206084769,0.0004209957160276,0.0003212774096721,,0.0018857590854552,-0.0013061177091510,-0.0060609667982342,-0.0000362485746485,0.0002088160531889,0.0000027108259949,0.9999999775372739,-0.0797380425351669,0.2698326961289798,0.0007577056763264,-0.0000950830581132,-0.0141929863020778,-0.0110827842727304,0.0008529586484656,0.0008104145526886,-0.0009446555632167,,0.0000000000000000,0.0000000000000000,
1559013413.0207006931304932,0.2665598392486572,,0.0003431363790865,-0.0004716913804853,-0.0004165912864769,-0.0000362799963632,-0.0000178833168929,-0.0000100745123364,0.9999999991312265,-0.0797478174257171,0.2438528996089663,-0.0006721862495950,0.0008971832518353,-0.0020463925252434,-0.0023451758404527,-0.0009427345252527,-0.0001135738131031,0.0003124202551737,,0.0001864124072654,0.0012166738894161,0.0004830618136631,-0.0000185716344986,0.0002542559187380,0.0000077107003256,0.9999999674747831,-0.0777098268087173,0.2750404781751465,0.0013241122817303,-0.0062631070613861,-0.0018153276760131,0.0017081610858440,-0.0014693180564791,-0.0002084249572363,0.0000913238181965,,0.0000000000000000,0.0000000000000000,
1559013413.0540206432342529,0.2998797893524170,,0.0003903418709308,-0.0005530731092706,-0.0004847153840386,-0.0000454537236579,-0.0000198192877273,-0.0000091906053814,0.9999999987283439,-0.0807986128321173,0.2436311815676687,-0.0005705755700852,0.0017486898863368,-0.0027608805572256,-0.0017974615562203,0.0003923254197449,-0.0003731200542663,0.0000570656395446,,-0.0016435135824158,0.0026275468295871,0.0012304795801690,-0.0000513339756734,0.0002473163494147,-0.0000056877855006,0.9999999680835472,-0.0814710891680904,0.2742431862158812,-0.0002111219548778,-0.0103930579498410,0.0014988548355177,0.0039006241131574,0.0011318795150146,0.0002227528020740,-0.0000919199519558,,0.0000000000000000,0.0000000000000000,
1559013413.0873408317565918,0.3331999778747559,,0.0004234486227579,-0.0005966198243038,-0.0004865823064720,-0.0000408711731347,-0.0000194033059670,-0.0000116516057803,0.9999999989086495,-0.0802746968457837,0.2436784707510002,-0.0008526629832856,0.0017238659437074,-0.0031872876512882,-0.0011787744311173,0.0001260234255512,-0.0003740971110650,0.0000545037719461,,-0.0016435135824158,0.0026275468295871,0.0012304795801690,-0.0000513339756734,0.0002473163494147,-0.0000056877855006,0.9999999680835472,-0.0814710891680904,0.2742431862158812,-0.0002111219548778,-0.0103930579498410,0.0014988548355177,0.0039006241131574,0.0011318795150146,0.0002227528020740,-0.0000919199519558,,0.0000000000000000,0.0000000000000000,
1559013413.1206507682800293,0.3665099143981934,,0.0004875046119288,-0.0007131324452342,-0.0005479768420746,-0.0000410329693690,-0.0000277650351945,-0.0000041844435922,0.9999999987639444,-0.0802895719821753,0.2427214518202658,0.0000043214938694,0.0027629761878755,-0.0047803604081103,-0.0033741379076372,0.0001177937450954,-0.0009142172565679,0.0011159593238932,,-0.0016435135824158,0.0026275468295871,0.0012304795801690,-0.0000513339756734,0.0002473163494147,-0.0000056877855006,0.9999999680835472,-0.0814710891680904,0.2742431862158812,-0.0002111219548778,-0.0103930579498410,0.0014988548355177,0.0039006241131574,0.0011318795150146,0.0002227528020740,-0.0000919199519558,,0.0000000000000000,0.0000000000000000,
1559013413.1539707183837891,0.3998298645019531,,0.0005990113220722,-0.0008552357400881,-0.0007333419496067,-0.0000265381308570,-0.0000211865703748,-0.0000015460239116,0.9999999994222334,-0.0786273022994469,0.2434757014488049,0.0003056039331352,0.0026072467493352,-0.0025261964478465,-0.0020233513629907,0.0006597571479885,0.0006968401992909,-0.0004655001468324,,0.0030802988584500,0.0012210024314830,-0.0004229099459523,-0.0000380366311522,0.0002537059910602,0.0000099031762481,0.9999999670442055,-0.0799392118169074,0.2749778185721677,0.0015748725432740,0.0080886157229543,-0.0046372590586543,0.0003316676011309,0.0006035095429979,0.0012304764240980,0.0005028592422605,,0.0000000000000000,0.0000000000000000,
1559013413.1872906684875488,0.4331498146057129,,0.0006702930233953,-0.0009359167869561,-0.0007892539222648,-0.0000239243283392,-0.0000153890376082,-0.0000099969051198,0.9999999995454331,-0.0783319287550137,0.2441387488783843,-0.0006637023133692,0.0014389641478495,-0.0019512472587300,0.0001409626220042,0.0001302729644587,0.0012312538769016,-0.0009994849524100,,0.0032453695944055,0.0011196545295340,-0.0004223351860165,-0.0000312984294318,0.0002538822486879,0.0000161588989184,0.9999999671515505,-0.0791638111367561,0.2749989768490645,0.0022919017707144,0.0086654815822840,-0.0050508026033640,-0.0003003584279213,0.0014034562045708,-0.0017996052047238,-0.0003075636050198,,0.0000000000000000,0.0000000000000000,
1559013413.2206108570098877,0.4664700031280518,,0.0007274458660256,-0.0008854931298973,-0.0007326552068707,-0.0000182413398137,-0.0000186754100409,-0.0000192784262701,0.9999999994734126,-0.0776852452139501,0.2437607425403958,-0.0017268012864526,0.0022527419433115,-0.0001411783977245,-0.0023644587798741,0.0012059961659032,-0.0008934233754271,-0.0012704684031923,,0.0032453695944055,0.0011196545295340,-0.0004223351860165,-0.0000312984294318,0.0002538822486879,0.0000161588989184,0.9999999671515505,-0.0791638111367561,0.2749989768490645,0.0022919017707144,0.0086654815822840,-0.0050508026033640,-0.0003003584279213,0.0014034562045708,-0.0017996052047238,-0.0003075636050198,,0.0000000000000000,0.0000000000000000,
1559013413.2539308071136475,0.4997899532318115,,0.0008161471595902,-0.0010084501504952,-0.0008247577100250,-0.0000074806253596,-0.0000191322232097,-0.0000098927948860,0.9999999997400655,-0.0764475616334034,0.2437098464093192,-0.0006512319736077,0.0023047868143682,-0.0030327562431063,-0.0029519633735432,-0.0001473785160038,0.0001537888845142,0.0005882698134602,,-0.0003187015053108,0.0000959066590073,-0.0209231593457670,-0.0000160718343075,0.0002776230263452,0.0000108136414350,0.9999999612751075,-0.0774217422934056,0.2777186218234659,0.0016761845038021,-0.0058840299025178,-0.0058508231304586,-0.0372426919639111,0.0013397382572293,0.0005982400616631,-0.0003023762255907,,0.0000000000000000,0.0000000000000000,
1559013413.2872507572174072,0.5331099033355713,,0.0008919055570213,-0.0010917724723925,-0.0009079195448294,-0.0000056884804452,-0.0000201548333186,0.0000003034506162,0.9999999997806659,-0.0762372040992887,0.2435942141225296,0.0005173325636421,0.0028378115620588,-0.0024712452683812,-0.0030108863793540,0.0006566373430241,0.0001604724201306,0.0000633609283136,,-0.0003187015053108,0.0000959066590073,-0.0209231593457670,-0.0000160718343075,0.0002776230263452,0.0000108136414350,0.9999999612751075,-0.0774217422934056,0.2777186218234659,0.0016761845038021,-0.0058840299025178,-0.0058508231304586,-0.0372426919639111,0.0013397382572293,0.0005982400616631,-0.0003023762255907,,0.0000000000000000,0.0000000000000000,
1559013413.3205707073211670,0.5664298534393311,,0.0009934685910791,-0.0012088207894020,-0.0010021433607973,-0.0000014850419842,-0.0000206997237863,0.0000006542816157,0.9999999997844440,-0.0757553535324707,0.2435318272647744,0.0005576079198051,0.0028803709270901,-0.0036702073315427,-0.0020686315477978,0.0001275833293707,-0.0001059132194381,-0.0002099267707550,,0.0034269625326508,0.0011286720590091,-0.0090409392735334,-0.0000107213567495,0.0003332832900764,0.0000064883889218,0.9999999443825994,-0.0768108869699027,0.2840961473448347,0.0011722296041699,0.0091384267434478,-0.0020928373560309,-0.0114530222490430,0.0010196233633906,0.0007099295035005,-0.0002983235754073,,0.0000000000000000,0.0000000000000000,
1559013413.3538906574249268,0.5997498035430908,,0.0010980023829459,-0.0014184723134434,-0.0010370291657134,0.0000043933515533,-0.0000162809613449,0.0000009097369512,0.9999999998574006,-0.0750816166543658,0.2440382177338321,0.0005862014748458,0.0023076639010258,-0.0042630052041195,-0.0012333488269903,0.0006530873696997,0.0004249039444721,0.0003315248716856,,0.0038770528996077,0.0016472316239445,-0.0017817424349745,-0.0000074296579382,0.0003350296155490,0.0000100847786441,0.9999999437991255,-0.0764317786616396,0.2842968057608064,0.0015842104441551,0.0097196577116847,-0.0004313084064052,0.0031110367272049,0.0015891643706709,0.0003474377153907,-0.0016894822474569,,0.0000000000000000,0.0000000000000000,
1559013413.3872108459472656,0.6330699920654297,,0.0011825135904582,-0.0015641402800560,-0.0011062948822868,0.0000078473290590,-0.0000121960624877,0.0000079800139297,0.9999999998629976,-0.0746823548444460,0.2445073743232683,0.0013957819269438,0.0025618974131182,-0.0044209056012840,-0.0033234989745128,-0.0001479433812950,-0.0003807027095605,0.0008508336234259,,0.0040371625405149,0.0010407715328566,-0.0011724512895224,0.0000182179897012,0.0003403120708404,-0.0000080441169780,0.9999999418955441,-0.0735023907927335,0.2848993990187070,-0.0004930345491329,0.0076945354230702,-0.0024773650802672,0.0028743059374392,0.0014570327475667,-0.0012100221356377,0.0000713423796697,,0.0000000000000000,0.0000000000000000,
1559013413.4205307960510254,0.6663899421691895,,0.0012613779669874,-0.0016629377147023,-0.0011322601152357,-0.0000012826589365,-0.0000167951968147,0.0000061573401331,0.9999999998391816,-0.0757294684925787,0.2439800853849867,0.0011876258343028,0.0025343780496544,-0.0042058869881591,-0.0041824298833561,-0.0001469483454892,-0.0006470104173272,0.0008489669137752,,0.0028244609372718,-0.0020864745447010,-0.0040981470072898,0.0000272535559166,0.0003338402301539,-0.0000050454464155,0.9999999438912424,-0.0724653892738492,0.2841582340357628,-0.0001480977271716,0.0034915832802653,-0.0125113883987069,-0.0027146551292390,0.0007540810620412,0.0003361692652106,-0.0002933166106232,,0.0000000000000000,0.0000000000000000,
1559013413.4538507461547852,0.6997098922729492,,0.0013448204827418,-0.0017593902011823,-0.0012536549496637,-0.0000100272099862,-0.0000277923348009,0.0000034956040670,0.9999999995574110,-0.0767328213991324,0.2427195080805124,0.0008843027360198,0.0031068443258033,-0.0022266181637558,-0.0040995700130501,0.0001356783142755,-0.0009010839794413,-0.0007481214005539,,0.0028244609372718,-0.0020864745447010,-0.0040981470072898,0.0000272535559166,0.0003338402301539,-0.0000050454464155,0.9999999438912424,-0.0724653892738492,0.2841582340357628,-0.0001480977271716,0.0034915832802653,-0.0125113883987069,-0.0027146551292390,0.0007540810620412,0.0003361692652106,-0.0002933166106232,,0.0000000000000000,0.0000000000000000,
1559013413.4871706962585449,0.7330298423767090,,0.0014503237276027,-0.0017436029980907,-0.0013588298245577,0.0000029372112909,-0.0000222055536822,-0.0000060440087092,0.9999999997308782,-0.0752518770641629,0.2433582613232803,-0.0002097492271748,0.0034306121970662,-0.0046318686379313,-0.0027017629700378,0.0001189234799354,0.0001547659385743,0.0005908316579043,,0.0028244609372718,-0.0020864745447010,-0.0040981470072898,0.0000272535559166,0.0003338402301539,-0.0000050454464155,0.9999999438912424,-0.0724653892738492,0.2841582340357628,-0.0001480977271716,0.0034915832802653,-0.0125113883987069,-0.0027146551292390,0.0007540810620412,0.0003361692652106,-0.0002933166106232,,0.0000000000000000,0.0000000000000000,
1559013413.5204906463623047,0.7663497924804688,,0.0015783165989192,-0.0018984809713347,-0.0014631624367699,0.0000037035921567,-0.0000214918744865,0.0000036417172880,0.9999999997555603,-0.0751593175661640,0.2434415034936781,0.0009000527322219,0.0038154001651036,-0.0054484897919381,-0.0033796327604955,0.0003785556951912,-0.0001161932510424,0.0013904185548636,,0.0009049911250469,0.0016716632260573,-0.0081049924384131,0.0000501230371511,0.0003626649995588,-0.0000170555534951,0.9999999328354414,-0.0698511788821507,0.2874595744438982,-0.0015276880078354,-0.0032216487452388,0.0018814789364114,-0.0086492393165827,0.0019662324339151,0.0004521511436906,-0.0012100221356377,,0.0000000000000000,0.0000000000000000,
1559013413.5538108348846436,0.7996699810028076,,0.0016781820126546,-0.0020614217527412,-0.0015658645715102,0.0000041224503339,-0.0000292369251103,0.0000197870344408,0.9999999993683405,-0.0751034318478131,0.2425564195494253,0.0027513508936714,0.0034966846509361,-0.0056062626575352,-0.0038664508121151,0.0006458527251907,-0.0003815239020104,0.0013911137128114,,0.0009049911250469,0.0016716632260573,-0.0081049924384131,0.0000501230371511,0.0003626649995588,-0.0000170555534951,0.9999999328354414,-0.0698511788821507,0.2874595744438982,-0.0015276880078354,-0.0032216487452388,0.0018814789364114,-0.0086492393165827,0.0019662324339151,0.0004521511436906,-0.0012100221356377,,0.0000000000000000,0.0000000000000000,
1559013413.5871307849884033,0.8329899311065674,,0.0017883259903777,-0.0022033411278066,-0.0016683929435374,0.0000116320955293,-0.0000291244718770,0.0000235142742109,0.9999999992317693,-0.0742410691418138,0.2425698470722564,0.0031784225871738,0.0025118766812588,-0.0034459031569327,-0.0014086662973741,0.0011872512625426,0.0006950419601759,0.0000722180545420,,0.0008416231557927,0.0017042349993819,-0.0082787919112038,0.0000540832522323,0.0003709936414145,-0.0000274513881228,0.9999999293425681,-0.0694029478739007,0.2884124663842267,-0.0027200200000634,-0.0031365249305964,0.0013117705238983,-0.0091546773910522,-0.0008535996312276,-0.0001344025076833,-0.0015033677918836,,0.0000000000000000,0.0000000000000000,
1559013413.6204507350921631,0.8663098812103271,,0.0018120628152294,-0.0021546186947886,-0.0016447131085612,0.0000121602343502,-0.0000301088420065,0.0000256925415738,0.9999999991427397,-0.0741794871326310,0.2424573714382506,0.0034281813164870,0.0025404885792516,-0.0029145819698952,-0.0013801111177104,0.0003909002181849,0.0006939869723902,-0.0002017647922247,,0.0008416231557927,0.0017042349993819,-0.0082787919112038,0.0000540832522323,0.0003709936414145,-0.0000274513881228,0.9999999293425681,-0.0694029478739007,0.2884124663842267,-0.0027200200000634,-0.0031365249305964,0.0013117705238983,-0.0091546773910522,-0.0008535996312276,-0.0001344025076833,-0.0015033677918836,,0.0000000000000000,0.0000000000000000,
1559013413.6537706851959229,0.8996298313140869,,0.0019272414796563,-0.0022769774329064,-0.0017508478965580,0.0000123438759101,-0.0000333563155841,0.0000279911242979,0.9999999989757410,-0.0741573291690526,0.2420855823213303,0.0036920672409971,0.0032864520636985,-0.0041697893203047,-0.0029047099861870,-0.0004136805087858,0.0001528118256442,0.0005857079187820,,0.0030406504889629,0.0022882742342330,-0.0062925504181727,0.0000611729674452,0.0003626874159403,-0.0000190422897520,0.9999999321765465,-0.0685860076404653,0.2874618788989146,-0.0017548979202029,0.0040563573129475,0.0002654088311829,-0.0037910772953182,0.0001189401809825,-0.0001427652314305,-0.0001788293011487,,0.0000000000000000,0.0000000000000000,
1559013413.6870906352996826,0.9329497814178467,,0.0019842159443997,-0.0020932417361596,-0.0018434432431033,0.0000034842554309,-0.0000303559441759,0.0000314535746500,0.9999999990385245,-0.0751708681824897,0.2424299496618066,0.0040884195674992,0.0033165758721559,-0.0038511332143411,-0.0036405129462350,-0.0006764325289503,-0.0001125967563109,0.0003149820975617,,0.0036291435458029,0.0025966150466021,-0.0043469637549630,0.0000571760738891,0.0003901364780748,-0.0000200743580797,0.9999999220607196,-0.0690446522828446,0.2906071492304136,-0.0018773020674637,0.0051087369211018,0.0014169181231409,0.0000617773694103,-0.0004234086372890,-0.0003483407199383,-0.0010793746914715,,0.0000000000000000,0.0000000000000000,
1559013413.7204108238220215,0.9662699699401855,,0.0021139140144832,-0.0022533082204907,-0.0019662617886190,-0.0000100647029262,-0.0000279005936658,0.0000324636531142,0.9999999990331849,-0.0767229634293315,0.2427115145810095,0.0042038400984625,0.0032879639233752,-0.0046181054565347,-0.0028600989982146,-0.0001448235785932,0.0001556650679377,0.0003219725528478,,0.0029954825554080,0.0032025419981495,0.0006789376870445,0.0000544467831987,0.0004025603575399,-0.0000166703444748,0.9999999173513996,-0.0693556131155782,0.2920313069036726,-0.0014891490537248,0.0025517339818180,0.0034124318044633,0.0093907183036208,0.0006610900745727,-0.0005176760023460,0.0005640679155476,,0.0000000000000000,0.0000000000000000,
1559013413.7537307739257812,0.9995899200439453,,0.0021379708343330,-0.0021994588171043,-0.0019099761422545,-0.0000035626095430,-0.0000295601103582,0.0000393689853983,0.9999999987817955,-0.0759745108132198,0.2425223703881653,0.0049953700289753,0.0038333594261453,-0.0049801041401785,-0.0034401807086717,0.0001183586107652,-0.0003797256560175,0.0008533954890872,,0.0030289224516844,0.0023765824402918,-0.0033198514464759,0.0000678295528458,0.0003977654355162,-0.0000278324407393,0.9999999182035793,-0.0678280433599501,0.2914802751545360,-0.0027669415083076,0.0023106145672500,-0.0010975358309224,0.0018299455987290,0.0003901844902430,0.0004943516105413,0.0005143763264641,,0.0000000000000000,0.0000000000000000,
1559013413.7870507240295410,1.0329098701477051,,0.0022610587549625,-0.0023278886146072,-0.0020095618271431,-0.0000000788074385,-0.0000267935188496,0.0000437473019690,0.9999999986841374,-0.0755731459271540,0.2428400441496047,0.0054966622898824,0.0037784601086262,-0.0028214709510021,-0.0038575302230167,-0.0001377236309005,-0.0003731979930040,-0.0002143553574595,,0.0028483643782737,0.0054159764026453,-0.0048358352553247,0.0000756474026680,0.0004063720092715,-0.0000323465478623,0.9999999140464770,-0.0669346459473181,0.2924658971404100,-0.0032850968095539,0.0015071481466293,0.0085062691941857,-0.0014686621725559,-0.0004123515100218,-0.0004598114755936,-0.0001185764558613,,0.0000000000000000,0.0000000000000000,
1559013413.8203706741333008,1.0662298202514648,,0.0022864624084378,-0.0022393933652276,-0.0019647846849548,-0.0000041908382104,-0.0000285847026997,0.0000462596419704,0.9999999985126986,-0.0760431303201835,0.2426351912985248,0.0057848417364608,0.0037385922541115,-0.0038457513073946,-0.0037643243567165,-0.0004126854755702,-0.0001134958898666,0.0005838412165060,,0.0028483643782737,0.0054159764026453,-0.0048358352553247,0.0000756474026680,0.0004063720092715,-0.0000323465478623,0.9999999140464770,-0.0669346459473181,0.2924658971404100,-0.0032850968095539,0.0015071481466293,0.0085062691941857,-0.0014686621725559,-0.0004123515100218,-0.0004598114755936,-0.0001185764558613,,0.0000000000000000,0.0000000000000000,
1559013413.8536908626556396,1.0995500087738037,,0.0024484505168785,-0.0023551658784841,-0.0021318411734387,-0.0000093372306681,-0.0000323533067671,0.0000427675908121,0.9999999985185064,-0.0766345854599165,0.2422028372866903,0.0053852693199366,0.0030778645038345,-0.0019848180112897,-0.0022840227781506,-0.0004019008576711,0.0004285004319996,-0.0007439115855694,,0.0052727955121410,0.0028594060605301,-0.0016091656637851,0.0000741511501028,0.0004075664680992,-0.0000336539987448,0.9999999136292910,-0.0671068135670647,0.2926025797277269,-0.0034351616037410,0.0104847270995378,-0.0010913329897448,0.0042982785962522,0.0000560693915759,0.0001306207850575,-0.0007089182618074,,0.0000000000000000,0.0000000000000000,
1559013413.8870108127593994,1.1328699588775635,,0.0025646905755288,-0.0022801892798784,-0.0020398821253530,-0.0000120123648203,-0.0000380726506783,0.0000365855780112,0.9999999985338359,-0.0769441710370472,0.2415465196453090,0.0046777393092099,0.0039226318523611,-0.0017686962478604,-0.0040399807883719,0.0004004204015213,-0.0011682908268149,-0.0004811289967067,,0.0052727955121410,0.0028594060605301,-0.0016091656637851,0.0000741511501028,0.0004075664680992,-0.0000336539987448,0.9999999136292910,-0.0671068135670647,0.2926025797277269,-0.0034351616037410,0.0104847270995378,-0.0010913329897448,0.0042982785962522,0.0000560693915759,0.0001306207850575,-0.0007089182618074,,0.0000000000000000,0.0000000000000000,
1559013413.9203307628631592,1.1661899089813232,,0.0025646905755288,-0.0022801892798784,-0.0020398821253530,-0.0000120123648203,-0.0000380726506783,0.0000365855780112,0.9999999985338359,-0.0769441710370472,0.2415465196453090,0.0046777393092099,0.0039226318523611,-0.0017686962478604,-0.0040399807883719,0.0004004204015213,-0.0011682908268149,-0.0004811289967067,,0.0054303640759792,0.0028405871846140,-0.0015512931906976,0.0000727297327581,0.0004122941432348,-0.0000389757507913,0.9999999116024042,-0.0672725866643876,0.2931435651078277,-0.0040457387794924,0.0105438055470586,-0.0008907766314223,0.0042810388840735,0.0001138636871474,-0.0001375615538564,-0.0004429370164871,,0.0000000000000000,0.0000000000000000,
1559013413.9536507129669189,1.1995098590850830,,0.0027875476248598,-0.0024643768973035,-0.0022049442195698,-0.0000323163128215,-0.0000407538555829,0.0000393923015521,0.9999999978715129,-0.0792694739097482,0.2412397963010400,0.0049998723191914,0.0034238415388544,-0.0032526706416959,-0.0021535959411963,0.0011785914058299,0.0009557211006918,0.0008729765113033,,0.0042457708010142,0.0032688893773403,-0.0056604679087909,0.0000648888487885,0.0004357793942480,-0.0000388127972930,0.9999999021896570,-0.0681711214985140,0.2958347627029305,-0.0040308126094763,0.0040785656310618,0.0004996526986361,-0.0031115380115807,-0.0004219063557684,-0.0014084292342886,-0.0011841928353533,,0.0000000000000000,0.0000000000000000,
1559013413.9869606494903564,1.2328197956085205,,0.0029685536830766,-0.0026526088534929,-0.0023728511653757,-0.0000323745970535,-0.0000297845708431,0.0000530474630026,0.9999999976253657,-0.0792694411113239,0.2424988971601177,0.0065629528911291,0.0032225806516419,-0.0039002138301960,-0.0042876488762264,-0.0004122553086919,-0.0009142951944669,0.0008445383381572,,0.0016163225134831,0.0018428269025782,0.0076378858718637,0.0000685984619212,0.0004543867289951,-0.0000311516418720,0.9999998939282577,-0.0677419600665057,0.2979681196768502,-0.0031553800325751,-0.0052592363208532,-0.0075239953584969,0.0202106647193432,0.0005249262321740,0.0007250083726831,-0.0012422207510099,,0.0000000000000000,0.0000000000000000,
1559013414.0202808380126953,1.2661399841308594,,0.0029759987083533,-0.0030543439629677,-0.0015934462225738,-0.0000317988197595,-0.0000334627866408,0.0000524952629403,0.9999999975566621,-0.0792037513231831,0.2420773160993401,0.0065002422151046,0.0020380214505435,-0.0017427692771428,-0.0009035671308569,0.0001236031819486,0.0009593176039381,-0.0002024599349755,,0.0016163225134831,0.0018428269025782,0.0076378858718637,0.0000685984619212,0.0004543867289951,-0.0000311516418720,0.9999998939282577,-0.0677419600665057,0.2979681196768502,-0.0031553800325751,-0.0052592363208532,-0.0075239953584969,0.0202106647193432,0.0005249262321740,0.0007250083726831,-0.0012422207510099,,0.0000000000000000,0.0000000000000000,
1559013414.0536007881164551,1.2994599342346191,,0.0030880563964504,-0.0031393971597127,-0.0016912673352744,-0.0000303088509575,-0.0000320356203452,0.0000561764216594,0.9999999974496513,-0.0790312088687859,0.2422414172639235,0.0069218489852109,0.0042937361479272,-0.0026643225559971,-0.0047393165898346,0.0001254585674867,-0.0009085887794908,0.0003170675468408,,-0.0001918267742289,0.0014583252582462,-0.0051793105503548,0.0000672918954053,0.0004469704203664,-0.0000485581158316,0.9999998966656715,-0.0679011019789145,0.2971157712807340,-0.0051490438799222,-0.0097791878506541,-0.0069832173176110,-0.0047325701452792,0.0013753385283053,0.0003016986011062,-0.0014640276785940,,0.0000000000000000,0.0000000000000000,
1559013414.0869207382202148,1.3327798843383789,,0.0031934309077382,-0.0030996118219561,-0.0017822136989648,-0.0000268078995434,-0.0000305875479275,0.0000585377950604,0.9999999974595325,-0.0786288679540154,0.2424076955276681,0.0071922085223218,0.0040535613231880,-0.0021236558032849,-0.0027548270382841,-0.0001387186576776,-0.0001068903477689,-0.0002124886797480,,-0.0001918267742289,0.0014583252582462,-0.0051793105503548,0.0000672918954053,0.0004469704203664,-0.0000485581158316,0.9999998966656715,-0.0679011019789145,0.2971157712807340,-0.0051490438799222,-0.0097791878506541,-0.0069832173176110,-0.0047325701452792,0.0013753385283053,0.0003016986011062,-0.0014640276785940,,0.0000000000000000,0.0000000000000000,
1559013414.1202406883239746,1.3660998344421387,,0.0033124620948128,-0.0031818198574805,-0.0018573852044169,-0.0000329210354846,-0.0000355713232941,0.0000579509581175,0.9999999971462865,-0.0793296980405130,0.2418365476032718,0.0071257547227392,0.0038791117907461,-0.0019895047594957,-0.0029606293997730,-0.0006632276650422,-0.0009040152160102,-0.0007558070353455,,-0.0003862388438266,0.0013193463922199,-0.0052756966752279,0.0000762091679498,0.0004512275026457,-0.0000531757478453,0.9999998938791161,-0.0668817920699509,0.2976029888637595,-0.0056783421457382,-0.0093114748597145,-0.0073452508077025,-0.0049650780856609,0.0013335975818336,0.0000820299610496,-0.0005578060518019,,0.0000000000000000,0.0000000000000000,
1559013414.1535606384277344,1.3994197845458984,,0.0034926671683937,-0.0034692811898897,-0.0018776697817734,-0.0000333096063452,-0.0000280288936874,0.0000469497877874,0.9999999979502844,-0.0793795551550023,0.2426991436792520,0.0058639363141594,0.0033221873269258,-0.0030591669459469,-0.0020482837734461,-0.0004060156905184,0.0001584403066347,-0.0002131838412021,,0.0054194410451250,0.0039221283223847,-0.0059444888312575,0.0000707223501789,0.0004701856227759,-0.0000471678987493,0.9999998858495028,-0.0675073877342590,0.2997762539914523,-0.0049928816865142,0.0113711925223470,0.0025506995152682,-0.0051999506540596,-0.0004708282649517,0.0001321081072092,-0.0002189685619669,,0.0000000000000000,0.0000000000000000,
1559013414.1868808269500732,1.4327399730682373,,0.0035912555758195,-0.0035519555674696,-0.0019558744254583,-0.0000314171525102,-0.0000236127522853,0.0000444988834314,0.9999999982376249,-0.0791638738652183,0.2432048063368003,0.0055823917289503,0.0030975577270514,-0.0021732406749711,-0.0024428362831451,-0.0006691978750109,0.0006938310336005,-0.0007446067795050,,0.0017337937437958,0.0027914976925686,-0.0073980466569868,0.0000657147087486,0.0004684735527028,-0.0000318904734004,0.9999998875985463,-0.0680728783992629,0.2995822330364225,-0.0032422190918197,-0.0032952094916254,-0.0025957324542105,-0.0077453418634832,-0.0003198916092515,-0.0001808123633964,-0.0010700231650844,,0.0000000000000000,0.0000000000000000,
1559013414.2202007770538330,1.4660599231719971,,0.0036729205774575,-0.0033892175950620,-0.0020188077563382,-0.0000346512298553,-0.0000202191344153,0.0000508314884600,0.9999999979033194,-0.0795313568653809,0.2435946846006358,0.0063075430859327,0.0028673396737891,-0.0026482781330411,-0.0035972154151104,-0.0004055855164585,-0.0006423589962649,0.0000475132717535,,0.0016039150001529,0.0026808541271728,-0.0077449373068534,0.0000509286114285,0.0004870076570089,-0.0000417809085965,0.9999998792420798,-0.0697727422121326,0.3017045906296459,-0.0043790822358526,-0.0030165864154696,-0.0030540812294930,-0.0095399990677834,0.0000660082805553,-0.0000287355851469,0.0002058113022940,,0.0000000000000000,0.0000000000000000,
1559013414.2535207271575928,1.4993798732757568,,0.0037528826608446,-0.0034793699411112,-0.0020998177090311,-0.0000474861992053,-0.0000266016298002,0.0000555081243586,0.9999999969781311,-0.0809998829855522,0.2428641121652678,0.0068444793066082,0.0027422513836710,-0.0035040711060906,-0.0019438943981075,-0.0009478443990642,-0.0001173262451655,0.0008450147009498,,0.0016039150001529,0.0026808541271728,-0.0077449373068534,0.0000509286114285,0.0004870076570089,-0.0000417809085965,0.9999998792420798,-0.0697727422121326,0.3017045906296459,-0.0043790822358526,-0.0030165864154696,-0.0030540812294930,-0.0095399990677834,0.0000660082805553,-0.0000287355851469,0.0002058113022940,,0.0000000000000000,0.0000000000000000,
1559013414.2868406772613525,1.5326998233795166,,0.0038414583689119,-0.0035289315431092,-0.0020601563001563,-0.0000617087132326,-0.0000236399136239,0.0000609105275649,0.9999999959615485,-0.0826270035871930,0.2432044446209248,0.0074631288190272,0.0032627511849214,-0.0017924127084377,-0.0026880550219068,-0.0006774275642295,0.0001537108846203,0.0003168487902567,,0.0002987987401741,0.0013703470549558,-0.0050418977993937,0.0000542421005806,0.0004873639966526,-0.0000263471795140,0.9999998794199705,-0.0693845930889136,0.3017476779729769,-0.0026103510301210,-0.0070480327121913,-0.0073105720803142,-0.0040192874148488,-0.0008900916436687,-0.0017317757010460,-0.0002116747200489,,0.0000000000000000,0.0000000000000000,
1559013414.3201606273651123,1.5660197734832764,,0.0039564125379230,-0.0035697364789713,-0.0022156206280114,-0.0000715410431608,-0.0000295983144378,0.0000630941088585,0.9999999950124763,-0.0837526765134451,0.2425220793703739,0.0077143265830057,0.0030410711415734,-0.0016513070718996,-0.0053830227190875,-0.0006779924302142,-0.0003807807190613,0.0005794126109542,,0.0001515348646201,0.0012294817827928,-0.0051123345942179,0.0000495634790215,0.0004787440758719,-0.0000295359639095,0.9999998837375924,-0.0699224355375030,0.3007594300014954,-0.0029747703706644,-0.0074289659969509,-0.0072463871911168,-0.0031776153482497,0.0000637078628642,-0.0005068728933111,-0.0000599529594183,,0.0000000000000000,0.0000000000000000,
1559013414.3534808158874512,1.5993399620056152,,0.0040305179744120,-0.0035649865267575,-0.0023319117262144,-0.0000910635503862,-0.0000299627143088,0.0000644204407821,0.9999999933298362,-0.0859891453849563,0.2424806777642880,0.0078664391213321,0.0023247080698743,-0.0008237548910261,-0.0026378144930893,-0.0006691978823203,0.0006938310250566,-0.0007446067702986,,0.0034192999153591,0.0010579430106152,0.0064953994279523,0.0000345271351897,0.0005111463805106,-0.0000263829984575,0.9999998684205874,-0.0716438772364495,0.3044728703048402,-0.0026190585096938,0.0061334241181612,-0.0059950468130410,0.0181544125080109,-0.0012176220770925,0.0004556177300401,-0.0002580562722869,,0.0000000000000000,0.0000000000000000,
1559013414.3868007659912109,1.6326599121093750,,0.0041311888693847,-0.0036699992515029,-0.0024345396677525,-0.0000992321475442,-0.0000328259494740,0.0000641079605311,0.9999999924828037,-0.0869253692336638,0.2421525850821607,0.0078311244209425,0.0021566038032387,-0.0030269909898932,0.0000344984166659,-0.0004080057686446,0.0006910557243839,-0.0002094504069538,,0.0021652563266717,0.0029830315984504,-0.0017711143889034,0.0000129066003569,0.0005100100540465,-0.0000459568410642,0.9999998688055579,-0.0741321804956379,0.3043396591730880,-0.0048631812643290,-0.0012841224670410,-0.0001002111966955,0.0015639855992049,0.0004832490230910,0.0007252815994434,-0.0001657244720263,,0.0000000000000000,0.0000000000000000,
1559013414.4201207160949707,1.6659798622131348,,0.0041634345884825,-0.0036851822172693,-0.0022211341254360,-0.0000969973224195,-0.0000320212550617,0.0000597636349051,0.9999999929972333,-0.0866713925391126,0.2422440749878615,0.0073331584983061,0.0020016276969753,-0.0035752039010390,-0.0014530870439697,-0.0006789874700911,-0.0001144730035454,0.0005812793284090,,-0.0010190916370042,0.0029305503448535,-0.0129715628905499,0.0000147787733985,0.0005115638677940,-0.0000305568678146,0.9999998685751288,-0.0739091776481601,0.3045200255605026,-0.0030985740714162,-0.0116727147251368,-0.0011033358750865,-0.0203522164374590,-0.0005853964248672,0.0004621939733624,-0.0006874375976622,,0.0000000000000000,0.0000000000000000,
1559013414.4534406661987305,1.6992998123168945,,0.0042429815876335,-0.0038059465062482,-0.0023372746632657,-0.0001049266729408,-0.0000413944975622,0.0000739652965984,0.9999999909030119,-0.0875731693518917,0.2411723526562496,0.0089621199739518,0.0029611929536368,-0.0036964755178171,-0.0065568201128985,-0.0004108301036535,-0.0019814022844938,0.0011033687095770,,-0.0014186147277336,0.0028985353920135,-0.0137229153900472,-0.0000057996978002,0.0005104819711338,-0.0000229059692081,0.9999998694249101,-0.0762630878852232,0.3043971376825290,-0.0022228761208905,-0.0113122472539544,-0.0013487567193806,-0.0224984772503376,0.0019746769685298,0.0005661716568284,0.0000881503365235,,0.0000000000000000,0.0000000000000000,
1559013414.4867608547210693,1.7326200008392334,,0.0042901092930270,-0.0036494011535261,-0.0024969838327218,-0.0001037695736473,-0.0000504189375662,0.0000821054188876,0.9999999899742533,-0.0874366893174405,0.2401395459631495,0.0098963819644109,0.0023327893316740,-0.0034557897108916,-0.0041129568655324,0.0003872155405397,-0.0003768725022773,0.0005896600823344,,-0.0014186147277336,0.0028985353920135,-0.0137229153900472,-0.0000057996978002,0.0005104819711338,-0.0000229059692081,0.9999998694249101,-0.0762630878852232,0.3043971376825290,-0.0022228761208905,-0.0113122472539544,-0.0013487567193806,-0.0224984772503376,0.0019746769685298,0.0005661716568284,0.0000881503365235,,0.0000000000000000,0.0000000000000000,
1559013414.5200808048248291,1.7659399509429932,,0.0043955965867739,-0.0037625456382441,-0.0026027615613886,-0.0001008605490879,-0.0000536190051890,0.0000790829450802,0.9999999903490199,-0.0871048356459911,0.2397723265967087,0.0095505330193683,0.0039843995898464,-0.0031152407141370,-0.0016486629830190,0.0001291432169060,0.0001622705944160,-0.0004743573440360,,0.0021569559694145,0.0008463975722888,0.0017737355212673,0.0000397605860765,0.0004972441031336,-0.0000275520140034,0.9999998752041344,-0.0710447551230397,0.3028796325554119,-0.0027506743039883,0.0050291824154556,-0.0075368159450591,0.0100390929728746,0.0008411775343120,0.0002563290181570,-0.0013905941741541,,0.0000000000000000,0.0000000000000000,
1559013414.5534007549285889,1.7992599010467529,,0.0045327540015605,-0.0037505153249657,-0.0024464543122511,-0.0000976050569320,-0.0000384517830894,0.0000693591157608,0.9999999920920132,-0.0867363963444400,0.2415087529346763,0.0084337741685325,0.0047221960056827,-0.0042386224423276,-0.0001402893323358,-0.0004166656317923,0.0009517348736779,0.0005913080256034,,0.0021569559694145,0.0008463975722888,0.0017737355212673,0.0000397605860765,0.0004972441031336,-0.0000275520140034,0.9999998752041344,-0.0710447551230397,0.3028796325554119,-0.0027506743039883,0.0050291824154556,-0.0075368159450591,0.0100390929728746,0.0008411775343120,0.0002563290181570,-0.0013905941741541,,0.0000000000000000,0.0000000000000000,
1559013414.5867207050323486,1.8325798511505127,,0.0047099352081588,-0.0038664827075118,-0.0024693170382422,-0.0001082038549653,-0.0000203537823402,0.0000723710149884,0.9999999913200429,-0.0879493232944518,0.2435832056933781,0.0087760026489854,0.0055078734467146,-0.0038952075954669,-0.0022419529874689,-0.0004146755619127,0.0004191194558507,0.0005875745985915,,0.0050295467112770,0.0037456691426175,0.0026653708937446,0.0000378362631380,0.0005064495079158,-0.0000271930095341,0.9999998706689184,-0.0712651056492512,0.3039345400159836,-0.0027109965208810,0.0137063823640347,0.0019974603783339,0.0095194336026907,0.0005897801602259,0.0018424878362566,0.0002677952870727,,0.0000000000000000,0.0000000000000000,
1559013414.6200406551361084,1.8658998012542725,,0.0049376027092702,-0.0039354886071158,-0.0022181104073739,-0.0001067795889418,-0.0000109373812828,0.0000794535237379,0.9999999910828155,-0.0877825683634124,0.2446633896591143,0.0095860635876426,0.0045598319151918,-0.0044462505764769,-0.0032790600469569,-0.0001499334701367,0.0001519126222724,0.0008545670005105,,0.0052291259185608,0.0066394057520543,0.0041492087002540,0.0000389100275542,0.0005036717400379,-0.0000269764555915,0.9999998720365213,-0.0711419311843265,0.3036162666879023,-0.0026857110020908,0.0098902173340321,0.0114108640700579,0.0103509873151779,0.0004561709356494,0.0000499343514093,-0.0024497949052602,,0.0000000000000000,0.0000000000000000,
1559013414.6533608436584473,1.8992199897766113,,0.0050637500367849,-0.0040455948206110,-0.0023127608381655,-0.0001049158361974,-0.0000125743296499,0.0000823078961379,0.9999999910299820,-0.0875676120361362,0.2444762580001318,0.0099134179207462,0.0037316547091376,-0.0033134756388473,-0.0030590718803690,0.0001285783463769,-0.0003722210249362,-0.0002117935209061,,0.0052992022006456,0.0021277216428973,0.0025175264658012,0.0000476123484674,0.0005473681313105,-0.0000393663722158,0.9999998482857294,-0.0701517556464427,0.3086217226336049,-0.0041113765776248,0.0099888993427157,-0.0060158413834870,0.0076656071469188,-0.0002192421816289,-0.0002745102974586,-0.0012161586200818,,0.0000000000000000,0.0000000000000000,
1559013414.6866807937622070,1.9325399398803711,,0.0052138237728225,-0.0045446066082855,-0.0022260462356144,-0.0000979103734036,-0.0000184009537333,0.0000746072823428,0.9999999922543586,-0.0867686672912403,0.2438072607315162,0.0090319212021806,0.0042538727509519,-0.0043951852975518,-0.0026039795260390,0.0001209135317067,-0.0003778495727668,0.0005870982110073,,0.0048463070129249,-0.0018530932854782,-0.0043371194688543,0.0000496536779303,0.0005462905973898,-0.0000412375629876,0.9999998487002679,-0.0699188675543722,0.3084979834910337,-0.0043255173052810,0.0092678898945451,-0.0197609998285770,-0.0056686224415898,0.0003229734138586,0.0009426797041669,0.0000063279644564,,0.0000000000000000,0.0000000000000000,
1559013414.7200007438659668,1.9658598899841309,,0.0053791655476201,-0.0046676483926298,-0.0023027306644648,-0.0000997583602783,-0.0000136370871375,0.0000769382903283,0.9999999919713995,-0.0869792507160108,0.2443535537398898,0.0092982668012951,0.0052188963711577,-0.0044586173375083,-0.0021161941561414,-0.0004182255129422,0.0006835509541486,0.0008557385297137,,0.0048463070129249,-0.0018530932854782,-0.0043371194688543,0.0000496536779303,0.0005462905973898,-0.0000412375629876,0.9999998487002679,-0.0699188675543722,0.3084979834910337,-0.0043255173052810,0.0092678898945451,-0.0197609998285770,-0.0056686224415898,0.0003229734138586,0.0009426797041669,0.0000063279644564,,0.0000000000000000,0.0000000000000000,
1559013414.7533206939697266,1.9991798400878906,,0.0056094672663758,-0.0046280014884844,-0.0023629137900175,-0.0001067059066415,-0.0000086797736071,0.0000884578556778,0.9999999903568595,-0.0877696863123293,0.2449235620598023,0.0106175235969220,0.0061619768887612,-0.0046954082257388,-0.0034374362152133,-0.0009452894556888,-0.0001154501001385,0.0005787174215935,,0.0048463070129249,-0.0018530932854782,-0.0043371194688543,0.0000496536779303,0.0005462905973898,-0.0000412375629876,0.9999998487002679,-0.0699188675543722,0.3084979834910337,-0.0043255173052810,0.0092678898945451,-0.0197609998285770,-0.0056686224415898,0.0003229734138586,0.0009426797041669,0.0000063279644564,,0.0000000000000000,0.0000000000000000,
1559013414.7866406440734863,2.0324997901916504,,0.0057984422482977,-0.0047242711788813,-0.0024391363632624,-0.0000970869299458,0.0000015696415261,0.0000775711437200,0.9999999922771911,-0.0866726924810052,0.2460961938371133,0.0093683160432063,0.0051963283216973,-0.0021758052122006,-0.0020481770850041,0.0006684169954843,0.0004361609374340,-0.0012662586397515,,0.0050306412913612,-0.0022553857574116,-0.0044513011141840,0.0000528530867372,0.0005470135817998,-0.0000352669572085,0.9999998483694555,-0.0695489346579165,0.3085817133850298,-0.0036412316935952,0.0100358575582504,-0.0200687516480684,-0.0060759009793401,0.0004965229309164,0.0002437760995235,0.0009104041382670,,0.0000000000000000,0.0000000000000000,
1559013414.8199608325958252,2.0658199787139893,,0.0058932296335739,-0.0043851113447215,-0.0021632516950104,-0.0000784317781297,0.0000047672085487,0.0000652612706318,0.9999999947833483,-0.0845410044279129,0.2464604711811052,0.0079571885272898,0.0054808907769500,-0.0025965317672503,-0.0028623171254779,0.0009310343182310,-0.0006337213846647,-0.0004722718788423,,0.0052264772958771,-0.0026613178782102,-0.0045826045094389,0.0000475461241026,0.0005503896550055,-0.0000303206917289,0.9999998469456131,-0.0701543412170739,0.3089692817089975,-0.0030752484778133,0.0105025302618742,-0.0202286429703236,-0.0065599353983998,-0.0001585589197930,0.0001465858949814,-0.0005223532207310,,0.0000000000000000,0.0000000000000000,
1559013414.8532807826995850,2.0991399288177490,,0.0060780581173339,-0.0044929431078444,-0.0022351278568075,-0.0000742429534298,0.0000042053652243,0.0000676215171705,0.9999999949488146,-0.0840598423015418,0.2463964341453110,0.0082277471080812,0.0052306372872668,-0.0029980747864505,-0.0023496169494169,0.0001199184827097,-0.0001115418985183,0.0005889649333312,,0.0017678621869116,0.0015124191525959,-0.0011558191354735,0.0000500246131654,0.0005711314993747,-0.0000341708840095,0.9999998350693360,-0.0698725603466937,0.3113455691600101,-0.0035193152565481,-0.0028836037963629,-0.0044308807700872,0.0001653605722822,-0.0004792680847459,0.0003601763455663,-0.0004656376258936,,0.0000000000000000,0.0000000000000000,
1559013414.8865907192230225,2.1324498653411865,,0.0062046154694995,-0.0046310043442953,-0.0023475706184285,-0.0000781766092939,0.0000095773721496,0.0000779594571635,0.9999999938595073,-0.0845054722613099,0.2470137053375010,0.0094115358216370,0.0036651006732697,-0.0026008130869917,-0.0015479397587920,-0.0012094667192293,0.0006862483060090,0.0000491612363484,,0.0037245920093585,0.0014593189274381,0.0018194195298815,0.0000452053608667,0.0005873934933458,-0.0000412583801236,0.9999998256115376,-0.0704288468814915,0.3132080009324146,-0.0043341840155431,0.0031235220376402,-0.0038933986797929,0.0055238688364625,0.0007684917072766,-0.0006610307609662,0.0011769605334848,,0.0000000000000000,0.0000000000000000,
1559013414.9199106693267822,2.1657698154449463,,0.0063075991747539,-0.0047169637304020,-0.0024112833742025,-0.0000953418072359,0.0000101397502459,0.0000811768597764,0.9999999921087215,-0.0864708683374003,0.2470788236514323,0.0097801158925913,0.0041036403021216,-0.0024574408963538,-0.0022416782204997,-0.0014661138251181,0.0001582843837702,-0.0007560257880045,,0.0037245920093585,0.0014593189274381,0.0018194195298815,0.0000452053608667,0.0005873934933458,-0.0000412583801236,0.9999998256115376,-0.0704288468814915,0.3132080009324146,-0.0043341840155431,0.0031235220376402,-0.0038933986797929,0.0055238688364625,0.0007684917072766,-0.0006610307609662,0.0011769605334848,,0.0000000000000000,0.0000000000000000,
1559013414.9532308578491211,2.1990900039672852,,0.0064215329817785,-0.0048050961829697,-0.0022924814136975,-0.0000981620163667,0.0000091487401524,0.0000839910752074,0.9999999916130092,-0.0867926619554281,0.2469657454582541,0.0101027614669768,0.0041121127454936,-0.0038928636366975,-0.0016198234206229,0.0001214783871505,0.0001566419941212,0.0003245343934712,,0.0017062780141913,0.0027656684595040,0.0002331799804391,0.0000612674185654,0.0005514181504620,-0.0000028439440638,0.9999998460881075,-0.0685667471535469,0.3090911485785291,0.0000741147761850,-0.0036023485008627,0.0005956604145467,0.0011799458879977,-0.0012129178503528,-0.0015053579118103,-0.0001876538590295,,0.0000000000000000,0.0000000000000000,
1559013414.9865508079528809,2.2324099540710449,,0.0066381193213747,-0.0049525078954652,-0.0023814859090349,-0.0000959878394754,0.0000120869547522,0.0000812846791114,0.9999999920165207,-0.0865448282522467,0.2473019801125226,0.0097921547961411,0.0047585695355907,-0.0025759910165665,-0.0009819345388043,0.0001226081207554,0.0012256251762129,-0.0002005932575463,,0.0029704976370324,0.0010159144944673,-0.0068657866970963,0.0000582245274008,0.0005601235302483,0.0000018985634455,0.9999998414339528,-0.0689128105575490,0.3100893950405605,0.0006161232992979,0.0019557164050639,-0.0059154736809433,-0.0117896087467670,-0.0002207496145274,0.0013766620540991,-0.0006734695052728,,0.0000000000000000,0.0000000000000000,
1559013415.0198707580566406,2.2657299041748047,,0.0067265044062301,-0.0045628523599297,-0.0024527970339402,-0.0000922143677638,0.0000144448126986,0.0000875336791434,0.9999999918128564,-0.0861093160769159,0.2475731455010458,0.0105078675338807,0.0060445663259193,-0.0027154174157204,-0.0032862881930678,0.0006550774117249,-0.0001077116142437,0.0003277914173397,,0.0029221986643147,0.0009211528264380,-0.0058647508733388,0.0000569818828218,0.0005542338034713,0.0000084162661342,0.9999998447535492,-0.0690515848017236,0.3094154253685485,0.0013637793337315,0.0021712789312005,-0.0055115297436714,-0.0089211678132415,0.0002103293809341,-0.0018684096867219,-0.0012658763444051,,0.0000000000000000,0.0000000000000000,
1559013415.0531907081604004,2.2990498542785645,,0.0069258608825851,-0.0046978946463133,-0.0025534489563263,-0.0000974479859309,0.0000144777322953,0.0000958200477555,0.9999999905564020,-0.0867049549681297,0.2475783147309086,0.0114574092701676,0.0051722907987080,-0.0031395663042142,-0.0021353295496764,0.0001265882258016,0.0001603943497371,-0.0002080600781753,,0.0029221986643147,0.0009211528264380,-0.0058647508733388,0.0000569818828218,0.0005542338034713,0.0000084162661342,0.9999998447535492,-0.0690515848017236,0.3094154253685485,0.0013637793337315,0.0021712789312005,-0.0055115297436714,-0.0089211678132415,0.0002103293809341,-0.0018684096867219,-0.0012658763444051,,0.0000000000000000,0.0000000000000000,
1559013415.0865106582641602,2.3323698043823242,,0.0070820768425399,-0.0046989402284921,-0.0025665593284581,-0.0000931375207350,0.0000153652174630,0.0000834679922943,0.9999999920612033,-0.0862170998462380,0.2476779676065600,0.0100418198242151,0.0048738057253591,-0.0019476931858970,-0.0023952237201789,-0.0003963608763041,-0.0003685466315629,-0.0010158089645871,,0.0029519888838059,0.0008384119710609,-0.0059934795015772,0.0000581090590179,0.0005500910080263,-0.0000013667004831,0.9999998470106645,-0.0689278484126669,0.3089392815590514,0.0002433889468124,0.0020987750031054,-0.0055223274976015,-0.0086310729384422,-0.0007987834396772,0.0002558300329838,-0.0004012739227619,,0.0000000000000000,0.0000000000000000,
1559013415.1198308467864990,2.3656899929046631,,0.0072247596349495,-0.0047957465494052,-0.0026332431782322,-0.0001026097651319,0.0000150456585656,0.0000828804133652,0.9999999911878507,-0.0873028320102211,0.2476413437815139,0.0099745229106408,0.0048323767406148,-0.0020494162167840,-0.0022482822917101,-0.0001371588354384,0.0001612934808480,-0.0004769192065447,,0.0029878107440885,0.0007288817112278,-0.0061651333612094,0.0000439352569584,0.0005723284094916,-0.0000032104520452,0.9999998352497754,-0.0705530997770213,0.3114872255928340,0.0000279644039502,0.0016421368345618,-0.0055081960745156,-0.0084120603278279,0.0010094176977873,-0.0009097846341319,-0.0008456847863272,,0.0000000000000000,0.0000000000000000,
1559013415.1531507968902588,2.3990099430084229,,0.0074061529510554,-0.0046913446720659,-0.0027019362368478,-0.0001038560368153,0.0000204569052257,0.0000892340984800,0.9999999904163571,-0.0874424567878376,0.2482624737457503,0.0107017235415462,0.0047259013699093,-0.0021088477883304,-0.0028502958041407,0.0001240332823085,0.0001585181724262,0.0000582371489961,,0.0051925544355761,0.0023813793912971,-0.0010522355678721,0.0000469439347328,0.0005700122294068,-0.0000046649478309,0.9999998364302685,-0.0702091373472664,0.3112216003752460,-0.0001381758148190,0.0089325234293938,0.0004224320291542,0.0012637828476727,-0.0005778026534244,-0.0005969690391794,-0.0000826702453196,,0.0000000000000000,0.0000000000000000,
1559013415.1864707469940186,2.4323298931121826,,0.0075817659143254,-0.0047820673705723,-0.0028164908311528,-0.0001129984516267,0.0000125065975307,0.0000900712049212,0.9999999894810565,-0.0884897631824855,0.2473516672956668,0.0107989322167619,0.0046332025308740,-0.0006943484819646,-0.0025086066871401,0.0001362430888393,-0.0003665925096746,-0.0010106852460909,,0.0046368757536828,0.0024083626879825,-0.0023725760559474,0.0000458798311537,0.0005587346913442,0.0000202892320099,0.9999998426494540,-0.0703171895108751,0.3099329308591345,0.0027229777647251,0.0063844979740679,-0.0001243474544026,-0.0025399073492736,-0.0001940629445016,0.0010972442105412,0.0014111992204562,,0.0000000000000000,0.0000000000000000,
1559013415.2197906970977783,2.4656498432159424,,0.0076415688633726,-0.0047170731713288,-0.0027095925418589,-0.0001204756747376,0.0000121969956100,0.0000888320477642,0.9999999887228562,-0.0893472040569815,0.2473160624031189,0.0106569743129820,0.0042196787240659,-0.0030023196953757,-0.0007684344945474,-0.0001442588014711,0.0006901565341526,0.0000594087007977,,0.0046368757536828,0.0024083626879825,-0.0023725760559474,0.0000458798311537,0.0005587346913442,0.0000202892320099,0.9999998426494540,-0.0703171895108751,0.3099329308591345,0.0027229777647251,0.0063844979740679,-0.0001243474544026,-0.0025399073492736,-0.0001940629445016,0.0010972442105412,0.0014111992204562,,0.0000000000000000,0.0000000000000000,
1559013415.2531106472015381,2.4989697933197021,,0.0078163948114822,-0.0048136515799470,-0.0027747242005299,-0.0001156409434953,0.0000196715255545,0.0000899128958301,0.9999999890779372,-0.0887925798230503,0.2481727079739703,0.0107796099056169,0.0054153047856999,-0.0029699600531918,-0.0030120535557954,0.0001214783122849,0.0001566419882118,0.0003245343923249,,0.0036304880783306,0.0051519430538680,-0.0003610028637882,0.0000409396240160,0.0005788687692688,0.0000372948730190,0.9999998309219795,-0.0708737745339409,0.3122426262887678,0.0046684425669311,0.0018805343424901,0.0090315490961075,0.0019654412753880,-0.0017144266748801,0.0002639917656779,-0.0012922289315611,,0.0000000000000000,0.0000000000000000,
1559013415.2864308357238770,2.5322899818420410,,0.0080156805394787,-0.0047686572437135,-0.0027115086774905,-0.0001150021240179,0.0000181123682420,0.0000800608363402,0.9999999900183580,-0.0887242575061513,0.2479924169577146,0.0096508951893665,0.0066124849789915,-0.0013749214924461,-0.0047584831332130,-0.0003979208157915,-0.0006367305182446,-0.0007513784477086,,0.0024622045541892,0.0033692700341506,0.0010831382365003,0.0000311932746903,0.0005793344129262,0.0000361975982775,0.9999998310441615,-0.0719912381284506,0.3122958639970193,0.0045419871211058,-0.0010414639255032,0.0009290307061747,0.0048048202879727,0.0009482172317803,0.0003190914285369,-0.0010488524567336,,0.0000000000000000,0.0000000000000000,
1559013415.3197507858276367,2.5656099319458008,,0.0082132436137117,-0.0048635173329619,-0.0028170134408035,-0.0001128675830379,0.0000282406337177,0.0000831436184839,0.9999999897752572,-0.0884780451991183,0.2491535155706037,0.0100025021316756,0.0053899038442128,-0.0022551930020869,-0.0028835471359001,0.0003918951355798,0.0004276790988132,-0.0002036315123020,,0.0024622045541892,0.0033692700341506,0.0010831382365003,0.0000311932746903,0.0005793344129262,0.0000361975982775,0.9999998310441615,-0.0719912381284506,0.3122958639970193,0.0045419871211058,-0.0010414639255032,0.0009290307061747,0.0048048202879727,0.0009482172317803,0.0003190914285369,-0.0010488524567336,,0.0000000000000000,0.0000000000000000,
1559013415.3530707359313965,2.5989298820495605,,0.0082882427000945,-0.0049508380546669,-0.0025354476886130,-0.0000972756657270,0.0000263952824934,0.0000815797111009,0.9999999915927423,-0.0866921330588642,0.2489416519053409,0.0098236400876432,0.0049534655518607,-0.0021428563291729,-0.0019169617566205,0.0006581971297735,0.0004286561556119,-0.0002010696447035,,-0.0004187368762987,0.0000351582624904,-0.0101975856681350,0.0000339133369935,0.0005851228979050,0.0000428547801781,0.9999998273222590,-0.0716758011117047,0.3129601442598663,0.0053041828621122,-0.0091990232467651,-0.0111310230568051,-0.0174473952502012,-0.0002537416294217,0.0002517852990422,0.0007231563213281,,0.0000000000000000,0.0000000000000000,
1559013415.3863906860351562,2.6322498321533203,,0.0084613504864155,-0.0050410874970083,-0.0026554871825908,-0.0001007296861424,0.0000153754971254,0.0000849863875018,0.9999999911972192,-0.0870863484073025,0.2476794651036908,0.0102158014069327,0.0053716344061097,-0.0021003734552051,-0.0027789425740912,-0.0004070108448244,0.0004247478868608,-0.0002113171305128,,-0.0011975343005169,-0.0002381331457557,-0.0116585177331550,0.0000383786624462,0.0005816846829044,0.0000424769116023,0.9999998291828455,-0.0711643361308447,0.3125660771103843,0.0052616856179353,-0.0107396440580487,-0.0107621066272259,-0.0173117518424988,-0.0005886165308766,0.0007920654607005,-0.0003913546097465,,0.0000000000000000,0.0000000000000000,
1559013415.4197106361389160,2.6655697822570801,,0.0085187530251807,-0.0050223090776192,-0.0028610504314199,-0.0001068875282460,0.0000224355892594,0.0000831391017640,0.9999999905797953,-0.0877928347329197,0.2484882494683917,0.0100029521701348,0.0054052736704878,-0.0013460508404026,-0.0036425144461530,-0.0006682029625713,0.0004275231952826,-0.0007464734860536,,-0.0014185691403290,-0.0004501569395737,-0.0120030723032950,0.0000434684384757,0.0005856383472689,0.0000345169022151,0.9999998269733873,-0.0705855220237378,0.3130179456839972,0.0043492845201148,-0.0107360417023301,-0.0110346311703324,-0.0169592592865229,-0.0017026001587510,0.0004706384497695,-0.0002738574403338,,0.0000000000000000,0.0000000000000000,
1559013415.4530308246612549,2.6988899707794189,,0.0087344827617286,-0.0051088952997035,-0.0030016086045801,-0.0001063512727258,0.0000256487271220,0.0000789416528510,0.9999999908998826,-0.0877334328284895,0.2488557571124354,0.0095214326595217,0.0049250313407443,-0.0036707520990113,-0.0023727437305771,-0.0001483736764915,0.0004200964131882,0.0005901364612104,,0.0034025515714207,0.0019694676577049,0.0014925504697577,0.0000218994381274,0.0006415251941719,0.0000333035632454,0.9999997934283349,-0.0730576655340355,0.3194220055325690,0.0042004903961273,0.0078299734741449,-0.0012851294595748,0.0068843513727188,0.0005175640108064,-0.0001538863434689,-0.0014675890561193,,0.0000000000000000,0.0000000000000000,
1559013415.4863507747650146,2.7322099208831787,,0.0088125969495867,-0.0047633586751657,-0.0027083529222151,-0.0001061304785392,0.0000189457279731,0.0000769353469918,0.9999999912291668,-0.0877091786900948,0.2480873212340010,0.0092926199769118,0.0063337611871229,-0.0017121685101420,-0.0043370038903011,0.0003978653414008,-0.0011701671719840,-0.0002148317934099,,0.0034025515714207,0.0019694676577049,0.0014925504697577,0.0000218994381274,0.0006415251941719,0.0000333035632454,0.9999997934283349,-0.0730576655340355,0.3194220055325690,0.0042004903961273,0.0078299734741449,-0.0012851294595748,0.0068843513727188,0.0005175640108064,-0.0001538863434689,-0.0014675890561193,,0.0000000000000000,0.0000000000000000,
