#Time(sec),Dtime(sec),,x(m),y(m),z(m),qx,qy,qz,qw,roll_x_G(deg),pitch_y_G(deg),yaw_z_G(deg),vx(m/s),vy(m/s),vz(m/s),wx(rad/s),wy(rad/s),wz(rad/s),,gt_x(m),gt_y(m),gt_z(m),gt_qx,gt_qy,gt_qz,gt_qw,gt_groll_x_G(deg),gt_pitch_y_G(deg),gt_yaw_z_G(deg),gt_vx(m/s),gt_vy(m/s),gt_vz(m/s),gt_wx(rad/s),gt_wy(rad/s),gt_wz(rad/s),,Sr,Sr_avg,
1559013412.7541408538818359,0.0000000000000000,,0.0000000000000002,0.0000000000000001,-0.0000000000000001,0.0000000000000000,-0.0000000000000001,0.0000000000000000,1.0000000000000000,-0.0755855138669150,0.2459037397968158,0.0004794994091153,0.0000000000000000,0.0000000000000000,0.0000000000000000,0.0000000000000000,0.0000000000000000,0.0000000000000000,,0.0000000000000000,0.0000000000000000,0.0000000000000000,0.0000000000000000,0.0000000000000000,0.0000000000000000,1.0000000000000000,-0.0755855138669150,0.2459037397968215,0.0004794994091152,-0.0098102642223239,-0.0059528849087656,-0.0021041124127805,0.0008114594966173,-0.0000641869410174,-0.0007574954070151,,0.0000000000000000,0.0000000000000000,
1559013412.7874608039855957,0.0333199501037598,,0.0000219726581638,-0.0000260111889973,-0.0000459141663904,-0.0000208610050351,-0.0000137221306289,-0.0000034844792411,0.9999999996821901,-0.0779777081630646,0.2443307657790641,0.0000823114382821,0.0005549145090711,-0.0009140744155948,-0.0007645881653806,-0.0006713226546122,-0.0001088443910840,-0.0002176123651700,,0.0000000000000000,0.0000000000000000,0.0000000000000000,0.0000000000000000,0.0000000000000000,0.0000000000000000,1.0000000000000000,-0.0755855138669150,0.2459037397968215,0.0004794994091152,-0.0098102642223239,-0.0059528849087656,-0.0021041124127805,0.0008114594966173,-0.0000641869410174,-0.0007574954070151,,0.0000000000000000,0.0000000000000000,
1559013412.8207807540893555,0.0666399002075195,,0.0000608926743231,-0.0000640802948601,-0.0001140602429562,-0.0000373096937066,-0.0000189844924195,-0.0000087132854731,0.9999999990858274,-0.0798651435414091,0.2437269247291102,-0.0005160265755550,0.0011061855532015,-0.0033799717536283,-0.0017536299372295,-0.0014824384616985,0.0004133351236126,0.0008436244272202,,0.0026054364313848,0.0026394175940160,-0.0081269355738912,-0.0000310310364889,0.0001704901185218,-0.0000071265749704,0.9999999849597030,-0.0791451706312156,0.2654393478622390,-0.0003635336208244,0.0007849216344766,0.0008778728661127,-0.0175203494727612,-0.0012160835321993,0.0017614921089262,-0.0004441663622856,,0.0000000000000000,0.0000000000000000,
1559013412.8541007041931152,0.0999598503112793,,0.0001262903034411,-0.0001468154741993,-0.0002142065874932,-0.0000378024141703,-0.0000235806923088,-0.0000050935236011,0.9999999989944923,-0.0799198270708824,0.2432008019201591,-0.0001005132246582,0.0021184657892204,-0.0024107857097970,-0.0026184181863062,0.0001285783637746,-0.0003722209284548,-0.0002117934720251,,0.0026054364313848,0.0026394175940160,-0.0081269355738912,-0.0000310310364889,0.0001704901185218,-0.0000071265749704,0.9999999849597030,-0.0791451706312156,0.2654393478622390,-0.0003635336208244,0.0007849216344766,0.0008778728661127,-0.0175203494727612,-0.0012160835321993,0.0017614921089262,-0.0004441663622856,,0.0000000000000000,0.0000000000000000,
1559013412.8874206542968750,0.1332798004150391,,0.0001876071963411,-0.0002485065635448,-0.0002723575101359,-0.0000332340376668,-0.0000278667317498,-0.0000049033733097,0.9999999990474505,-0.0793962315090670,0.2427096905476230,-0.0000780715043153,0.0016332172232536,-0.0030002443095807,-0.0000183282768429,0.0009260591413560,0.0006978172556181,-0.0004629382745979,,0.0026245542083911,0.0026448552001494,-0.0084863851899029,-0.0000333937179824,0.0001718520074773,-0.0000101301488424,0.9999999846245635,-0.0794174526191618,0.2655949411350161,-0.0007079784706163,0.0011400097282603,-0.0002242026966996,-0.0186141021549702,-0.0007273238734342,-0.0001038627669914,-0.0002373664610786,,0.0000000000000000,0.0000000000000000,
1559013412.9207408428192139,0.1665999889373779,,0.0002510355284044,-0.0003552317527220,-0.0002739830334416,-0.0000129934686530,-0.0000142844809747,-0.0000089746469803,0.9999999997732896,-0.0770788454877928,0.2442654901962383,-0.0005467471256826,0.0015572095440772,-0.0016274100853720,0.0003069651755764,0.0011929260021615,0.0012332859105604,-0.0007229402316692,,0.0026245542083911,0.0026448552001494,-0.0084863851899029,-0.0000333937179824,0.0001718520074773,-0.0000101301488424,0.9999999846245635,-0.0794174526191618,0.2655949411350161,-0.0007079784706163,0.0011400097282603,-0.0002242026966996,-0.0186141021549702,-0.0007273238734342,-0.0001038627669914,-0.0002373664610786,,0.0000000000000000,0.0000000000000000,
1559013412.9540607929229736,0.1999199390411377,,0.0003049992330981,-0.0004089312959995,-0.0003164140705479,-0.0000144173017045,-0.0000098617901226,-0.0000141313640163,0.9999999997475956,-0.0772445424394733,0.2447715032002950,-0.0011383418386656,0.0011389741805766,-0.0019570558982999,-0.0014499054642399,-0.0004121206084769,0.0004209957160276,0.0003212774096721,,0.0013044971720459,0.0006642558835833,-0.0097306379038952,-0.0000438730574526,0.0002087906767953,-0.0000009822662857,0.9999999772403214,-0.0806136494002281,0.2698292134783979,0.0003343256994272,-0.0023964915890247,-0.0079505480825901,-0.0198433436453342,0.0003404117596801,-0.0015395777300000,-0.0001423610374331,,0.0000000000000000,0.0000000000000000,
1559013412.9873807430267334,0.2332398891448975,,0.0003431363790865,-0.0004716913804853,-0.0004165912864769,-0.0000362799963632,-0.0000178833168929,-0.0000100745123364,0.9999999991312265,-0.0797478174257171,0.2438528996089663,-0.0006721862495950,0.0008971832518353,-0.0020463925252434,-0.0023451758404527,-0.0009427345252527,-0.0001135738131031,0.0003124202551737,,0.0018767528659337,-0.0015868478416372,-0.0062711862608355,-0.0000291626588616,0.0002160709066437,-0.0000033503031968,0.9999999762258388,-0.0789291896576434,0.2706631018623400,0.0000621929295683,-0.0001832428679336,-0.0139995729550719,-0.0103720519691706,-0.0000324573375110,0.0006396181997843,0.0005033669876866,,0.0000000000000000,0.0000000000000000,
1559013413.0207006931304932,0.2665598392486572,,0.0003903418709308,-0.0005530731092706,-0.0004847153840386,-0.0000454537236579,-0.0000198192877273,-0.0000091906053814,0.9999999987283439,-0.0807986128321173,0.2436311815676687,-0.0005705755700852,0.0017486898863368,-0.0027608805572256,-0.0017974615562203,0.0003923254197449,-0.0003731200542663,0.0000570656395446,,0.0001864124072654,0.0012166738894161,0.0004830618136631,-0.0000185716344986,0.0002542559187380,0.0000077107003256,0.9999999674747831,-0.0777098268087173,0.2750404781751465,0.0013241122817303,-0.0062631070613861,-0.0018153276760131,0.0017081610858440,-0.0014693180564791,-0.0002084249572363,0.0000913238181965,,0.0000000000000000,0.0000000000000000,
1559013413.0540206432342529,0.2998797893524170,,0.0004233958652982,-0.0005971652029985,-0.0004863343154277,-0.0000408711663454,-0.0000194034262508,-0.0000116515541183,0.9999999989086481,-0.0802746960422552,0.2436784569755699,-0.0008526570444745,0.0017236868550324,-0.0031891335902573,-0.0011779337929042,0.0001260234255512,-0.0003740971110650,0.0000545037719461,,0.0001864124072654,0.0012166738894161,0.0004830618136631,-0.0000185716344986,0.0002542559187380,0.0000077107003256,0.9999999674747831,-0.0777098268087173,0.2750404781751465,0.0013241122817303,-0.0062631070613861,-0.0018153276760131,0.0017081610858440,-0.0014693180564791,-0.0002084249572363,0.0000913238181965,,0.0000000000000000,0.0000000000000000,
1559013413.0873408317565918,0.3331999778747559,,0.0004874464570219,-0.0007137334212905,-0.0005477035267648,-0.0000410329625801,-0.0000277651554796,-0.0000041843919298,0.9999999987639415,-0.0802895711788456,0.2427214380446705,0.0000043274327200,0.0027627970149998,-0.0047822063496128,-0.0033732972681428,0.0001177937450993,-0.0009142172566398,0.0011159593239241,,-0.0012296630497877,0.0025351477552150,0.0010995718084875,-0.0000417926695341,0.0002369557506546,0.0000081066828663,0.9999999710198130,-0.0803705614379537,0.2730581080783792,0.0013715104470487,-0.0104640517383814,0.0027693663723767,0.0022680787369609,-0.0004222550487611,-0.0009954593842849,-0.0014647236093879,,0.0000000000000000,0.0000000000000000,
1559013413.1206507682800293,0.3665099143981934,,0.0005401699875753,-0.0007933217729015,-0.0006785390617499,-0.0000364594733174,-0.0000241441669788,-0.0000028878899748,0.9999999990397130,-0.0797648580523497,0.2431365759688723,0.0001523197234091,0.0030962853295431,-0.0035560543480198,-0.0032201139819752,0.0003887754465459,-0.0001086885287104,0.0003252295885613,,0.0030802988584500,0.0012210024314830,-0.0004229099459523,-0.0000380366311522,0.0002537059910602,0.0000099031762481,0.9999999670442055,-0.0799392118169074,0.2749778185721677,0.0015748725432740,0.0080886157229543,-0.0046372590586543,0.0003316676011309,0.0006035095429979,0.0012304764240980,0.0005028592422605,,0.0000000000000000,0.0000000000000000,
1559013413.1539707183837891,0.3998298645019531,,0.0006396039371059,-0.0009024476974013,-0.0007715607028294,-0.0000255784789111,-0.0000199743374292,-0.0000037811456890,0.9999999994662351,-0.0785184294429101,0.2436142687105916,0.0000492866193321,0.0023325898678510,-0.0027196490566990,-0.0018241980420139,0.0003944501896316,0.0004295554450895,-0.0004699287258012,,0.0032453695944055,0.0011196545295340,-0.0004223351860165,-0.0000312984294318,0.0002538822486879,0.0000161588989184,0.9999999671515505,-0.0791638111367561,0.2749989768490645,0.0022919017707144,0.0086654815822840,-0.0050508026033640,-0.0003003584279213,0.0014034562045708,-0.0017996052047238,-0.0003075636050198,,0.0000000000000000,0.0000000000000000,
1559013413.1872906684875488,0.4331498146057129,,0.0007003773541077,-0.0009512075191444,-0.0006963199976310,-0.0000225859463935,-0.0000152394833755,-0.0000143861269605,0.9999999995253364,-0.0781807127425373,0.2441552131102318,-0.0011666995600671,0.0016603932646920,-0.0012193761683354,-0.0004776292339903,0.0004021150043018,0.0004351839929202,-0.0012688204577145,,0.0032453695944055,0.0011196545295340,-0.0004223351860165,-0.0000312984294318,0.0002538822486879,0.0000161588989184,0.9999999671515505,-0.0791638111367561,0.2749989768490645,0.0022919017707144,0.0086654815822840,-0.0050508026033640,-0.0003003584279213,0.0014034562045708,-0.0017996052047238,-0.0003075636050198,,0.0000000000000000,0.0000000000000000,
1559013413.2206108570098877,0.4664700031280518,,0.0007673519077722,-0.0010335121775503,-0.0007508254609577,-0.0000109918509954,-0.0000190810909571,-0.0000166614943621,0.9999999996187430,-0.0768532325981533,0.2437146699138208,-0.0014268742210821,0.0016147564022443,-0.0035636092528836,-0.0011554917558415,-0.0001483735517414,0.0004200965925740,0.0005901365119126,,-0.0003187015053108,0.0000959066590073,-0.0209231593457670,-0.0000160718343075,0.0002776230263452,0.0000108136414350,0.9999999612751075,-0.0774217422934056,0.2777186218234659,0.0016761845038021,-0.0058840299025178,-0.0058508231304586,-0.0372426919639111,0.0013397382572293,0.0005982400616631,-0.0003023762255907,,0.0000000000000000,0.0000000000000000,
1559013413.2539308071136475,0.4997899532318115,,0.0008861582995932,-0.0010124483297998,-0.0009986124954368,-0.0000056907915714,-0.0000201433597788,0.0000003203140070,0.9999999997808787,-0.0762374606871722,0.2435955314525245,0.0005192632450304,0.0028262541069930,-0.0023112462067998,-0.0031937517576037,0.0006566373430923,0.0001604724204237,0.0000633609171153,,0.0034269625326508,0.0011286720590091,-0.0090409392735334,-0.0000107213567495,0.0003332832900764,0.0000064883889218,0.9999999443825994,-0.0768108869699027,0.2840961473448347,0.0011722296041699,0.0091384267434478,-0.0020928373560309,-0.0114530222490430,0.0010196233633906,0.0007099295035005,-0.0002983235754073,,0.0000000000000000,0.0000000000000000,
1559013413.2872507572174072,0.5331099033355713,,0.0009873155953144,-0.0011238743197521,-0.0010992622891007,-0.0000014873531232,-0.0000206882500335,0.0000006711451728,0.9999999997846670,-0.0757556101222983,0.2435331446111715,0.0005595386258937,0.0028688210161831,-0.0035102083726155,-0.0022514982307788,0.0001275833278931,-0.0001059132113823,-0.0002099267586174,,0.0034269625326508,0.0011286720590091,-0.0090409392735334,-0.0000107213567495,0.0003332832900764,0.0000064883889218,0.9999999443825994,-0.0768108869699027,0.2840961473448347,0.0011722296041699,0.0091384267434478,-0.0020928373560309,-0.0114530222490430,0.0010196233633906,0.0007099295035005,-0.0002983235754073,,0.0000000000000000,0.0000000000000000,
1559013413.3205707073211670,0.5664298534393311,,0.0010930291920654,-0.0013351623855990,-0.0011331784794342,0.0000043911292347,-0.0000162698855995,0.0000009262152017,0.9999999998575756,-0.0750818632458026,0.2440394894026262,0.0005880880941357,0.0022988425362971,-0.0041145093648921,-0.0014046766936187,0.0006530873682222,0.0004249039525279,0.0003315248838232,,0.0038770528996077,0.0016472316239445,-0.0017817424349745,-0.0000074296579382,0.0003350296155490,0.0000100847786441,0.9999999437991255,-0.0764317786616396,0.2842968057608064,0.0015842104441551,0.0097196577116847,-0.0004313084064052,0.0031110367272049,0.0015891643706709,0.0003474377153907,-0.0016894822474569,,0.0000000000000000,0.0000000000000000,
1559013413.3538906574249268,0.5997498035430908,,0.0011772308236999,-0.0014756136104836,-0.0012084629132219,0.0000078451067264,-0.0000121849865335,0.0000079964923408,0.9999999998630185,-0.0746826014206897,0.2445086460111830,0.0013976685681054,0.0025530869161254,-0.0042724094222961,-0.0034948279196635,-0.0001479433827203,-0.0003807027018073,0.0008508336352672,,0.0040679258189634,0.0016302978887204,-0.0017103729637689,0.0000057362566524,0.0003389510514528,0.0000028056137798,0.9999999425357027,-0.0749269346787147,0.2847450587356998,0.0007499853509923,0.0094946585595608,-0.0007214926299639,0.0039329784922302,-0.0014333359431475,0.0007109196740203,-0.0008072421769612,,0.0000000000000000,0.0000000000000000,
1559013413.3872108459472656,0.6330699920654297,,0.0012578856509635,-0.0015760000879065,-0.0012311702840924,-0.0000012848069966,-0.0000167845517175,0.0000061735121807,0.9999999998392579,-0.0757297067189704,0.2439813076707633,0.0011894774230264,0.0025288970269634,-0.0040681655726545,-0.0043390649670471,-0.0001469483469145,-0.0006470104095739,0.0008489669256166,,0.0040371625405149,0.0010407715328566,-0.0011724512895224,0.0000182179897012,0.0003403120708404,-0.0000080441169780,0.9999999418955441,-0.0735023907927335,0.2848993990187070,-0.0004930345491329,0.0076945354230702,-0.0024773650802672,0.0028743059374392,0.0014570327475667,-0.0012100221356377,0.0000713423796697,,0.0000000000000000,0.0000000000000000,
1559013413.4205307960510254,0.6663899421691895,,0.0013411632767018,-0.0016683043814776,-0.0013572830055152,-0.0000100293579177,-0.0000277816897392,0.0000035117764060,0.9999999995576286,-0.0767330596342775,0.2427207303778409,0.0008861543499506,0.0031013651958796,-0.0020888928861202,-0.0042562025452469,0.0001356783128913,-0.0009010839720387,-0.0007481213889593,,0.0028244609372718,-0.0020864745447010,-0.0040981470072898,0.0000272535559166,0.0003338402301539,-0.0000050454464155,0.9999999438912424,-0.0724653892738492,0.2841582340357628,-0.0001480977271716,0.0034915832802653,-0.0125113883987069,-0.0027146551292390,0.0007540810620412,0.0003361692652106,-0.0002933166106232,,0.0000000000000000,0.0000000000000000,
1559013413.4538507461547852,0.6997098922729492,,0.0014469336993881,-0.0016479472009159,-0.0014641274580131,0.0000029350828692,-0.0000221950469154,-0.0000060278899364,0.9999999997312149,-0.0752521130909643,0.2433594677389132,-0.0002079037162532,0.0034257986097989,-0.0044945315076740,-0.0028528981527380,0.0001189234785512,0.0001547659459770,0.0005908316694989,,0.0028244609372718,-0.0020864745447010,-0.0040981470072898,0.0000272535559166,0.0003338402301539,-0.0000050454464155,0.9999999438912424,-0.0724653892738492,0.2841582340357628,-0.0001480977271716,0.0034915832802653,-0.0125113883987069,-0.0027146551292390,0.0007540810620412,0.0003361692652106,-0.0002933166106232,,0.0000000000000000,0.0000000000000000,
1559013413.4871706962585449,0.7330298423767090,,0.0015747578406071,-0.0017979990819848,-0.0015737709468904,0.0000037014638012,-0.0000214813675591,0.0000036578362541,0.9999999997557352,-0.0751595535722605,0.2434427099285513,0.0009018982661286,0.0038105964435224,-0.0053111514703473,-0.0035307681305153,0.0003785556938204,-0.0001161932437621,0.0013904185664099,,0.0009705727291415,0.0016289898501757,-0.0079331041607371,0.0000413433631328,0.0003589990839138,-0.0000095545487231,0.9999999346595452,-0.0708532497001342,0.2870405726501778,-0.0006679541082759,-0.0035913039464504,0.0022433528210968,-0.0086488155648112,-0.0000468759790238,-0.0001395221770508,-0.0007117160712369,,0.0000000000000000,0.0000000000000000,
1559013413.5204906463623047,0.7663497924804688,,0.0016774863550515,-0.0019661692742270,-0.0016736201521751,0.0000041204719384,-0.0000292266807562,0.0000198027784378,0.9999999993683364,-0.0751036508480983,0.2425575958417010,0.0027531535004293,0.0034958355944201,-0.0054812139672224,-0.0040078705740710,0.0006458527238199,-0.0003815238947302,0.0013911137243577,,0.0008416231557927,0.0017042349993819,-0.0082787919112038,0.0000540832522323,0.0003709936414145,-0.0000274513881228,0.9999999293425681,-0.0694029478739007,0.2884124663842267,-0.0027200200000634,-0.0031365249305964,0.0013117705238983,-0.0091546773910522,-0.0008535996312276,-0.0001344025076833,-0.0015033677918836,,0.0000000000000000,0.0000000000000000,
1559013413.5538108348846436,0.7996699810028076,,0.0017876007355166,-0.0021036943693454,-0.0017811179864905,0.0000116301171476,-0.0000291142272736,0.0000235300183277,0.9999999992317202,-0.0742412881358197,0.2425710233803745,0.0031802252164633,0.0025110354072772,-0.0033208553650201,-0.0015500878991641,0.0011872512612595,0.0006950419672077,0.0000722180657492,,0.0008416231557927,0.0017042349993819,-0.0082787919112038,0.0000540832522323,0.0003709936414145,-0.0000274513881228,0.9999999293425681,-0.0694029478739007,0.2884124663842267,-0.0027200200000634,-0.0031365249305964,0.0013117705238983,-0.0091546773910522,-0.0008535996312276,-0.0001344025076833,-0.0015033677918836,,0.0000000000000000,0.0000000000000000,
1559013413.5871307849884033,0.8329899311065674,,0.0018265600625564,-0.0020678799446699,-0.0017662638049374,0.0000124696350728,-0.0000297009146071,0.0000258542761190,0.9999999991469601,-0.0741439524900368,0.2425041397370934,0.0034466527398099,0.0029227458712169,-0.0032769573648681,-0.0024354826017260,0.0001240333560963,0.0001585183244797,0.0000582371760537,,0.0030406504889629,0.0022882742342330,-0.0062925504181727,0.0000611729674452,0.0003626874159403,-0.0000190422897520,0.9999999321765465,-0.0685860076404653,0.2874618788989146,-0.0017548979202029,0.0040563573129475,0.0002654088311829,-0.0037910772953182,0.0001189401809825,-0.0001427652314305,-0.0001788293011487,,0.0000000000000000,0.0000000000000000,
1559013413.6204507350921631,0.8663098812103271,,0.0019272890688884,-0.0021692747180948,-0.0018651297428833,0.0000123419588113,-0.0000333462864680,0.0000280066653950,0.9999999989756641,-0.0741575412425242,0.2420867339055134,0.0036938466395690,0.0032865828948042,-0.0040448624747483,-0.0030372356248223,-0.0004136805100263,0.0001528118324717,0.0005857079297932,,0.0036291435458029,0.0025966150466021,-0.0043469637549630,0.0000571760738891,0.0003901364780748,-0.0000200743580797,0.9999999220607196,-0.0690446522828446,0.2906071492304136,-0.0018773020674637,0.0051087369211018,0.0014169181231409,0.0000617773694103,-0.0004234086372890,-0.0003483407199383,-0.0010793746914715,,0.0000000000000000,0.0000000000000000,
1559013413.6537706851959229,0.8996298313140869,,0.0019919114161338,-0.0020382458510821,-0.0019754131032552,0.0000034832597621,-0.0000303452388135,0.0000314673835383,0.9999999990384186,-0.0751709755024995,0.2424311784900723,0.0040900003520371,0.0033252734714691,-0.0037894869726704,-0.0037883834992422,-0.0006764325301908,-0.0001125967494834,0.0003149821085729,,0.0036291435458029,0.0025966150466021,-0.0043469637549630,0.0000571760738891,0.0003901364780748,-0.0000200743580797,0.9999999220607196,-0.0690446522828446,0.2906071492304136,-0.0018773020674637,0.0051087369211018,0.0014169181231409,0.0000617773694103,-0.0004234086372890,-0.0003483407199383,-0.0010793746914715,,0.0000000000000000,0.0000000000000000,
1559013413.6870906352996826,0.9329497814178467,,0.0020876392811748,-0.0021565975404721,-0.0020697995898097,-0.0000086945378701,-0.0000273461192614,0.0000328821668004,0.9999999990476789,-0.0765657478709109,0.2427751111792076,0.0042517098925011,0.0038301428749061,-0.0048870946073646,-0.0046437022086669,-0.0004097003685502,-0.0009124189950907,0.0005782410998179,,0.0029954825554080,0.0032025419981495,0.0006789376870445,0.0000544467831987,0.0004025603575399,-0.0000166703444748,0.9999999173513996,-0.0693556131155782,0.2920313069036726,-0.0014891490537248,0.0025517339818180,0.0034124318044633,0.0093907183036208,0.0006610900745727,-0.0005176760023460,0.0005640679155476,,0.0000000000000000,0.0000000000000000,
1559013413.7204108238220215,0.9662699699401855,,0.0021524865216245,-0.0022137665117193,-0.0020819417845446,-0.0000038591253304,-0.0000285936877688,0.0000372400408644,0.9999999988903439,-0.0760095253607189,0.2426327928053706,0.0047512634975988,0.0035959903306692,-0.0046892085111024,-0.0027933631125809,0.0001189234766141,0.0001547659495733,0.0005908316736176,,0.0029954825554080,0.0032025419981495,0.0006789376870445,0.0000544467831987,0.0004025603575399,-0.0000166703444748,0.9999999173513996,-0.0693556131155782,0.2920313069036726,-0.0014891490537248,0.0025517339818180,0.0034124318044633,0.0093907183036208,0.0006610900745727,-0.0005176760023460,0.0005640679155476,,0.0000000000000000,0.0000000000000000,
1559013413.7537307739257812,0.9995899200439453,,0.0022962953234575,-0.0023690048253928,-0.0022066194436584,-0.0000000782745770,-0.0000267801697272,0.0000437603510785,0.9999999986839241,-0.0755730784295516,0.2428415758145540,0.0054981556006102,0.0038138483401689,-0.0028626714166058,-0.0040550108102105,-0.0001377236309877,-0.0003731979829891,-0.0002143553494921,,0.0028101152626748,0.0052019941020636,-0.0048105322396683,0.0000750037757571,0.0003923122821965,-0.0000290625935845,0.9999999198104331,-0.0670065753418996,0.2908552381115760,-0.0029068036838306,0.0013300126884133,0.0088829789310694,-0.0010889591649175,0.0003680692461785,0.0011983106378466,-0.0010839644819498,,0.0000000000000000,0.0000000000000000,
1559013413.7870507240295410,1.0329098701477051,,0.0023115038577035,-0.0022686776241133,-0.0021389034432324,-0.0000041900778262,-0.0000285711442054,0.0000462683001993,0.9999999985126887,-0.0760430388934356,0.2426367462947734,0.0057858318463807,0.0037632768375984,-0.0038745270543379,-0.0039353774324236,-0.0004126854756574,-0.0001134958798517,0.0005838412244734,,0.0028483643782737,0.0054159764026453,-0.0048358352553247,0.0000756474026680,0.0004063720092715,-0.0000323465478623,0.9999999140464770,-0.0669346459473181,0.2924658971404100,-0.0032850968095539,0.0015071481466293,0.0085062691941857,-0.0014686621725559,-0.0004123515100218,-0.0004598114755936,-0.0001185764558613,,0.0000000000000000,0.0000000000000000,
1559013413.8203706741333008,1.0662298202514648,,0.0023115038577035,-0.0022686776241133,-0.0021389034432324,-0.0000041900778262,-0.0000285711442054,0.0000462683001993,0.9999999985126887,-0.0760430388934356,0.2426367462947734,0.0057858318463807,0.0037632768375984,-0.0038745270543379,-0.0039353774324236,-0.0004126854756574,-0.0001134958798517,0.0005838412244734,,0.0052727955121410,0.0028594060605301,-0.0016091656637851,0.0000741511501028,0.0004075664680992,-0.0000336539987448,0.9999999136292910,-0.0671068135670647,0.2926025797277269,-0.0034351616037410,0.0104847270995378,-0.0010913329897448,0.0042982785962522,0.0000560693915759,0.0001306207850575,-0.0007089182618074,,0.0000000000000000,0.0000000000000000,
1559013413.8536908626556396,1.0995500087738037,,0.0025472233613548,-0.0024285314398892,-0.0023878655008370,-0.0000120097002486,-0.0000380687001216,0.0000365866677779,0.9999999985339785,-0.0769438651544344,0.2415469725003788,0.0046778635741545,0.0039065270861473,-0.0019056951470805,-0.0043612121665833,0.0004004204017214,-0.0011682908166486,-0.0004811289928779,,0.0052727955121410,0.0028594060605301,-0.0016091656637851,0.0000741511501028,0.0004075664680992,-0.0000336539987448,0.9999999136292910,-0.0671068135670647,0.2926025797277269,-0.0034351616037410,0.0104847270995378,-0.0010913329897448,0.0042982785962522,0.0000560693915759,0.0001306207850575,-0.0007089182618074,,0.0000000000000000,0.0000000000000000,
1559013413.8870108127593994,1.1328699588775635,,0.0027138941722071,-0.0025626580850251,-0.0025293694713624,-0.0000318490531136,-0.0000445748948543,0.0000336019365745,0.9999999979348133,-0.0792187629082777,0.2408010394803055,0.0043369293700365,0.0039217147062036,-0.0041841952159272,-0.0035448900510908,-0.0004152404151999,-0.0001153720690290,0.0008501384627841,,0.0054303640759792,0.0028405871846140,-0.0015512931906976,0.0000727297327581,0.0004122941432348,-0.0000389757507913,0.9999999116024042,-0.0672725866643876,0.2931435651078277,-0.0040457387794924,0.0105438055470586,-0.0008907766314223,0.0042810388840735,0.0001138636871474,-0.0001375615538564,-0.0004429370164871,,0.0000000000000000,0.0000000000000000,
1559013413.9203307628631592,1.1661899089813232,,0.0027898229484593,-0.0023247791235561,-0.0026984875324690,-0.0000338204737897,-0.0000304918475326,0.0000440329272812,0.9999999979937622,-0.0794395322696434,0.2424164608485072,0.0055300694354703,0.0035124517511159,-0.0033037565721051,-0.0036770079352493,-0.0004121206103646,0.0004209957117248,0.0003212773941433,,0.0043269385350620,0.0032741275746024,-0.0057173336730420,0.0000647311065614,0.0004299136919285,-0.0000420221856254,0.9999999046091141,-0.0681909035320695,0.2951621409885246,-0.0043977503682648,0.0041428655385971,0.0002189285587519,-0.0031613521277905,0.0001088255085051,-0.0000254303213296,-0.0008147493936121,,0.0000000000000000,0.0000000000000000,
1559013413.9536507129669189,1.1995098590850830,,0.0029019496738056,-0.0024367231570786,-0.0028340269496741,-0.0000323793451795,-0.0000297705457895,0.0000530565088355,0.9999999976251497,-0.0792699807122253,0.2425005057408615,0.0065639873202224,0.0031670698953285,-0.0037199928891733,-0.0046723839246721,-0.0004122553112227,-0.0009142951811406,0.0008445383443417,,0.0016163225134831,0.0018428269025782,0.0076378858718637,0.0000685984619212,0.0004543867289951,-0.0000311516418720,0.9999998939282577,-0.0677419600665057,0.2979681196768502,-0.0031553800325751,-0.0052592363208532,-0.0075239953584969,0.0202106647193432,0.0005249262321740,0.0007250083726831,-0.0012422207510099,,0.0000000000000000,0.0000000000000000,
1559013413.9869606494903564,1.2328197956085205,,0.0029524997832597,-0.0027055461558551,-0.0026589690102284,-0.0000318102704446,-0.0000334073267005,0.0000525242567696,0.9999999975566299,-0.0792050490285673,0.2420836758907209,0.0065035561503100,0.0020188756069167,-0.0014586590171318,-0.0017708434024975,0.0001236031794178,0.0009593176172644,-0.0002024599287910,,0.0016163225134831,0.0018428269025782,0.0076378858718637,0.0000685984619212,0.0004543867289951,-0.0000311516418720,0.9999998939282577,-0.0677419600665057,0.2979681196768502,-0.0031553800325751,-0.0052592363208532,-0.0075239953584969,0.0202106647193432,0.0005249262321740,0.0007250083726831,-0.0012422207510099,,0.0000000000000000,0.0000000000000000,
1559013414.0202808380126953,1.2661399841308594,,0.0030638863228105,-0.0027806175726308,-0.0027872669546104,-0.0000303203016188,-0.0000319801592453,0.0000562054158808,0.9999999974494500,-0.0790325065430740,0.2422477771880304,0.0069251629730084,0.0042746322018668,-0.0023802067365797,-0.0056065949998555,0.0001254585595777,-0.0009085887183528,0.0003170675747943,,-0.0001918267742289,0.0014583252582462,-0.0051793105503548,0.0000672918954053,0.0004469704203664,-0.0000485581158316,0.9999998966656715,-0.0679011019789145,0.2971157712807340,-0.0051490438799222,-0.0097791878506541,-0.0069832173176110,-0.0047325701452792,0.0013753385283053,0.0003016986011062,-0.0014640276785940,,0.0000000000000000,0.0000000000000000,
1559013414.0536007881164551,1.2994599342346191,,0.0031733655050512,-0.0027331394441600,-0.0028650346683941,-0.0000268189719062,-0.0000305329362238,0.0000585666262315,0.9999999974592165,-0.0786301223433588,0.2424139580819778,0.0071955039759562,0.0040381859591957,-0.0018413037455670,-0.0035885101790447,-0.0001387186655866,-0.0001068902866310,-0.0002124886517944,,-0.0001918267742289,0.0014583252582462,-0.0051793105503548,0.0000672918954053,0.0004469704203664,-0.0000485581158316,0.9999998966656715,-0.0679011019789145,0.2971157712807340,-0.0051490438799222,-0.0097791878506541,-0.0069832173176110,-0.0047325701452792,0.0013753385283053,0.0003016986011062,-0.0014640276785940,,0.0000000000000000,0.0000000000000000,
1559013414.0869207382202148,1.3327798843383789,,0.0032919344431162,-0.0028068415337029,-0.0029653254829470,-0.0000329321078505,-0.0000355167108721,0.0000579797900943,0.9999999971461918,-0.0793309524500100,0.2418428102594398,0.0071290502364622,0.0038637593342655,-0.0017071358663258,-0.0037943099821226,-0.0006632276726563,-0.0009040151562078,-0.0007558070076813,,-0.0003862388438266,0.0013193463922199,-0.0052756966752279,0.0000762091679498,0.0004512275026457,-0.0000531757478453,0.9999998938791161,-0.0668817920699509,0.2976029888637595,-0.0056783421457382,-0.0093114748597145,-0.0073452508077025,-0.0049650780856609,0.0013335975818336,0.0000820299610496,-0.0005578060518019,,0.0000000000000000,0.0000000000000000,
1559013414.1202406883239746,1.3660998344421387,,0.0034784218090864,-0.0031103934816741,-0.0029831001134877,-0.0000333200835510,-0.0000279748132847,0.0000469779941021,0.9999999979501250,-0.0793807417166063,0.2427053452580276,0.0058671601998854,0.0033118854261196,-0.0027958662949885,-0.0028586489226571,-0.0004060156981325,0.0001584403664371,-0.0002131838135379,,0.0054194410451250,0.0039221283223847,-0.0059444888312575,0.0000707223501789,0.0004701856227759,-0.0000471678987493,0.9999998858495028,-0.0675073877342590,0.2997762539914523,-0.0049928816865142,0.0113711925223470,0.0025506995152682,-0.0051999506540596,-0.0004708282649517,0.0001321081072092,-0.0002189685619669,,0.0000000000000000,0.0000000000000000,
1559013414.1535606384277344,1.3994197845458984,,0.0035767010116576,-0.0031851388281204,-0.0030857134406644,-0.0000314276300817,-0.0000235586709685,0.0000445270900031,0.9999999982373158,-0.0791650604695923,0.2432110080113735,0.0055856156504142,0.0030872929368470,-0.0019099368571276,-0.0032532035032283,-0.0006691978822234,0.0006938310924611,-0.0007446067525724,,0.0017337937437958,0.0027914976925686,-0.0073980466569868,0.0000657147087486,0.0004684735527028,-0.0000318904734004,0.9999998875985463,-0.0680728783992629,0.2995822330364225,-0.0032422190918197,-0.0032952094916254,-0.0025957324542105,-0.0077453418634832,-0.0003198916092515,-0.0001808123633964,-0.0010700231650844,,0.0000000000000000,0.0000000000000000,
1559013414.1868808269500732,1.4327399730682373,,0.0036605327001924,-0.0030013372539610,-0.0031436651580010,-0.0000346614608076,-0.0000201656074107,0.0000508600024129,0.9999999979025959,-0.0795325150115535,0.2436008228198527,0.0063108022926687,0.0028588982582648,-0.0023767044910001,-0.0043841711914801,-0.0004055855236710,-0.0006423589374043,0.0000475132986862,,0.0016039150001529,0.0026808541271728,-0.0077449373068534,0.0000509286114285,0.0004870076570089,-0.0000417809085965,0.9999998792420798,-0.0697727422121326,0.3017045906296459,-0.0043790822358526,-0.0030165864154696,-0.0030540812294930,-0.0095399990677834,0.0000660082805553,-0.0000287355851469,0.0002058113022940,,0.0000000000000000,0.0000000000000000,
1559013414.2202007770538330,1.4660599231719971,,0.0037402412816128,-0.0030833167770409,-0.0032483631613309,-0.0000474964298305,-0.0000265481022426,0.0000555366394719,0.9999999969774845,-0.0810010410859950,0.2428702504952328,0.0068477385749752,0.0027338333698688,-0.0032324710557147,-0.0027308440140165,-0.0009478444060544,-0.0001173261872889,0.0008450147280627,,0.0016039150001529,0.0026808541271728,-0.0077449373068534,0.0000509286114285,0.0004870076570089,-0.0000417809085965,0.9999998792420798,-0.0697727422121326,0.3017045906296459,-0.0043790822358526,-0.0030165864154696,-0.0030540812294930,-0.0095399990677834,0.0000660082805553,-0.0000287355851469,0.0002058113022940,,0.0000000000000000,0.0000000000000000,
1559013414.2535207271575928,1.4993798732757568,,0.0038337757002154,-0.0031353392043589,-0.0031940455496113,-0.0000617183176995,-0.0000235870170684,0.0000609387845872,0.9999999959604833,-0.0826280900229762,0.2432105106507797,0.0074663585198196,0.0032578797978645,-0.0015279414035687,-0.0034492388040836,-0.0006774275712197,0.0001537109424969,0.0003168488173697,,0.0002987987401741,0.0013703470549558,-0.0050418977993937,0.0000542421005806,0.0004873639966526,-0.0000263471795140,0.9999998794199705,-0.0693845930889136,0.3017476779729769,-0.0026103510301210,-0.0070480327121913,-0.0073105720803142,-0.0040192874148488,-0.0008900916436687,-0.0017317757010460,-0.0002116747200489,,0.0000000000000000,0.0000000000000000,
1559013414.2868406772613525,1.5326998233795166,,0.0039485594304105,-0.0031668538099364,-0.0033762590879053,-0.0000715506474585,-0.0000295454171415,0.0000631223669267,0.9999999950115700,-0.0837537629354859,0.2425281455193836,0.0077175563503869,0.0030362275072817,-0.0013868140770631,-0.0061442022293534,-0.0006779924367377,-0.0003807806623045,0.0005794126376270,,0.0001515348646201,0.0012294817827928,-0.0051123345942179,0.0000495634790215,0.0004787440758719,-0.0000295359639095,0.9999998837375924,-0.0699224355375030,0.3007594300014954,-0.0029747703706644,-0.0074289659969509,-0.0072463871911168,-0.0031776153482497,0.0000637078628642,-0.0005068728933111,-0.0000599529594183,,0.0000000000000000,0.0000000000000000,
1559013414.3201606273651123,1.5660197734832764,,0.0040277937831823,-0.0031620728062654,-0.0034742181418171,-0.0000910724884291,-0.0000299102936005,0.0000644484494016,0.9999999933287870,-0.0859901555784720,0.2424866893196443,0.0078696402605181,0.0023233027281206,-0.0005643438590355,-0.0033724440436377,-0.0006691978888438,0.0006938310818133,-0.0007446067436259,,0.0034192999153591,0.0010579430106152,0.0064953994279523,0.0000345271351897,0.0005111463805106,-0.0000263829984575,0.9999998684205874,-0.0716438772364495,0.3044728703048402,-0.0026190585096938,0.0061334241181612,-0.0059950468130410,0.0181544125080109,-0.0012176220770925,0.0004556177300401,-0.0002580562722869,,0.0000000000000000,0.0000000000000000,
1559013414.3534808158874512,1.5993399620056152,,0.0041284094684562,-0.0032566727720862,-0.0036063508669637,-0.0000992410856439,-0.0000327735278802,0.0000641359701307,0.9999999924818401,-0.0869263794444152,0.2421585967649904,0.0078343256260287,0.0021552345079525,-0.0027675608499749,-0.0007001278892432,-0.0004080057746456,0.0006910557800176,-0.0002094503807381,,0.0021895927776940,0.0029798482027788,-0.0017919951850399,0.0000030791525065,0.0005051542388313,-0.0000423319240284,0.9999998715088527,-0.0752563039453160,0.3037837185136449,-0.0044476326101652,-0.0012074953410774,0.0004014892037958,0.0003388677432667,0.0008526051533408,0.0004610072937794,-0.0004364303313196,,0.0000000000000000,0.0000000000000000,
1559013414.3868007659912109,1.6326599121093750,,0.0041672319861936,-0.0032738050201314,-0.0033519741584044,-0.0000970053114249,-0.0000319697946809,0.0000597912753401,0.9999999929964527,-0.0866722942013267,0.2422499764460251,0.0073363175647911,0.0020043728296920,-0.0033225806890250,-0.0021467401022385,-0.0006789874760922,-0.0001144729479118,0.0005812793546247,,0.0021652563266717,0.0029830315984504,-0.0017711143889034,0.0000129066003569,0.0005100100540465,-0.0000459568410642,0.9999998688055579,-0.0741321804956379,0.3043396591730880,-0.0048631812643290,-0.0012841224670410,-0.0001002111966955,0.0015639855992049,0.0004832490230910,0.0007252815994434,-0.0001657244720263,,0.0000000000000000,0.0000000000000000,
1559013414.4201207160949707,1.6659798622131348,,0.0042468765237105,-0.0033856992660921,-0.0034924844789851,-0.0001049346610488,-0.0000413430363414,0.0000739929379648,0.9999999909022578,-0.0875740708566312,0.2411782542484894,0.0089652791092473,0.0029639669791584,-0.0034438358527941,-0.0072504699439957,-0.0004108301089192,-0.0019814022306741,0.0011033687351149,,-0.0012483852178724,0.0029130126356645,-0.0133931447355384,0.0000071086377619,0.0005056201075181,-0.0000284163205645,0.9999998717451352,-0.0747869104155516,0.3038392157692573,-0.0028528379095790,-0.0112782604992390,-0.0011266766814515,-0.0219192188233137,-0.0009281082893722,-0.0018408100586385,0.0009666547412053,,0.0000000000000000,0.0000000000000000,
1559013414.4534406661987305,1.6992998123168945,,0.0042977399722819,-0.0032212344198778,-0.0036377481241281,-0.0001037765888502,-0.0000503677127908,0.0000821330731791,0.9999999899738359,-0.0874374793115727,0.2401454204573037,0.0098995426289915,0.0023377582077730,-0.0032029850593816,-0.0047857562916224,0.0003872155352740,-0.0003768724484576,0.0005896601078723,,-0.0012483852178724,0.0029130126356645,-0.0133931447355384,0.0000071086377619,0.0005056201075181,-0.0000284163205645,0.9999998717451352,-0.0747869104155516,0.3038392157692573,-0.0028528379095790,-0.0112782604992390,-0.0011266766814515,-0.0219192188233137,-0.0009281082893722,-0.0018408100586385,0.0009666547412053,,0.0000000000000000,0.0000000000000000,
1559013414.4867608547210693,1.7326200008392334,,0.0044034033984854,-0.0033255001288364,-0.0037671698954808,-0.0001008675644363,-0.0000535677794250,0.0000791105996881,0.9999999903488702,-0.0871056256844053,0.2397782011926630,0.0095536937394774,0.0039893972200283,-0.0028624351198393,-0.0023214645223638,0.0001291432124088,0.0001622706473085,-0.0004743573188169,,-0.0014186147277336,0.0028985353920135,-0.0137229153900472,-0.0000057996978002,0.0005104819711338,-0.0000229059692081,0.9999998694249101,-0.0762630878852232,0.3043971376825290,-0.0022228761208905,-0.0113122472539544,-0.0013487567193806,-0.0224984772503376,0.0019746769685298,0.0005661716568284,0.0000881503365235,,0.0000000000000000,0.0000000000000000,
1559013414.5200808048248291,1.7659399509429932,,0.0045475691656078,-0.0033187167721623,-0.0035821034056823,-0.0000976107950620,-0.0000384010772337,0.0000693866418550,0.9999999920914919,-0.0867370401001714,0.2415145679046945,0.0084369202475828,0.0047311500746797,-0.0039931486732913,-0.0007852424621396,-0.0004166656362895,0.0009517349265704,0.0005913080508225,,-0.0001511772105664,0.0030155273596015,-0.0048614124194785,0.0000030721911607,0.0005041404853026,-0.0000069560272466,0.9999998728922651,-0.0752376542126348,0.3036728872561671,-0.0003936479922015,-0.0054319784976542,-0.0006416497053578,-0.0048294910229743,0.0002559425192885,-0.0015522266039625,-0.0019227124284953,,0.0000000000000000,0.0000000000000000,
1559013414.5534007549285889,1.7992599010467529,,0.0047250661684231,-0.0034260625000175,-0.0036276314932884,-0.0001082095935018,-0.0000203030758522,0.0000723985419508,0.9999999913184601,-0.0879499670223445,0.2435890207712224,0.0087791487545574,0.0055168865976728,-0.0036497163102117,-0.0028869010680970,-0.0004146755653931,0.0004191195074579,0.0005875746233460,,0.0019871844674433,0.0011427158324406,0.0014052757964757,0.0000145126597581,0.0004981842610422,-0.0000104171448080,0.9999998757466462,-0.0739285600851628,0.3029898472145832,-0.0007887165253009,0.0037218257784843,-0.0071086878888309,0.0082138963043690,0.0013264474691823,-0.0008638858562335,-0.0011839268263429,,0.0000000000000000,0.0000000000000000,
1559013414.5867207050323486,1.8325798511505127,,0.0049599231428068,-0.0034947317792020,-0.0033405366874152,-0.0001067844662785,-0.0000108873228759,0.0000794809070562,0.9999999910806647,-0.0877831134102386,0.2446691304410813,0.0095891933401649,0.0045726588135638,-0.0042053058054095,-0.0038920242841635,-0.0001499334736170,0.0001519126738797,0.0008545670252650,,0.0047568128774480,0.0037095875125719,0.0024648328165501,0.0000356404946868,0.0005075731344468,-0.0000260096516513,0.9999998702113747,-0.0715160763899768,0.3040634651266995,-0.0025756846490801,0.0136421741917729,0.0022794245742261,0.0105858491733670,0.0010575925698504,0.0012645954266191,-0.0008035744540393,,0.0000000000000000,0.0000000000000000,
1559013414.6200406551361084,1.8658998012542725,,0.0050864564971904,-0.0035975845946977,-0.0034536510945019,-0.0001049207133884,-0.0000125242704208,0.0000823352797379,0.9999999910278442,-0.0875681570547746,0.2444819988720461,0.0099165477171181,0.0037445099766008,-0.0030725304162841,-0.0036720373614064,0.0001285783435959,-0.0003722209746385,-0.0002117934965331,,0.0052291259185608,0.0066394057520543,0.0041492087002540,0.0000389100275542,0.0005036717400379,-0.0000269764555915,0.9999998720365213,-0.0711419311843265,0.3036162666879023,-0.0026857110020908,0.0098902173340321,0.0114108640700579,0.0103509873151779,0.0004561709356494,0.0000499343514093,-0.0024497949052602,,0.0000000000000000,0.0000000000000000,
1559013414.6533608436584473,1.8992199897766113,,0.0052461963273294,-0.0041301807650064,-0.0033506423550799,-0.0000979141761295,-0.0000183511493438,0.0000746339203457,0.9999999922529138,-0.0867690896146450,0.2438129722447540,0.0090349656407931,0.0042716194596200,-0.0041764418432513,-0.0031969976766646,0.0001209135289257,-0.0003778495224691,0.0005870982353802,,0.0052291259185608,0.0066394057520543,0.0041492087002540,0.0000389100275542,0.0005036717400379,-0.0000269764555915,0.9999998720365213,-0.0711419311843265,0.3036162666879023,-0.0026857110020908,0.0098902173340321,0.0114108640700579,0.0103509873151779,0.0004561709356494,0.0000499343514093,-0.0024497949052602,,0.0000000000000000,0.0000000000000000,
1559013414.6866807937622070,1.9325399398803711,,0.0054121619307055,-0.0042455398318542,-0.0034481669659987,-0.0000997621630498,-0.0000135872819186,0.0000769649288163,0.9999999919696482,-0.0869796730166650,0.2443592653548252,0.0093013112829649,0.0052366834364002,-0.0042398692791515,-0.0027092115829254,-0.0004182255149207,0.0006835510036500,0.0008557385531180,,0.0048463070129249,-0.0018530932854782,-0.0043371194688543,0.0000496536779303,0.0005462905973898,-0.0000412375629876,0.9999998487002679,-0.0699188675543722,0.3084979834910337,-0.0043255173052810,0.0092678898945451,-0.0197609998285770,-0.0056686224415898,0.0003229734138586,0.0009426797041669,0.0000063279644564,,0.0000000000000000,0.0000000000000000,
1559013414.7200007438659668,1.9658598899841309,,0.0056468614859220,-0.0041986009508692,-0.0034928328445433,-0.0001067088467303,-0.0000086301115142,0.0000884844750109,0.9999999903546204,-0.0877700096868736,0.2449292572877096,0.0106205658649716,0.0061817916367542,-0.0044763116487787,-0.0040134238469333,-0.0009452894576674,-0.0001154500506371,0.0005787174449978,,0.0048463070129249,-0.0018530932854782,-0.0043371194688543,0.0000496536779303,0.0005462905973898,-0.0000412375629876,0.9999998487002679,-0.0699188675543722,0.3084979834910337,-0.0043255173052810,0.0092678898945451,-0.0197609998285770,-0.0056686224415898,0.0003229734138586,0.0009426797041669,0.0000063279644564,,0.0000000000000000,0.0000000000000000,
1559013414.7533206939697266,1.9991798400878906,,0.0058365323341014,-0.0042871757333750,-0.0035892972960314,-0.0000970898708702,0.0000016193046978,0.0000775977629510,0.9999999922747611,-0.0866730159820779,0.2461018891559838,0.0093713583504714,0.0052161837141104,-0.0019567174130012,-0.0026241686594371,0.0006684169942309,0.0004361609860808,-0.0012662586166484,,0.0052264772958771,-0.0026613178782102,-0.0045826045094389,0.0000475461241026,0.0005503896550055,-0.0000303206917289,0.9999998469456131,-0.0701543412170739,0.3089692817089975,-0.0030752484778133,0.0105025302618742,-0.0202286429703236,-0.0065599353983998,-0.0001585589197930,0.0001465858949814,-0.0005223532207310,,0.0000000000000000,0.0000000000000000,
1559013414.7866406440734863,2.0324997901916504,,0.0059632890133963,-0.0039532855796577,-0.0032947542065538,-0.0000761236111840,0.0000031994305880,0.0000674490203488,0.9999999948227946,-0.0842754418157741,0.2462811496413553,0.0082081401158243,0.0054650757136296,-0.0041513766924950,-0.0034678912577641,0.0009182596258605,-0.0006431022490691,0.0008592143641163,,0.0017678621869116,0.0015124191525959,-0.0011558191354735,0.0000500246131654,0.0005711314993747,-0.0000341708840095,0.9999998350693360,-0.0698725603466937,0.3113455691600101,-0.0035193152565481,-0.0028836037963629,-0.0044308807700872,0.0001653605722822,-0.0004792680847459,0.0003601763455663,-0.0004656376258936,,0.0000000000000000,0.0000000000000000,
1559013414.8199608325958252,2.0658199787139893,,0.0061212825647716,-0.0040318075929558,-0.0033686178621534,-0.0000742442870169,0.0000042546434120,0.0000676482629446,0.9999999949466983,-0.0840599816038955,0.2464020852834624,0.0082308041072803,0.0052524297681099,-0.0027743193331308,-0.0028992952532040,0.0001199184828269,-0.0001115418509508,0.0005889649560510,,0.0035853931829597,0.0016109033633505,0.0015901379357438,0.0000526102442627,0.0005726425298447,-0.0000379765869908,0.9999998339352233,-0.0695783964641965,0.3115181782101862,-0.0039554728880048,0.0037116021849215,-0.0034948575776070,0.0057091480121017,0.0006449705688283,0.0007822083425708,0.0002719526237343,,0.0000000000000000,0.0000000000000000,
1559013414.8532807826995850,2.0991399288177490,,0.0062636917599488,-0.0041389080730315,-0.0034432454250067,-0.0000781798546747,0.0000096245909730,0.0000779895322108,0.9999999938564553,-0.0845058289402126,0.2470191210533900,0.0094149746357018,0.0036941716859557,-0.0023659941077285,-0.0020703473323256,-0.0012094667191121,0.0006862483535765,0.0000491612590681,,0.0037245920093585,0.0014593189274381,0.0018194195298815,0.0000452053608667,0.0005873934933458,-0.0000412583801236,0.9999998256115376,-0.0704288468814915,0.3132080009324146,-0.0043341840155431,0.0031235220376402,-0.0038933986797929,0.0055238688364625,0.0007684917072766,-0.0006610307609662,0.0011769605334848,,0.0000000000000000,0.0000000000000000,
1559013414.8865907192230225,2.1324498653411865,,0.0063674036867429,-0.0042189800621921,-0.0035200612116481,-0.0000953450524988,0.0000101869691039,0.0000812069359834,0.9999999921054902,-0.0864712249832548,0.2470842394315983,0.0097835547465321,0.0041327362294232,-0.0022226027024496,-0.0027640775690370,-0.0014661138264838,0.0001582844268392,-0.0007560257600127,,0.0037245920093585,0.0014593189274381,0.0018194195298815,0.0000452053608667,0.0005873934933458,-0.0000412583801236,0.9999998256115376,-0.0704288468814915,0.3132080009324146,-0.0043341840155431,0.0031235220376402,-0.0038933986797929,0.0055238688364625,0.0007684917072766,-0.0006610307609662,0.0011769605334848,,0.0000000000000000,0.0000000000000000,
1559013414.9199106693267822,2.1657698154449463,,0.0064872634680266,-0.0043033929661843,-0.0033893553333475,-0.0000981647847191,0.0000091958719382,0.0000840210769749,0.9999999916097848,-0.0867929639770473,0.2469711512546700,0.0101061917905385,0.0041435907482968,-0.0036595918945156,-0.0021293723038228,0.0001214783857848,0.0001566420371901,0.0003245344214629,,0.0018623154410093,0.0027256348443475,0.0001956494993356,0.0000609717752342,0.0005685389954785,-0.0000005049907428,0.9999998365227858,-0.0685993416432927,0.3110533887813620,0.0003396554353508,-0.0041805850341916,0.0011643896577880,0.0006084713968448,-0.0011163554154336,-0.0002244176284876,-0.0005613433313556,,0.0000000000000000,0.0000000000000000,
1559013414.9532308578491211,2.1990900039672852,,0.0066077031687741,-0.0043793711086931,-0.0034595975884150,-0.0000965559211100,0.0000058611650520,0.0000813726764255,0.9999999920105443,-0.0866099359151764,0.2465885774407738,0.0098032473885719,0.0048793130929764,-0.0033070045195502,-0.0023836211248042,-0.0004060157253606,0.0001584402741825,-0.0002131838035570,,0.0018623154410093,0.0027256348443475,0.0001956494993356,0.0000609717752342,0.0005685389954785,-0.0000005049907428,0.9999998365227858,-0.0685993416432927,0.3110533887813620,0.0003396554353508,-0.0041805850341916,0.0011643896577880,0.0006084713968448,-0.0011163554154336,-0.0002244176284876,-0.0005613433313556,,0.0000000000000000,0.0000000000000000,
1559013414.9865508079528809,2.2324099540710449,,0.0068532701713855,-0.0043301347491908,-0.0037568415275011,-0.0000921878377697,0.0000145010936960,0.0000875604590015,0.9999999918121436,-0.0861062622222835,0.2475795988847205,0.0105109272516455,0.0061024452381716,-0.0026114642597427,-0.0038717010848874,0.0006550774107732,-0.0001077115716101,0.0003277914451286,,0.0029704976370324,0.0010159144944673,-0.0068657866970963,0.0000582245274008,0.0005601235302483,0.0000018985634455,0.9999998414339528,-0.0689128105575490,0.3100893950405605,0.0006161232992979,0.0019557164050639,-0.0059154736809433,-0.0117896087467670,-0.0002207496145274,0.0013766620540991,-0.0006734695052728,,0.0000000000000000,0.0000000000000000,
1559013415.0198707580566406,2.2657299041748047,,0.0070546599482242,-0.0044615278806837,-0.0038780656419911,-0.0000974214550678,0.0000145340139322,0.0000958468282059,0.9999999905556041,-0.0867019009601498,0.2475847681785492,0.0114604690225351,0.0052302098063599,-0.0030356274845443,-0.0027207413362863,0.0001265882487726,0.0001603944066101,-0.0002080600612698,,0.0028302361133023,0.0011308112806345,-0.0055005617195409,0.0000614221750839,0.0005673859537669,0.0000062026473458,0.9999998371309983,-0.0685439934837356,0.3109222268541514,0.0011085002659068,0.0022205500863492,-0.0049788719043136,-0.0089428108185530,-0.0010673586511984,-0.0010183617705479,-0.0010928818956017,,0.0000000000000000,0.0000000000000000,
1559013415.0531907081604004,2.2990498542785645,,0.0072153636123913,-0.0044566958724606,-0.0038731616909875,-0.0000931105047298,0.0000154213287403,0.0000834947986812,0.9999999920606176,-0.0862139903107021,0.2476844015566985,0.0100448826069332,0.0049328532862165,-0.0018428200837466,-0.0029638321569468,-0.0003963608533331,-0.0003685465746899,-0.0010158089476815,,0.0029221986643147,0.0009211528264380,-0.0058647508733388,0.0000569818828218,0.0005542338034713,0.0000084162661342,0.9999998447535492,-0.0690515848017236,0.3094154253685485,0.0013637793337315,0.0021712789312005,-0.0055115297436714,-0.0089211678132415,0.0002103293809341,-0.0018684096867219,-0.0012658763444051,,0.0000000000000000,0.0000000000000000,
1559013415.0865106582641602,2.3323698043823242,,0.0073598243471436,-0.0045503465641882,-0.0039569726298506,-0.0001025827487981,0.0000151017704442,0.0000829072205281,0.9999999911875544,-0.0872997224416646,0.2476477778315305,0.0099775857202090,0.0048914565962330,-0.0019445493131649,-0.0028168886542136,-0.0001371588119929,0.0001612935365894,-0.0004769191897308,,0.0029519888838059,0.0008384119710609,-0.0059934795015772,0.0000581090590179,0.0005500910080263,-0.0000013667004831,0.9999998470106645,-0.0689278484126669,0.3089392815590514,0.0002433889468124,0.0020987750031054,-0.0055223274976015,-0.0086310729384422,-0.0007987834396772,0.0002558300329838,-0.0004012739227619,,0.0000000000000000,0.0000000000000000,
1559013415.1198308467864990,2.3656899929046631,,0.0075444625159569,-0.0044354967691093,-0.0040187775978531,-0.0001038281287817,0.0000205130355791,0.0000892611273288,0.9999999904156932,-0.0874392448708089,0.2482689099238377,0.0107048117630177,0.0047855424294462,-0.0020011597122527,-0.0034075191621652,0.0001240333057540,0.0001585182281676,0.0000582371658099,,0.0046368757536828,0.0024083626879825,-0.0023725760559474,0.0000458798311537,0.0005587346913442,0.0000202892320099,0.9999998426494540,-0.0703171895108751,0.3099329308591345,0.0027229777647251,0.0063844979740679,-0.0001243474544026,-0.0025399073492736,-0.0001940629445016,0.0010972442105412,0.0014111992204562,,0.0000000000000000,0.0000000000000000,
1559013415.1531507968902588,2.3990099430084229,,0.0077221698570500,-0.0045224404184103,-0.0041529083531779,-0.0001129705429053,0.0000125627285809,0.0000900982343573,0.9999999894810713,-0.0884865512057805,0.2473581035791804,0.0108020204209803,0.0046928731696213,-0.0005866708335442,-0.0030658287533605,0.0001362431130998,-0.0003665924546251,-0.0010106852292341,,0.0046368757536828,0.0024083626879825,-0.0023725760559474,0.0000458798311537,0.0005587346913442,0.0000202892320099,0.9999998426494540,-0.0703171895108751,0.3099329308591345,0.0027229777647251,0.0063844979740679,-0.0001243474544026,-0.0025399073492736,-0.0001940629445016,0.0010972442105412,0.0014111992204562,,0.0000000000000000,0.0000000000000000,
1559013415.1864707469940186,2.4323298931121826,,0.0077867133937530,-0.0044461463239173,-0.0040165493443675,-0.0001204473052998,0.0000122529518585,0.0000888591867411,0.9999999887231783,-0.0893439392428449,0.2473224786963021,0.0106600750500264,0.0042806185324661,-0.0028913464038115,-0.0013065953025481,-0.0001442587772107,0.0006901565892021,0.0000594087176545,,0.0024800863660486,0.0033513649754405,0.0010116650675939,0.0000366415274969,0.0005791132241942,0.0000401312039316,0.9999998308373650,-0.0713647175366044,0.3122710734938550,0.0049931456007309,-0.0014716660371050,0.0013657244853675,0.0051734177395701,-0.0005957818357274,0.0004247363540344,-0.0011405874975026,,0.0000000000000000,0.0000000000000000,
1559013415.2197906970977783,2.4656498432159424,,0.0079636802815686,-0.0045388296551600,-0.0041005930026918,-0.0001156125737654,0.0000197274828506,0.0000899400350446,0.9999999890776746,-0.0887893149450208,0.2481791243687374,0.0107827107253219,0.0054762910475081,-0.0028590129492276,-0.0035502140869813,0.0001214783370208,0.0001566420420962,0.0003245344091899,,0.0024800863660486,0.0033513649754405,0.0010116650675939,0.0000366415274969,0.0005791132241942,0.0000401312039316,0.9999998308373650,-0.0713647175366044,0.3122710734938550,0.0049931456007309,-0.0014716660371050,0.0013657244853675,0.0051734177395701,-0.0005957818357274,0.0004247363540344,-0.0011405874975026,,0.0000000000000000,0.0000000000000000,
1559013415.2531106472015381,2.4989697933197021,,0.0081706960629286,-0.0044853257477577,-0.0040068785616449,-0.0001149734801759,0.0000181682702646,0.0000800880080685,0.9999999900184618,-0.0887209612696874,0.2479988270517514,0.0096539997429559,0.0066758896950389,-0.0012619271235210,-0.0052778988965974,-0.0003979207910557,-0.0006367304643602,-0.0007513784308436,,0.0024622045541892,0.0033692700341506,0.0010831382365003,0.0000311932746903,0.0005793344129262,0.0000361975982775,0.9999998310441615,-0.0719912381284506,0.3122958639970193,0.0045419871211058,-0.0010414639255032,0.0009290307061747,0.0048048202879727,0.0009482172317803,0.0003190914285369,-0.0010488524567336,,0.0000000000000000,0.0000000000000000,
1559013415.2864308357238770,2.5322899818420410,,0.0083704865461169,-0.0045762194038848,-0.0041306366247372,-0.0001128389388586,0.0000282965366390,0.0000831707906785,0.9999999897746498,-0.0884747488724465,0.2491599257509121,0.0100056067859487,0.0054533579318849,-0.0021422222864190,-0.0034029614897856,0.0003918951606293,0.0004276791516700,-0.0002036314954754,,0.0024471661835635,0.0033851684694178,0.0011746483241867,0.0000385319684051,0.0005825618436287,0.0000372835294294,0.9999998288734475,-0.0711496658668178,0.3126658295824273,0.0046664411182887,-0.0005564807215706,0.0006104572094046,0.0041742408648133,0.0009592136484571,-0.0004849921970163,-0.0003570724220481,,0.0000000000000000,0.0000000000000000,
1559013415.3197507858276367,2.5656099319458008,,0.0084539562597465,-0.0046596181094680,-0.0038037212165023,-0.0000972467526017,0.0000264509274309,0.0000816067642226,0.9999999915918769,-0.0866888059897456,0.2489480324578474,0.0098267312334674,0.0050194108661809,-0.0020299494197923,-0.0024115563608108,0.0006581971548230,0.0004286562084687,-0.0002010696278769,,0.0024471661835635,0.0033851684694178,0.0011746483241867,0.0000385319684051,0.0005825618436287,0.0000372835294294,0.9999998288734475,-0.0711496658668178,0.3126658295824273,0.0046664411182887,-0.0005564807215706,0.0006104572094046,0.0041742408648133,0.0009592136484571,-0.0004849921970163,-0.0003570724220481,,0.0000000000000000,0.0000000000000000,
1559013415.3530707359313965,2.5989298820495605,,0.0086290494669587,-0.0047464696116131,-0.0039386587469087,-0.0001007007721476,0.0000154311426481,0.0000850134407474,0.9999999911969747,-0.0870830212509317,0.2476858457225061,0.0102188925082012,0.0054376021610476,-0.0019874817754793,-0.0032735371744815,-0.0004070108194592,0.0004247479384606,-0.0002113171138919,,-0.0009817813704339,-0.0000302048205232,-0.0113073154465510,0.0000366397794939,0.0005790403470259,0.0000539893675716,0.9999998302274612,-0.0713571827692653,0.3122647584925159,0.0065812067841531,-0.0103610353544354,-0.0106029035523534,-0.0180826224386692,0.0003542889317032,0.0002166567428503,-0.0017341335769743,,0.0000000000000000,0.0000000000000000,
1559013415.3863906860351562,2.6322498321533203,,0.0086877905470684,-0.0047184225845087,-0.0041486685223282,-0.0001068583767873,0.0000224914201221,0.0000831661465703,0.9999999905794078,-0.0877894803578351,0.2484946513471916,0.0100060422588605,0.0054710546575637,-0.0012309394276132,-0.0041331127972096,-0.0006682029372061,0.0004275232468824,-0.0007464734694327,,-0.0014185691403290,-0.0004501569395737,-0.0120030723032950,0.0000434684384757,0.0005856383472689,0.0000345169022151,0.9999998269733873,-0.0705855220237378,0.3130179456839972,0.0043492845201148,-0.0107360417023301,-0.0110346311703324,-0.0169592592865229,-0.0017026001587510,0.0004706384497695,-0.0002738574403338,,0.0000000000000000,0.0000000000000000,
1559013415.4197106361389160,2.6655697822570801,,0.0089061612692105,-0.0048003901542969,-0.0043089303280959,-0.0001063221210737,0.0000257045591501,0.0000789686980525,0.9999999908994137,-0.0877300784479610,0.2488621591373299,0.0095245228073469,0.0049908581014894,-0.0035556651161850,-0.0028633407599291,-0.0001483736508550,0.0004200964643914,0.0005901364777240,,0.0003574812231935,0.0003619826310008,-0.0030307031033011,0.0000280967192277,0.0006463813474378,0.0000294119631035,0.9999997902683102,-0.0723496947302187,0.3199778806545092,0.0037542767039110,-0.0030758511275053,-0.0073704370297492,-0.0008689275127836,-0.0003743243869394,0.0005830600857735,-0.0002860996755771,,0.0000000000000000,0.0000000000000000,
1559013415.4530308246612549,2.6988899707794189,,0.0089908619778192,-0.0044183014225263,-0.0039594538388590,-0.0001061013378649,0.0000190014206842,0.0000769627899248,0.9999999912290907,-0.0877058254057711,0.2480937073654447,0.0092957557032245,0.0064014748485831,-0.0015845811619905,-0.0048020954721572,0.0003978653670373,-0.0011701671207808,-0.0002148317768962,,0.0034025515714207,0.0019694676577049,0.0014925504697577,0.0000218994381274,0.0006415251941719,0.0000333035632454,0.9999997934283349,-0.0730576655340355,0.3194220055325690,0.0042004903961273,0.0078299734741449,-0.0012851294595748,0.0068843513727188,0.0005175640108064,-0.0001538863434689,-0.0014675890561193,,0.0000000000000000,0.0000000000000000,
1559013415.4863507747650146,2.7322099208831787,,0.0090519077131763,-0.0044377783063746,-0.0039951569619089,-0.0001061331168963,0.0000177941201518,0.0000765663845682,0.9999999912783598,-0.0877096725828757,0.2479552966201145,0.0092505276482421,0.0060412440567025,-0.0016206244684682,-0.0031520237653246,0.0001265881404917,0.0001603943249439,-0.0002080600690335,,0.0034025515714207,0.0019694676577049,0.0014925504697577,0.0000218994381274,0.0006415251941719,0.0000333035632454,0.9999997934283349,-0.0730576655340355,0.3194220055325690,0.0042004903961273,0.0078299734741449,-0.0012851294595748,0.0068843513727188,0.0005175640108064,-0.0001538863434689,-0.0014675890561193,,0.0000000000000000,0.0000000000000000,
