#Time(sec),Dtime(sec),,x(m),y(m),z(m),qx,qy,qz,qw,roll_x_G(deg),pitch_y_G(deg),yaw_z_G(deg),vx(m/s),vy(m/s),vz(m/s),wx(rad/s),wy(rad/s),wz(rad/s),,gt_x(m),gt_y(m),gt_z(m),gt_qx,gt_qy,gt_qz,gt_qw,gt_groll_x_G(deg),gt_pitch_y_G(deg),gt_yaw_z_G(deg),gt_vx(m/s),gt_vy(m/s),gt_vz(m/s),gt_wx(rad/s),gt_wy(rad/s),gt_wz(rad/s),,Sr,Sr_avg,
1559013412.7541408538818359,0.0000000000000000,,0.0000000000000002,0.0000000000000001,-0.0000000000000001,0.0000000000000000,-0.0000000000000001,0.0000000000000000,1.0000000000000000,-0.0755855138669150,0.2459037397968158,0.0004794994091153,0.0000000000000000,0.0000000000000000,0.0000000000000000,0.0000000000000000,0.0000000000000000,0.0000000000000000,,0.0000000000000000,0.0000000000000000,0.0000000000000000,0.0000000000000000,0.0000000000000000,0.0000000000000000,1.0000000000000000,-0.0755855138669150,0.2459037397968215,0.0004794994091152,-0.0098102642223239,-0.0059528849087656,-0.0021041124127805,0.0008114594966173,-0.0000641869410174,-0.0007574954070151,,0.0000000000000000,0.0000000000000000,
1559013412.7874608039855957,0.0333199501037598,,0.0000000000000002,0.0000000000000001,-0.0000000000000001,0.0000000000000000,-0.0000000000000001,0.0000000000000000,1.0000000000000000,-0.0755855138669150,0.2459037397968158,0.0004794994091153,0.0000000000000000,0.0000000000000000,0.0000000000000000,0.0000000000000000,0.0000000000000000,0.0000000000000000,,0.0000000000000000,0.0000000000000000,0.0000000000000000,0.0000000000000000,0.0000000000000000,0.0000000000000000,1.0000000000000000,-0.0755855138669150,0.2459037397968215,0.0004794994091152,-0.0098102642223239,-0.0059528849087656,-0.0021041124127805,0.0008114594966173,-0.0000641869410174,-0.0007574954070151,,0.0000000000000000,0.0000000000000000,
1559013412.8207807540893555,0.0666399002075195,,0.0000219726581638,-0.0000260111889973,-0.0000459141663904,-0.0000208610050351,-0.0000137221306289,-0.0000034844792411,0.9999999996821901,-0.0779777081630646,0.2443307657790641,0.0000823114382821,0.0005549145090711,-0.0009140744155948,-0.0007645881653806,-0.0006713226546122,-0.0001088443910840,-0.0002176123651700,,0.0000000000000000,0.0000000000000000,0.0000000000000000,0.0000000000000000,0.0000000000000000,0.0000000000000000,1.0000000000000000,-0.0755855138669150,0.2459037397968215,0.0004794994091152,-0.0098102642223239,-0.0059528849087656,-0.0021041124127805,0.0008114594966173,-0.0000641869410174,-0.0007574954070151,,0.0000000000000000,0.0000000000000000,
1559013412.8541007041931152,0.0999598503112793,,0.0000608926743231,-0.0000640802948601,-0.0001140602429562,-0.0000373096937066,-0.0000189844924195,-0.0000087132854731,0.9999999990858274,-0.0798651435414091,0.2437269247291102,-0.0005160265755550,0.0011061855532015,-0.0033799717536283,-0.0017536299372295,-0.0014824384616985,0.0004133351236126,0.0008436244272202,,0.0026245542083911,0.0026448552001494,-0.0084863851899029,-0.0000333937179824,0.0001718520074773,-0.0000101301488424,0.9999999846245635,-0.0794174526191618,0.2655949411350161,-0.0007079784706163,0.0011400097282603,-0.0002242026966996,-0.0186141021549702,-0.0007273238734342,-0.0001038627669914,-0.0002373664610786,,0.0000000000000000,0.0000000000000000,
1559013412.8874206542968750,0.1332798004150391,,0.0001262903034411,-0.0001468154741993,-0.0002142065874932,-0.0000378024141703,-0.0000235806923088,-0.0000050935236011,0.9999999989944923,-0.0799198270708824,0.2432008019201591,-0.0001005132246582,0.0021184657892204,-0.0024107857097970,-0.0026184181863062,0.0001285783637746,-0.0003722209284548,-0.0002117934720251,,0.0026245542083911,0.0026448552001494,-0.0084863851899029,-0.0000333937179824,0.0001718520074773,-0.0000101301488424,0.9999999846245635,-0.0794174526191618,0.2655949411350161,-0.0007079784706163,0.0011400097282603,-0.0002242026966996,-0.0186141021549702,-0.0007273238734342,-0.0001038627669914,-0.0002373664610786,,0.0000000000000000,0.0000000000000000,
1559013412.9207408428192139,0.1665999889373779,,0.0001876071963411,-0.0002485065635448,-0.0002723575101359,-0.0000332340376668,-0.0000278667317498,-0.0000049033733097,0.9999999990474505,-0.0793962315090670,0.2427096905476230,-0.0000780715043153,0.0016332172232536,-0.0030002443095807,-0.0000183282768429,0.0009260591413560,0.0006978172556181,-0.0004629382745979,,0.0013044971720459,0.0006642558835833,-0.0097306379038952,-0.0000438730574526,0.0002087906767953,-0.0000009822662857,0.9999999772403214,-0.0806136494002281,0.2698292134783979,0.0003343256994272,-0.0023964915890247,-0.0079505480825901,-0.0198433436453342,0.0003404117596801,-0.0015395777300000,-0.0001423610374331,,0.0000000000000000,0.0000000000000000,
1559013412.9540607929229736,0.1999199390411377,,0.0002510355284044,-0.0003552317527220,-0.0002739830334416,-0.0000129934686530,-0.0000142844809747,-0.0000089746469803,0.9999999997732896,-0.0770788454877928,0.2442654901962383,-0.0005467471256826,0.0015572095440772,-0.0016274100853720,0.0003069651755764,0.0011929260021615,0.0012332859105604,-0.0007229402316692,,0.0013044971720459,0.0006642558835833,-0.0097306379038952,-0.0000438730574526,0.0002087906767953,-0.0000009822662857,0.9999999772403214,-0.0806136494002281,0.2698292134783979,0.0003343256994272,-0.0023964915890247,-0.0079505480825901,-0.0198433436453342,0.0003404117596801,-0.0015395777300000,-0.0001423610374331,,0.0000000000000000,0.0000000000000000,
1559013412.9873807430267334,0.2332398891448975,,0.0003049992330981,-0.0004089312959995,-0.0003164140705479,-0.0000144173017045,-0.0000098617901226,-0.0000141313640163,0.9999999997475956,-0.0772445424394733,0.2447715032002950,-0.0011383418386656,0.0011389741805766,-0.0019570558982999,-0.0014499054642399,-0.0004121206084769,0.0004209957160276,0.0003212774096721,,0.0018857590854552,-0.0013061177091510,-0.0060609667982342,-0.0000362485746485,0.0002088160531889,0.0000027108259949,0.9999999775372739,-0.0797380425351669,0.2698326961289798,0.0007577056763264,-0.0000950830581132,-0.0141929863020778,-0.0110827842727304,0.0008529586484656,0.0008104145526886,-0.0009446555632167,,0.0000000000000000,0.0000000000000000,
1559013413.0207006931304932,0.2665598392486572,,0.0003431363790865,-0.0004716913804853,-0.0004165912864769,-0.0000362799963632,-0.0000178833168929,-0.0000100745123364,0.9999999991312265,-0.0797478174257171,0.2438528996089663,-0.0006721862495950,0.0008971832518353,-0.0020463925252434,-0.0023451758404527,-0.0009427345252527,-0.0001135738131031,0.0003124202551737,,0.0018767528659337,-0.0015868478416372,-0.0062711862608355,-0.0000291626588616,0.0002160709066437,-0.0000033503031968,0.9999999762258388,-0.0789291896576434,0.2706631018623400,0.0000621929295683,-0.0001832428679336,-0.0139995729550719,-0.0103720519691706,-0.0000324573375110,0.0006396181997843,0.0005033669876866,,0.0000000000000000,0.0000000000000000,
1559013413.0540206432342529,0.2998797893524170,,0.0003903418709308,-0.0005530731092706,-0.0004847153840386,-0.0000454537236579,-0.0000198192877273,-0.0000091906053814,0.9999999987283439,-0.0807986128321173,0.2436311815676687,-0.0005705755700852,0.0017486898863368,-0.0027608805572256,-0.0017974615562203,0.0003923254197449,-0.0003731200542663,0.0000570656395446,,-0.0012296630497877,0.0025351477552150,0.0010995718084875,-0.0000417926695341,0.0002369557506546,0.0000081066828663,0.9999999710198130,-0.0803705614379537,0.2730581080783792,0.0013715104470487,-0.0104640517383814,0.0027693663723767,0.0022680787369609,-0.0004222550487611,-0.0009954593842849,-0.0014647236093879,,0.0000000000000000,0.0000000000000000,
1559013413.0873408317565918,0.3331999778747559,,0.0004235173463312,-0.0005975541739943,-0.0004861766733747,-0.0000408711554166,-0.0000194033983437,-0.0000116517497268,0.9999999989086469,-0.0802746948857365,0.2436784601430076,-0.0008526794641091,0.0017240983079556,-0.0031904525041129,-0.0011774005091656,0.0001260234255512,-0.0003740971110650,0.0000545037719461,,-0.0012296630497877,0.0025351477552150,0.0010995718084875,-0.0000417926695341,0.0002369557506546,0.0000081066828663,0.9999999710198130,-0.0803705614379537,0.2730581080783792,0.0013715104470487,-0.0104640517383814,0.0027693663723767,0.0022680787369609,-0.0004222550487611,-0.0009954593842849,-0.0014647236093879,,0.0000000000000000,0.0000000000000000,
1559013413.1206507682800293,0.3665099143981934,,0.0004875803296478,-0.0007141621168981,-0.0005475298185298,-0.0000410329516527,-0.0000277651275720,-0.0000041845875401,0.9999999987639420,-0.0802895700222707,0.2427214412121597,0.0000043050128648,0.0027632084752409,-0.0047835252742353,-0.0033727639911882,0.0001177937451057,-0.0009142172566231,0.0011159593238071,,-0.0016435135824158,0.0026275468295871,0.0012304795801690,-0.0000513339756734,0.0002473163494147,-0.0000056877855006,0.9999999680835472,-0.0814710891680904,0.2742431862158812,-0.0002111219548778,-0.0103930579498410,0.0014988548355177,0.0039006241131574,0.0011318795150146,0.0002227528020740,-0.0000919199519558,,0.0000000000000000,0.0000000000000000,
1559013413.1539707183837891,0.3998298645019531,,0.0005992052494246,-0.0008560779922180,-0.0007331353717512,-0.0000265381207484,-0.0000211865965271,-0.0000015462166012,0.9999999994222327,-0.0786273012353585,0.2434756984222644,0.0003055818563649,0.0026077769604826,-0.0025285015273984,-0.0020227863476814,0.0006597571479988,0.0006968401992356,-0.0004655001469185,,0.0032453695944055,0.0011196545295340,-0.0004223351860165,-0.0000312984294318,0.0002538822486879,0.0000161588989184,0.9999999671515505,-0.0791638111367561,0.2749989768490645,0.0022919017707144,0.0086654815822840,-0.0050508026033640,-0.0003003584279213,0.0014034562045708,-0.0017996052047238,-0.0003075636050198,,0.0000000000000000,0.0000000000000000,
1559013413.1872906684875488,0.4331498146057129,,0.0006705029194847,-0.0009368284670785,-0.0007890303218429,-0.0000239243182292,-0.0000153890637610,-0.0000099970978110,0.9999999995454310,-0.0783319276908652,0.2441387458518476,-0.0006637243903285,0.0014394943779365,-0.0019535523306564,0.0001415276554568,0.0001302729644644,0.0012312538768880,-0.0009994849525267,,-0.0003187015053108,0.0000959066590073,-0.0209231593457670,-0.0000160718343075,0.0002776230263452,0.0000108136414350,0.9999999612751075,-0.0774217422934056,0.2777186218234659,0.0016761845038021,-0.0058840299025178,-0.0058508231304586,-0.0372426919639111,0.0013397382572293,0.0005982400616631,-0.0003023762255907,,0.0000000000000000,0.0000000000000000,
1559013413.2206108570098877,0.4664700031280518,,0.0007280474158398,-0.0008884723345032,-0.0007320841766760,-0.0000182413299717,-0.0000186754444786,-0.0000192787356052,0.9999999994734060,-0.0776852442375064,0.2437607385467356,-0.0017268367286836,0.0022541713981956,-0.0001482594898591,-0.0023631020499187,0.0012059961659088,-0.0008934233754407,-0.0012704684033090,,-0.0003187015053108,0.0000959066590073,-0.0209231593457670,-0.0000160718343075,0.0002776230263452,0.0000108136414350,0.9999999612751075,-0.0774217422934056,0.2777186218234659,0.0016761845038021,-0.0058840299025178,-0.0058508231304586,-0.0372426919639111,0.0013397382572293,0.0005982400616631,-0.0003023762255907,,0.0000000000000000,0.0000000000000000,
1559013413.2539308071136475,0.4997899532318115,,0.0008168132770248,-0.0010117492798867,-0.0008241253685707,-0.0000074806155179,-0.0000191322576516,-0.0000098931042252,0.9999999997400618,-0.0764475606570270,0.2437098424155481,-0.0006512674163444,0.0023062161121764,-0.0030398373397902,-0.0029506064923803,-0.0001473785160001,0.0001537888844946,0.0005882698132651,,-0.0005509754171336,-0.0001456836824130,-0.0224293881837500,-0.0000085451778506,0.0002747311364235,0.0000002491187608,0.9999999622248595,-0.0765647796794137,0.2773856195816288,0.0004662457421669,-0.0052228411659598,-0.0065887318924069,-0.0385861136019230,-0.0007309849024750,-0.0003088524681516,-0.0003365832380950,,0.0000000000000000,0.0000000000000000,
1559013413.2872507572174072,0.5331099033355713,,0.0008926626446519,-0.0010936624556699,-0.0009067295207600,-0.0000056884655608,-0.0000201549022095,0.0000003033407607,0.9999999997806648,-0.0762372024473935,0.2435942062115454,0.0005173199854601,0.0028393372704662,-0.0024750552068423,-0.0030084875453657,0.0006566373430278,0.0001604724201109,0.0000633609281185,,0.0034269625326508,0.0011286720590091,-0.0090409392735334,-0.0000107213567495,0.0003332832900764,0.0000064883889218,0.9999999443825994,-0.0768108869699027,0.2840961473448347,0.0011722296041699,0.0091384267434478,-0.0020928373560309,-0.0114530222490430,0.0010196233633906,0.0007099295035005,-0.0002983235754073,,0.0000000000000000,0.0000000000000000,
1559013413.3205707073211670,0.5664298534393311,,0.0009942792880364,-0.0012108446532645,-0.0010008690379133,-0.0000014850270997,-0.0000206997926783,0.0000006541717596,0.9999999997844428,-0.0757553518805641,0.2435318193537115,0.0005575953415103,0.0028818965902124,-0.0036740172607493,-0.0020662326832083,0.0001275833293799,-0.0001059132194821,-0.0002099267708106,,0.0034269625326508,0.0011286720590091,-0.0090409392735334,-0.0000107213567495,0.0003332832900764,0.0000064883889218,0.9999999443825994,-0.0768108869699027,0.2840961473448347,0.0011722296041699,0.0091384267434478,-0.0020928373560309,-0.0114530222490430,0.0010196233633906,0.0007099295035005,-0.0002983235754073,,0.0000000000000000,0.0000000000000000,
1559013413.3538906574249268,0.5997498035430908,,0.0010987871932397,-0.0014193082835767,-0.0010355077721248,0.0000043933705720,-0.0000162810090764,0.0000009097342273,0.9999999998573997,-0.0750816144762925,0.2440382122637908,0.0005862011698558,0.0023090616169792,-0.0042644940805824,-0.0012306386352922,0.0006530873697089,0.0004249039444281,0.0003315248716300,,0.0038770528996077,0.0016472316239445,-0.0017817424349745,-0.0000074296579382,0.0003350296155490,0.0000100847786441,0.9999999437991255,-0.0764317786616396,0.2842968057608064,0.0015842104441551,0.0097196577116847,-0.0004313084064052,0.0031110367272049,0.0015891643706709,0.0003474377153907,-0.0016894822474569,,0.0000000000000000,0.0000000000000000,
1559013413.3872108459472656,0.6330699920654297,,0.0011833474989855,-0.0015650285554196,-0.0011046782784427,0.0000078473480777,-0.0000121961102198,0.0000079800112064,0.9999999998629968,-0.0746823526664202,0.2445073688531453,0.0013957816220197,0.0025632950538603,-0.0044223944911614,-0.0033207887603193,-0.0001479433812806,-0.0003807027095893,0.0008508336234501,,0.0040679258189634,0.0016302978887204,-0.0017103729637689,0.0000057362566524,0.0003389510514528,0.0000028056137798,0.9999999425357027,-0.0749269346787147,0.2847450587356998,0.0007499853509923,0.0094946585595608,-0.0007214926299639,0.0039329784922302,-0.0014333359431475,0.0007109196740203,-0.0008072421769612,,0.0000000000000000,0.0000000000000000,
1559013413.4205307960510254,0.6663899421691895,,0.0012623801593619,-0.0016654840778808,-0.0011310025219710,-0.0000012826347687,-0.0000167951577603,0.0000061572009539,0.9999999998391832,-0.0757294657913324,0.2439800898392161,0.0011876098794503,0.0025359645274390,-0.0042099189034038,-0.0041804392860277,-0.0001469483454748,-0.0006470104173560,0.0008489669137994,,0.0040371625405149,0.0010407715328566,-0.0011724512895224,0.0000182179897012,0.0003403120708404,-0.0000080441169780,0.9999999418955441,-0.0735023907927335,0.2848993990187070,-0.0004930345491329,0.0076945354230702,-0.0024773650802672,0.0028743059374392,0.0014570327475667,-0.0012100221356377,0.0000713423796697,,0.0000000000000000,0.0000000000000000,
1559013413.4538507461547852,0.6997098922729492,,0.0013458704598546,-0.0017620580056675,-0.0012523373974138,-0.0000100271858198,-0.0000277922957444,0.0000034954648866,0.9999999995574128,-0.0767328186978862,0.2427195125348401,0.0008842867809657,0.0031084308933623,-0.0022306501189893,-0.0040975795199015,0.0001356783142901,-0.0009010839794038,-0.0007481214006364,,0.0028244609372718,-0.0020864745447010,-0.0040981470072898,0.0000272535559166,0.0003338402301539,-0.0000050454464155,0.9999999438912424,-0.0724653892738492,0.2841582340357628,-0.0001480977271716,0.0034915832802653,-0.0125113883987069,-0.0027146551292390,0.0007540810620412,0.0003361692652106,-0.0002933166106232,,0.0000000000000000,0.0000000000000000,
1559013413.4871706962585449,0.7330298423767090,,0.0014513035227397,-0.0017454723949235,-0.0013580308113988,0.0000029372256626,-0.0000222054547735,-0.0000060441667543,0.9999999997308793,-0.0752518754947427,0.2433582726335388,-0.0002097673529166,0.0034320182031733,-0.0046345515659519,-0.0027006170604868,0.0001189234799500,0.0001547659386118,0.0005908316578218,,0.0009705727291415,0.0016289898501757,-0.0079331041607371,0.0000413433631328,0.0003589990839138,-0.0000095545487231,0.9999999346595452,-0.0708532497001342,0.2870405726501778,-0.0006679541082759,-0.0035913039464504,0.0022433528210968,-0.0086488155648112,-0.0000468759790238,-0.0001395221770508,-0.0007117160712369,,0.0000000000000000,0.0000000000000000,
1559013413.5204906463623047,0.7663497924804688,,0.0015793457993858,-0.0019004446473689,-0.0014623231546734,0.0000037036065297,-0.0000214917755768,0.0000036415592411,0.9999999997555630,-0.0751593159965064,0.2434415148040602,0.0009000346062932,0.0038168061870302,-0.0054511727533541,-0.0033784868435878,0.0003785556952009,-0.0001161932509557,0.0013904185547689,,0.0008416231557927,0.0017042349993819,-0.0082787919112038,0.0000540832522323,0.0003709936414145,-0.0000274513881228,0.9999999293425681,-0.0694029478739007,0.2884124663842267,-0.0027200200000634,-0.0031365249305964,0.0013117705238983,-0.0091546773910522,-0.0008535996312276,-0.0001344025076833,-0.0015033677918836,,0.0000000000000000,0.0000000000000000,
1559013413.5538108348846436,0.7996699810028076,,0.0016801616447308,-0.0020664069280642,-0.0015651421987818,0.0000041224998168,-0.0000292367949720,0.0000197867453255,0.9999999993683498,-0.0751034263185028,0.2425564344184830,0.0027513177434527,0.0034992821814268,-0.0056128053049816,-0.0038655037438211,0.0006458527252004,-0.0003815239019237,0.0013911137127167,,0.0030406504889629,0.0022882742342330,-0.0062925504181727,0.0000611729674452,0.0003626874159403,-0.0000190422897520,0.9999999321765465,-0.0685860076404653,0.2874618788989146,-0.0017548979202029,0.0040563573129475,0.0002654088311829,-0.0037910772953182,0.0001189401809825,-0.0001427652314305,-0.0001788293011487,,0.0000000000000000,0.0000000000000000,
1559013413.5871307849884033,0.8329899311065674,,0.0017903969084538,-0.0022085562093211,-0.0016676372873625,0.0000116321450132,-0.0000291243417392,0.0000235139850909,0.9999999992317794,-0.0742410636123395,0.2425698619414992,0.0031783894365287,0.0025144742559672,-0.0034524458437991,-0.0014077191284781,0.0011872512625697,0.0006950419602857,0.0000722180543296,,0.0030406504889629,0.0022882742342330,-0.0062925504181727,0.0000611729674452,0.0003626874159403,-0.0000190422897520,0.9999999321765465,-0.0685860076404653,0.2874618788989146,-0.0017548979202029,0.0040563573129475,0.0002654088311829,-0.0037910772953182,0.0001189401809825,-0.0001427652314305,-0.0001788293011487,,0.0000000000000000,0.0000000000000000,
1559013413.6204507350921631,0.8663098812103271,,0.0018282349828294,-0.0021757249078426,-0.0016554980072646,0.0000124715668643,-0.0000297107689792,0.0000258384118077,0.9999999991470534,-0.0741437388943496,0.2425030081293125,0.0034448362777231,0.0029246851264085,-0.0034065757217939,-0.0023023864430272,0.0001240333574065,0.0001585183175578,0.0000582371646342,,0.0036291435458029,0.0025966150466021,-0.0043469637549630,0.0000571760738891,0.0003901364780748,-0.0000200743580797,0.9999999220607196,-0.0690446522828446,0.2906071492304136,-0.0018773020674637,0.0051087369211018,0.0014169181231409,0.0000617773694103,-0.0004234086372890,-0.0003483407199383,-0.0010793746914715,,0.0000000000000000,0.0000000000000000,
1559013413.6537706851959229,0.8996298313140869,,0.0019290222770241,-0.0022810238877890,-0.0017503551956592,0.0000123438905426,-0.0000333561409426,0.0000279908009060,0.9999999989757558,-0.0741573276496597,0.2420856022852901,0.0036920301565118,0.0032885169463487,-0.0041744818901002,-0.0029041395518835,-0.0004136805087811,0.0001528118257950,0.0005857079185466,,0.0036291435458029,0.0025966150466021,-0.0043469637549630,0.0000571760738891,0.0003901364780748,-0.0000200743580797,0.9999999220607196,-0.0690446522828446,0.2906071492304136,-0.0018773020674637,0.0051087369211018,0.0014169181231409,0.0000617773694103,-0.0004234086372890,-0.0003483407199383,-0.0010793746914715,,0.0000000000000000,0.0000000000000000,
1559013413.6870906352996826,0.9329497814178467,,0.0020090232166243,-0.0021759543331791,-0.0018749181294778,0.0000004454470446,-0.0000293057837529,0.0000322386106930,0.9999999990508223,-0.0755187033546889,0.2425504186540967,0.0041782306862949,0.0030564282922244,-0.0043664919659121,-0.0028533413607707,-0.0012110265889446,0.0004180645457760,0.0003135917814306,,0.0036291435458029,0.0025966150466021,-0.0043469637549630,0.0000571760738891,0.0003901364780748,-0.0000200743580797,0.9999999220607196,-0.0690446522828446,0.2906071492304136,-0.0018773020674637,0.0051087369211018,0.0014169181231409,0.0000617773694103,-0.0004234086372890,-0.0003483407199383,-0.0010793746914715,,0.0000000000000000,0.0000000000000000,
1559013413.7204108238220215,0.9662699699401855,,0.0020895176675277,-0.0022766981874868,-0.0019510801273313,-0.0000086926755249,-0.0000273558875466,0.0000328663820727,0.9999999990479469,-0.0765655422061729,0.2427739894087373,0.0042499025615887,0.0038320935859164,-0.0050173086131794,-0.0045150258836129,-0.0004097003673524,-0.0009124190016680,0.0005782410886782,,0.0036291435458029,0.0025966150466021,-0.0043469637549630,0.0000571760738891,0.0003901364780748,-0.0000200743580797,0.9999999220607196,-0.0690446522828446,0.2906071492304136,-0.0018773020674637,0.0051087369211018,0.0014169181231409,0.0000617773694103,-0.0004234086372890,-0.0003483407199383,-0.0010793746914715,,0.0000000000000000,0.0000000000000000,
1559013413.7537307739257812,0.9995899200439453,,0.0021639180548843,-0.0023568107318316,-0.0020130300438069,-0.0000038575205638,-0.0000285997828405,0.0000372261118851,0.9999999988906944,-0.0760093482950554,0.2426320922440553,0.0047496682598600,0.0036078324614196,-0.0048385964268267,-0.0027214211057170,0.0001189234778119,0.0001547659429960,0.0005908316624779,,0.0029954825554080,0.0032025419981495,0.0006789376870445,0.0000544467831987,0.0004025603575399,-0.0000166703444748,0.9999999173513996,-0.0693556131155782,0.2920313069036726,-0.0014891490537248,0.0025517339818180,0.0034124318044633,0.0093907183036208,0.0006610900745727,-0.0005176760023460,0.0005640679155476,,0.0000000000000000,0.0000000000000000,
1559013413.7870507240295410,1.0329098701477051,,0.0022551650852800,-0.0024612861077209,-0.0020885545043882,0.0000003391254077,-0.0000279655288944,0.0000419839499197,0.9999999987275812,-0.0755261210873756,0.2427054732864058,0.0052947711915786,0.0034225098613009,-0.0027547904175700,-0.0025155209359963,0.0001281481948534,0.0004285783767131,-0.0004724906064365,,0.0029821578802633,0.0023954715740928,-0.0033581745908973,0.0000636555501370,0.0004000566115030,-0.0000217090852176,0.9999999177156937,-0.0683030665391002,0.2917436920126553,-0.0020657681279611,0.0022860211320221,-0.0006600108463317,0.0015310561284423,-0.0004109627625439,-0.0006739070522599,-0.0001190709881485,,0.0000000000000000,0.0000000000000000,
1559013413.8203706741333008,1.0662298202514648,,0.0023494519818894,-0.0025016798408916,-0.0021826036538829,-0.0000041872683036,-0.0000285715671575,0.0000462585947605,0.9999999985131375,-0.0760427216894665,0.2426366963417634,0.0057847197309539,0.0038004357778725,-0.0041034536296947,-0.0039783328298268,-0.0004126854748160,-0.0001134958828585,0.0005838412149495,,0.0028483643782737,0.0054159764026453,-0.0048358352553247,0.0000756474026680,0.0004063720092715,-0.0000323465478623,0.9999999140464770,-0.0669346459473181,0.2924658971404100,-0.0032850968095539,0.0015071481466293,0.0085062691941857,-0.0014686621725559,-0.0004123515100218,-0.0004598114755936,-0.0001185764558613,,0.0000000000000000,0.0000000000000000,
1559013413.8536908626556396,1.0995500087738037,,0.0023494519818894,-0.0025016798408916,-0.0021826036538829,-0.0000041872683036,-0.0000285715671575,0.0000462585947605,0.9999999985131375,-0.0760427216894665,0.2426366963417634,0.0057847197309539,0.0038004357778725,-0.0041034536296947,-0.0039783328298268,-0.0004126854748160,-0.0001134958828585,0.0005838412149495,,0.0052727955121410,0.0028594060605301,-0.0016091656637851,0.0000741511501028,0.0004075664680992,-0.0000336539987448,0.9999999136292910,-0.0671068135670647,0.2926025797277269,-0.0034351616037410,0.0104847270995378,-0.0010913329897448,0.0042982785962522,0.0000560693915759,0.0001306207850575,-0.0007089182618074,,0.0000000000000000,0.0000000000000000,
1559013413.8870108127593994,1.1328699588775635,,0.0025875980056325,-0.0026764733187199,-0.0024343687281083,-0.0000120068907413,-0.0000380691228724,0.0000365769623704,0.9999999985343512,-0.0769435479411415,0.2415469225647721,0.0046767514597189,0.0039436893621363,-0.0021346241130368,-0.0044041722661961,0.0004004204030145,-0.0011682908137752,-0.0004811289988441,,0.0054303640759792,0.0028405871846140,-0.0015512931906976,0.0000727297327581,0.0004122941432348,-0.0000389757507913,0.9999999116024042,-0.0672725866643876,0.2931435651078277,-0.0040457387794924,0.0105438055470586,-0.0008907766314223,0.0042810388840735,0.0001138636871474,-0.0001375615538564,-0.0004429370164871,,0.0000000000000000,0.0000000000000000,
1559013413.9203307628631592,1.1661899089813232,,0.0027559483364223,-0.0028209406861922,-0.0025778128403756,-0.0000318462436389,-0.0000445753173396,0.0000335922310056,0.9999999979352100,-0.0792184456914216,0.2408009895539715,0.0043358172360204,0.0039588775973178,-0.0044131248677656,-0.0035878600119483,-0.0004152404139067,-0.0001153720661556,0.0008501384568181,,0.0054303640759792,0.0028405871846140,-0.0015512931906976,0.0000727297327581,0.0004122941432348,-0.0000389757507913,0.9999999116024042,-0.0672725866643876,0.2931435651078277,-0.0040457387794924,0.0105438055470586,-0.0008907766314223,0.0042810388840735,0.0001138636871474,-0.0001375615538564,-0.0004429370164871,,0.0000000000000000,0.0000000000000000,
1559013413.9536507129669189,1.1995098590850830,,0.0027629603468833,-0.0024925882082117,-0.0026931025740673,-0.0000323190992247,-0.0000407404035729,0.0000393925147061,0.9999999978719626,-0.0792697930521913,0.2412413378320316,0.0049998946751498,0.0034022600457717,-0.0032772497972596,-0.0025805467308056,0.0011785914080323,0.0009557211057030,0.0008729765010120,,0.0042457708010142,0.0032688893773403,-0.0056604679087909,0.0000648888487885,0.0004357793942480,-0.0000388127972930,0.9999999021896570,-0.0681711214985140,0.2958347627029305,-0.0040308126094763,0.0040785656310618,0.0004996526986361,-0.0031115380115807,-0.0004219063557684,-0.0014084292342886,-0.0011841928353533,,0.0000000000000000,0.0000000000000000,
1559013413.9869606494903564,1.2328197956085205,,0.0029427768787236,-0.0026821792004394,-0.0028845900128660,-0.0000323773833243,-0.0000297711183506,0.0000530476761631,0.9999999976256648,-0.0792697602173166,0.2425004387507582,0.0065629752443465,0.0032010221076093,-0.0039247891714609,-0.0047146012293531,-0.0004122553104588,-0.0009142951783766,0.0008445383394730,,0.0017202034351819,0.0019900629173381,0.0072379787002510,0.0000717982285343,0.0004393324456583,-0.0000273138883466,0.9999999005429790,-0.0673731475188560,0.2962435873813040,-0.0027132812992026,-0.0048331981524825,-0.0074150282889605,0.0200688168406487,0.0011818874627352,-0.0009863661834970,-0.0003966653603129,,0.0000000000000000,0.0000000000000000,
1559013414.0202808380126953,1.2661399841308594,,0.0029624085447044,-0.0030909471342386,-0.0020194289714989,-0.0000318016281076,-0.0000334516019249,0.0000524951914394,0.9999999975569509,-0.0792040731110478,0.2420785977780451,0.0065002323013773,0.0020269185057099,-0.0017724667881770,-0.0012502651325163,0.0001236031801817,0.0009593176200284,-0.0002024599336597,,0.0017202034351819,0.0019900629173381,0.0072379787002510,0.0000717982285343,0.0004393324456583,-0.0000273138883466,0.9999999005429790,-0.0673731475188560,0.2962435873813040,-0.0027132812992026,-0.0048331981524825,-0.0074150282889605,0.0200688168406487,0.0011818874627352,-0.0009863661834970,-0.0003966653603129,,0.0000000000000000,0.0000000000000000,
1559013414.0536007881164551,1.2994599342346191,,0.0030740771300806,-0.0031770446828032,-0.0021294330369888,-0.0000303116592949,-0.0000320244353839,0.0000561763501581,0.9999999974499283,-0.0790315306507107,0.2422426989719510,0.0069218390728883,0.0042826415247344,-0.0026940189599488,-0.0050860151170332,0.0001254585657504,-0.0009085887661056,0.0003170675479945,,-0.0001918267742289,0.0014583252582462,-0.0051793105503548,0.0000672918954053,0.0004469704203664,-0.0000485581158316,0.9999998966656715,-0.0679011019789145,0.2971157712807340,-0.0051490438799222,-0.0097791878506541,-0.0069832173176110,-0.0047325701452792,0.0013753385283053,0.0003016986011062,-0.0014640276785940,,0.0000000000000000,0.0000000000000000,
1559013414.0869207382202148,1.3327798843383789,,0.0031795385224214,-0.0031272217751841,-0.0022151571633043,-0.0000268108664607,-0.0000305768204660,0.0000585379719066,0.9999999974597708,-0.0786292077863285,0.2424089248502782,0.0071922271438946,0.0040428462922862,-0.0021448200770240,-0.0030881297077297,-0.0001387186594139,-0.0001068903343838,-0.0002124886785942,,-0.0003862388438266,0.0013193463922199,-0.0052756966752279,0.0000762091679498,0.0004512275026457,-0.0000531757478453,0.9999998938791161,-0.0668817920699509,0.2976029888637595,-0.0056783421457382,-0.0093114748597145,-0.0073452508077025,-0.0049650780856609,0.0013335975818336,0.0000820299610496,-0.0005578060518019,,0.0000000000000000,0.0000000000000000,
1559013414.1202406883239746,1.3660998344421387,,0.0032982476473169,-0.0032100680368742,-0.0023003710427051,-0.0000329240024346,-0.0000355605956437,0.0000579511350656,0.9999999971465600,-0.0793300378773539,0.2418377769474673,0.0071257733501321,0.0038683996687934,-0.0020106631030498,-0.0032939326916422,-0.0006632276668537,-0.0009040152032643,-0.0007558070339154,,-0.0005695107067441,0.0011753494670631,-0.0053720416089590,0.0000732402329876,0.0004666305450950,-0.0000575712412892,0.9999998867886710,-0.0672245097017332,0.2993674002054934,-0.0061843887103450,-0.0087402760982513,-0.0075568733736873,-0.0051086759194732,-0.0005755241727456,0.0005565957981162,0.0000478677466162,,0.0000000000000000,0.0000000000000000,
1559013414.1535606384277344,1.3994197845458984,,0.0034797381882674,-0.0035025082606993,-0.0023201429553026,-0.0000333127832784,-0.0000280184531485,0.0000469497880764,0.9999999979504712,-0.0793799191552242,0.2427003400929321,0.0058639347397615,0.0033127077024705,-0.0030834233007531,-0.0023726255972731,-0.0004060156923299,0.0001584403193806,-0.0002131838397720,,0.0054194410451250,0.0039221283223847,-0.0059444888312575,0.0000707223501789,0.0004701856227759,-0.0000471678987493,0.9999998858495028,-0.0675073877342590,0.2997762539914523,-0.0049928816865142,0.0113711925223470,0.0025506995152682,-0.0051999506540596,-0.0004708282649517,0.0001321081072092,-0.0002189685619669,,0.0000000000000000,0.0000000000000000,
1559013414.1868808269500732,1.4327399730682373,,0.0035780417757771,-0.0035859138851923,-0.0024081167165912,-0.0000314203294985,-0.0000236023115686,0.0000444988837071,0.9999999982377715,-0.0791642378747081,0.2432060027699663,0.0055823901536247,0.0030880871254688,-0.0021974963043451,-0.0027671785503292,-0.0006691978769723,0.0006938310459245,-0.0007446067781496,,0.0017337937437958,0.0027914976925686,-0.0073980466569868,0.0000657147087486,0.0004684735527028,-0.0000318904734004,0.9999998875985463,-0.0680728783992629,0.2995822330364225,-0.0032422190918197,-0.0032952094916254,-0.0025957324542105,-0.0077453418634832,-0.0003198916092515,-0.0001808123633964,-0.0010700231650844,,0.0000000000000000,0.0000000000000000,
1559013414.2202007770538330,1.4660599231719971,,0.0036585627242769,-0.0034082381340519,-0.0024684129697050,-0.0000346545120700,-0.0000202089131166,0.0000508317906183,0.9999999979033968,-0.0795317327787374,0.2435958559401029,0.0063075761333243,0.0028573144834052,-0.0026614827135879,-0.0039117382340636,-0.0004055855184199,-0.0006423589839409,0.0000475132731090,,0.0017337937437958,0.0027914976925686,-0.0073980466569868,0.0000657147087486,0.0004684735527028,-0.0000318904734004,0.9999998875985463,-0.0680728783992629,0.2995822330364225,-0.0032422190918197,-0.0032952094916254,-0.0025957324542105,-0.0077453418634832,-0.0003198916092515,-0.0001808123633964,-0.0010700231650844,,0.0000000000000000,0.0000000000000000,
1559013414.2535207271575928,1.4993798732757568,,0.0037382235587242,-0.0034987885955814,-0.0025588900850606,-0.0000474894814004,-0.0000265914083102,0.0000555084266936,0.9999999969782304,-0.0810002588913564,0.2428652835288719,0.0068445123616169,0.0027322279611331,-0.0035172654520385,-0.0022584178552706,-0.0009478444010690,-0.0001173262332071,0.0008450147025772,,0.0001515348646201,0.0012294817827928,-0.0051123345942179,0.0000495634790215,0.0004787440758719,-0.0000295359639095,0.9999998837375924,-0.0699224355375030,0.3007594300014954,-0.0029747703706644,-0.0074289659969509,-0.0072463871911168,-0.0031776153482497,0.0000637078628642,-0.0005068728933111,-0.0000599529594183,,0.0000000000000000,0.0000000000000000,
1559013414.2868406772613525,1.5326998233795166,,0.0038309195954735,-0.0035558499286031,-0.0025103318328661,-0.0000617115899145,-0.0000236298849662,0.0000609106993432,0.9999999959615975,-0.0826273330833343,0.2432055938666113,0.0074631469249143,0.0032557079093211,-0.0018103716686574,-0.0029902447889646,-0.0006774275662343,0.0001537108965787,0.0003168487918841,,0.0001515348646201,0.0012294817827928,-0.0051123345942179,0.0000495634790215,0.0004787440758719,-0.0000295359639095,0.9999998837375924,-0.0699224355375030,0.3007594300014954,-0.0029747703706644,-0.0074289659969509,-0.0072463871911168,-0.0031776153482497,0.0000637078628642,-0.0005068728933111,-0.0000599529594183,,0.0000000000000000,0.0000000000000000,
1559013414.3201606273651123,1.5660197734832764,,0.0039456269582405,-0.0035972872473658,-0.0026764150643295,-0.0000715439198499,-0.0000295882855726,0.0000630942807767,0.9999999950125564,-0.0837530060079731,0.2425232286407639,0.0077143446955792,0.0030340309608363,-0.0016692579411711,-0.0056852132140287,-0.0006779924319299,-0.0003807807075070,0.0005794126123324,,0.0034192999153591,0.0010579430106152,0.0064953994279523,0.0000345271351897,0.0005111463805106,-0.0000263829984575,0.9999998684205874,-0.0716438772364495,0.3044728703048402,-0.0026190585096938,0.0061334241181612,-0.0059950468130410,0.0181544125080109,-0.0012176220770925,0.0004556177300401,-0.0002580562722869,,0.0000000000000000,0.0000000000000000,
1559013414.3534808158874512,1.5993399620056152,,0.0040199470571727,-0.0035906358097172,-0.0027855016315567,-0.0000910663714728,-0.0000299529408464,0.0000644206118933,0.9999999933298610,-0.0859894685085920,0.2424817977679439,0.0078664571601897,0.0023179531503065,-0.0008401233499703,-0.0029295162464992,-0.0006691978840360,0.0006938310366109,-0.0007446067689205,,0.0054834424333086,0.0016926963640627,0.0094367202161087,0.0000273884684487,0.0005074995475433,-0.0000298596187091,0.9999998704012337,-0.0724638084152833,0.3040544374464539,-0.0030173332102161,0.0127890296280384,-0.0033393080811948,0.0213937424123287,-0.0004166825674474,-0.0008206978673115,-0.0004262244328856,,0.0000000000000000,0.0000000000000000,
1559013414.3868007659912109,1.6326599121093750,,0.0041203476095533,-0.0036963080160522,-0.0028998442750690,-0.0000992349686665,-0.0000328161757922,0.0000641081317573,0.9999999924828337,-0.0869256923617699,0.2421537051110252,0.0078311424647167,0.0021498547706879,-0.0030433523109132,-0.0002572040439429,-0.0004080057702967,0.0006910557354452,-0.0002094504056035,,0.0021895927776940,0.0029798482027788,-0.0017919951850399,0.0000030791525065,0.0005051542388313,-0.0000423319240284,0.9999998715088527,-0.0752563039453160,0.3037837185136449,-0.0044476326101652,-0.0012074953410774,0.0004014892037958,0.0003388677432667,0.0008526051533408,0.0004610072937794,-0.0004364303313196,,0.0000000000000000,0.0000000000000000,
1559013414.4201207160949707,1.6659798622131348,,0.0041535076833092,-0.0037076078187247,-0.0026655104748544,-0.0000970001571383,-0.0000320120318398,0.0000597638560521,0.9999999929972405,-0.0866717172091186,0.2422451319454840,0.0073331823541766,0.0019955964059975,-0.0035888322567452,-0.0017256612663943,-0.0006789874717432,-0.0001144729924841,0.0005812793297593,,0.0021895927776940,0.0029798482027788,-0.0017919951850399,0.0000030791525065,0.0005051542388313,-0.0000423319240284,0.9999998715088527,-0.0752563039453160,0.3037837185136449,-0.0044476326101652,-0.0012074953410774,0.0004014892037958,0.0003388677432667,0.0008526051533408,0.0004610072937794,-0.0004364303313196,,0.0000000000000000,0.0000000000000000,
1559013414.4534406661987305,1.6992998123168945,,0.0042328435808170,-0.0038288527189882,-0.0027912264793363,-0.0001049295075555,-0.0000413852741221,0.0000739655178695,0.9999999909030800,-0.0875734939951251,0.2411734096437024,0.0089621438387909,0.0029551623958875,-0.0037100972887324,-0.0068293948029559,-0.0004108301053002,-0.0019814022742784,0.0011033687109682,,-0.0007866698724696,0.0029451451510226,-0.0125814430728610,0.0000157986888046,0.0005139369134954,-0.0000352755177775,0.9999998671874353,-0.0737949123807431,0.3047912550751987,-0.0036395933932186,-0.0114227980375290,-0.0008283081115223,-0.0189164131879807,0.0010380750754848,-0.0000468051694043,-0.0000632364171906,,0.0000000000000000,0.0000000000000000,
1559013414.4867608547210693,1.7326200008392334,,0.0042810969749536,-0.0036647587038799,-0.0029465021763284,-0.0001037721807132,-0.0000504096531417,0.0000821057769905,0.9999999899744215,-0.0874369878100482,0.2401406099616637,0.0098964215021138,0.0023275385164882,-0.0034647220090120,-0.0043780707892776,0.0003872155388930,-0.0003768724920620,0.0005896600837256,,-0.0010190916370042,0.0029305503448535,-0.0129715628905499,0.0000147787733985,0.0005115638677940,-0.0000305568678146,0.9999998685751288,-0.0739091776481601,0.3045200255605026,-0.0030985740714162,-0.0116727147251368,-0.0011033358750865,-0.0203522164374590,-0.0005853964248672,0.0004621939733624,-0.0006874375976622,,0.0000000000000000,0.0000000000000000,
1559013414.5200808048248291,1.7659399509429932,,0.0043864008542429,-0.0037782190002065,-0.0030615959784146,-0.0001008631562064,-0.0000536097205948,0.0000790833031893,0.9999999903492265,-0.0871051341479481,0.2397733906136534,0.0095505725617715,0.0039791534111486,-0.0031241726590035,-0.0019137771407724,0.0001291432154430,0.0001622706044594,-0.0004743573426235,,-0.0010190916370042,0.0029305503448535,-0.0129715628905499,0.0000147787733985,0.0005115638677940,-0.0000305568678146,0.9999998685751288,-0.0739091776481601,0.3045200255605026,-0.0030985740714162,-0.0116727147251368,-0.0011033358750865,-0.0203522164374590,-0.0005853964248672,0.0004621939733624,-0.0006874375976622,,0.0000000000000000,0.0000000000000000,
1559013414.5534007549285889,1.7992599010467529,,0.0045270424223081,-0.0037684504787439,-0.0028917518285718,-0.0000976072253569,-0.0000384426867741,0.0000693594154946,0.9999999920921304,-0.0867366446154118,0.2415097953604613,0.0084338070490569,0.0047190375320669,-0.0042486965167180,-0.0003931782304741,-0.0004166656332553,0.0009517348837213,0.0005913080270159,,-0.0014186147277336,0.0028985353920135,-0.0137229153900472,-0.0000057996978002,0.0005104819711338,-0.0000229059692081,0.9999998694249101,-0.0762630878852232,0.3043971376825290,-0.0022228761208905,-0.0113122472539544,-0.0013487567193806,-0.0224984772503376,0.0019746769685298,0.0005661716568284,0.0000881503365235,,0.0000000000000000,0.0000000000000000,
1559013414.5867207050323486,1.8325798511505127,,0.0047041134803973,-0.0038847735864327,-0.0029235010266482,-0.0001082060233878,-0.0000203446858529,0.0000723713148006,0.9999999913199716,-0.0879495715614677,0.2435842481399801,0.0087760355229599,0.0055047302271818,-0.0039052746803571,-0.0024948424836349,-0.0004146755630265,0.0004191194654410,0.0005875745998043,,0.0019871844674433,0.0011427158324406,0.0014052757964757,0.0000145126597581,0.0004981842610422,-0.0000104171448080,0.9999998757466462,-0.0739285600851628,0.3029898472145832,-0.0007887165253009,0.0037218257784843,-0.0071086878888309,0.0082138963043690,0.0013264474691823,-0.0008638858562335,-0.0011839268263429,,0.0000000000000000,0.0000000000000000,
1559013414.6200406551361084,1.8658998012542725,,0.0049354952475467,-0.0039509175522749,-0.0026520210622095,-0.0001067817677182,-0.0000109286474392,0.0000794540437459,0.9999999910826368,-0.0877828177042513,0.2446643905876248,0.0095861217528508,0.0045587898897093,-0.0044545624347666,-0.0035160221617235,-0.0001499334712504,0.0001519126318627,0.0008545670017233,,0.0047568128774480,0.0037095875125719,0.0024648328165501,0.0000356404946868,0.0005075731344468,-0.0000260096516513,0.9999998702113747,-0.0715160763899768,0.3040634651266995,-0.0025756846490801,0.0136421741917729,0.0022794245742261,0.0105858491733670,0.0010575925698504,0.0012645954266191,-0.0008035744540393,,0.0000000000000000,0.0000000000000000,
1559013414.6533608436584473,1.8992199897766113,,0.0050616114601270,-0.0040612756267066,-0.0027538087189692,-0.0001049180149647,-0.0000125655956631,0.0000823084161557,0.9999999910298203,-0.0875678613731486,0.2444772589456503,0.0099134760893446,0.0037306169330500,-0.0033217869883578,-0.0032960341558149,0.0001285783452719,-0.0003722210159180,-0.0002117935194137,,0.0047568128774480,0.0037095875125719,0.0024648328165501,0.0000356404946868,0.0005075731344468,-0.0000260096516513,0.9999998702113747,-0.0715160763899768,0.3040634651266995,-0.0025756846490801,0.0136421741917729,0.0022794245742261,0.0105858491733670,0.0010575925698504,0.0012645954266191,-0.0008035744540393,,0.0000000000000000,0.0000000000000000,
1559013414.6866807937622070,1.9325399398803711,,0.0052162383575007,-0.0045825141236393,-0.0026573095676165,-0.0000979123578862,-0.0000183923632766,0.0000746074011302,0.9999999922543135,-0.0867688945704942,0.2438082451606023,0.0090319334240966,0.0042552598004361,-0.0044150699515026,-0.0028313924270795,0.0001209135306017,-0.0003778495637487,0.0005870982124996,,0.0052291259185608,0.0066394057520543,0.0041492087002540,0.0000389100275542,0.0005036717400379,-0.0000269764555915,0.9999998720365213,-0.0711419311843265,0.3036162666879023,-0.0026857110020908,0.0098902173340321,0.0114108640700579,0.0103509873151779,0.0004561709356494,0.0000499343514093,-0.0024497949052602,,0.0000000000000000,0.0000000000000000,
1559013414.7200007438659668,1.9658598899841309,,0.0053816293727604,-0.0047062561873805,-0.0027419851612764,-0.0000997603447588,-0.0000136284965236,0.0000769384091413,0.9999999919713095,-0.0869794779926742,0.2443545381875378,0.0092982790232311,0.0052202913253266,-0.0044784996831866,-0.0023436073082048,-0.0004182255139285,0.0006835509628500,0.0008557385308031,,0.0048463070129249,-0.0018530932854782,-0.0043371194688543,0.0000496536779303,0.0005462905973898,-0.0000412375629876,0.9999998487002679,-0.0699188675543722,0.3084979834910337,-0.0043255173052810,0.0092678898945451,-0.0197609998285770,-0.0056686224415898,0.0003229734138586,0.0009426797041669,0.0000063279644564,,0.0000000000000000,0.0000000000000000,
1559013414.7533206939697266,1.9991798400878906,,0.0056123962571528,-0.0046577443281188,-0.0027959542827422,-0.0001067079904422,-0.0000086713089383,0.0000884580959002,0.9999999903566894,-0.0877699249004861,0.2449245320987567,0.0106175497442513,0.0061636009218596,-0.0047104604139165,-0.0036581854614684,-0.0009452894566751,-0.0001154500914371,0.0005787174226829,,0.0048463070129249,-0.0018530932854782,-0.0043371194688543,0.0000496536779303,0.0005462905973898,-0.0000412375629876,0.9999998487002679,-0.0699188675543722,0.3084979834910337,-0.0043255173052810,0.0092678898945451,-0.0197609998285770,-0.0056686224415898,0.0003229734138586,0.0009426797041669,0.0000063279644564,,0.0000000000000000,0.0000000000000000,
1559013414.7866406440734863,2.0324997901916504,,0.0058014286356480,-0.0047545445713597,-0.0028799338842063,-0.0000970890138595,0.0000015781063207,0.0000775713838606,0.9999999922769567,-0.0866729310924294,0.2460971638876268,0.0093683421879525,0.0051979629552898,-0.0021908600641329,-0.0022689261594908,0.0006684169944379,0.0004361609457510,-0.0012662586385512,,0.0052264772958771,-0.0026613178782102,-0.0045826045094389,0.0000475461241026,0.0005503896550055,-0.0000303206917289,0.9999998469456131,-0.0701543412170739,0.3089692817089975,-0.0030752484778133,0.0105025302618742,-0.0202286429703236,-0.0065599353983998,-0.0001585589197930,0.0001465858949814,-0.0005223532207310,,0.0000000000000000,0.0000000000000000,
1559013414.8199608325958252,2.0658199787139893,,0.0059234058778930,-0.0044225933007612,-0.0026004086598821,-0.0000761240156764,0.0000031582685888,0.0000674227779750,0.9999999948246643,-0.0842755013733667,0.2462764286371545,0.0082051395151828,0.0054447806248741,-0.0043823833559215,-0.0031261791211019,0.0009182596260676,-0.0006431022893989,0.0008592143422135,,0.0018265234022796,0.0015953799455236,-0.0011554579264682,0.0000444837004642,0.0005729476672168,-0.0000262091427368,0.9999998345326123,-0.0705030742439686,0.3115548276295116,-0.0026075822996182,-0.0026890477165580,-0.0041862255893648,-0.0000044877328946,0.0005216741119511,0.0008985064923763,-0.0011142032453790,,0.0000000000000000,0.0000000000000000,
1559013414.8532807826995850,2.0991399288177490,,0.0060807887840553,-0.0045080717819382,-0.0026639788252505,-0.0000742446915026,0.0000042134807639,0.0000676220203256,0.9999999949486175,-0.0840600411649841,0.2463973642105225,0.0082278034696777,0.0052321099929136,-0.0030053242019815,-0.0025575823839628,0.0001199184819752,-0.0001115418907647,0.0005889649346532,,0.0017678621869116,0.0015124191525959,-0.0011558191354735,0.0000500246131654,0.0005711314993747,-0.0000341708840095,0.9999998350693360,-0.0698725603466937,0.3113455691600101,-0.0035193152565481,-0.0028836037963629,-0.0044308807700872,0.0001653605722822,-0.0004792680847459,0.0003601763455663,-0.0004656376258936,,0.0000000000000000,0.0000000000000000,
1559013414.8865907192230225,2.1324498653411865,,0.0062010192160862,-0.0046003181145290,-0.0027316863060014,-0.0000751452969734,0.0000078611167429,0.0000778402018639,0.9999999941161452,-0.0841581823542412,0.2468169910251038,0.0093981475192628,0.0038621418407688,-0.0034396079709206,-0.0021611084947886,0.0001128185339168,0.0004173211595482,0.0011252928418968,,0.0017678621869116,0.0015124191525959,-0.0011558191354735,0.0000500246131654,0.0005711314993747,-0.0000341708840095,0.9999998350693360,-0.0698725603466937,0.3113455691600101,-0.0035193152565481,-0.0028836037963629,-0.0044308807700872,0.0001653605722822,-0.0004792680847459,0.0003601763455663,-0.0004656376258936,,0.0000000000000000,0.0000000000000000,
1559013414.9199106693267822,2.1657698154449463,,0.0063227280917413,-0.0046989736753601,-0.0028088623260487,-0.0000953463309419,0.0000101457178334,0.0000811808914210,0.9999999921079022,-0.0864713846770166,0.2470795081811759,0.0097805769166963,0.0041109540857113,-0.0024488034735540,-0.0024289854241898,-0.0014661138280575,0.0001582843872764,-0.0007560257809572,,0.0035853931829597,0.0016109033633505,0.0015901379357438,0.0000526102442627,0.0005726425298447,-0.0000379765869908,0.9999998339352233,-0.0695783964641965,0.3115181782101862,-0.0039554728880048,0.0037116021849215,-0.0034948575776070,0.0057091480121017,0.0006449705688283,0.0007822083425708,0.0002719526237343,,0.0000000000000000,0.0000000000000000,
1559013414.9532308578491211,2.1990900039672852,,0.0063920984287689,-0.0047217008019164,-0.0025597048856348,-0.0000987766460256,0.0000097053242721,0.0000817063644606,0.9999999917365254,-0.0868642146059675,0.2470291600945149,0.0098408596824758,0.0040112762432008,-0.0028761867762269,-0.0024183928242082,-0.0001387186977300,-0.0001068904017175,-0.0002124886646730,,0.0037245920093585,0.0014593189274381,0.0018194195298815,0.0000452053608667,0.0005873934933458,-0.0000412583801236,0.9999998256115376,-0.0704288468814915,0.3132080009324146,-0.0043341840155431,0.0031235220376402,-0.0038933986797929,0.0055238688364625,0.0007684917072766,-0.0006610307609662,0.0011769605334848,,0.0000000000000000,0.0000000000000000,
1559013414.9865508079528809,2.2324099540710449,,0.0066501736277031,-0.0049071548025955,-0.0026778585901239,-0.0000959939966656,0.0000120885491621,0.0000812882415655,0.9999999920156207,-0.0865455320434910,0.2473021634530423,0.0097925627596560,0.0047642854077019,-0.0025551496848849,-0.0011167224675738,0.0001226081168883,0.0012256251713543,-0.0002005932507667,,0.0018623154410093,0.0027256348443475,0.0001956494993356,0.0000609717752342,0.0005685389954785,-0.0000005049907428,0.9999998365227858,-0.0685993416432927,0.3110533887813620,0.0003396554353508,-0.0041805850341916,0.0011643896577880,0.0006084713968448,-0.0011163554154336,-0.0002244176284876,-0.0005613433313556,,0.0000000000000000,0.0000000000000000,
1559013415.0198707580566406,2.2657299041748047,,0.0066981535113608,-0.0044091182681840,-0.0027190119261008,-0.0000922276632070,0.0000144468576840,0.0000875329199256,0.9999999918116672,-0.0861108399781547,0.2475733798494845,0.0105077801804264,0.0060320564068620,-0.0026460281392686,-0.0034056983829450,0.0006550774078578,-0.0001077116191023,0.0003277914241192,,0.0029704976370324,0.0010159144944673,-0.0068657866970963,0.0000582245274008,0.0005601235302483,0.0000018985634455,0.9999998414339528,-0.0689128105575490,0.3100893950405605,0.0006161232992979,0.0019557164050639,-0.0059154736809433,-0.0117896087467670,-0.0002207496145274,0.0013766620540991,-0.0006734695052728,,0.0000000000000000,0.0000000000000000,
1559013415.0531907081604004,2.2990498542785645,,0.0068970698635313,-0.0045417228946423,-0.0028238603535166,-0.0000974612815193,0.0000144797773340,0.0000958192885738,0.9999999905551492,-0.0867064788840675,0.2475785490976325,0.0114573219195645,0.0051597833775110,-0.0030701657772764,-0.0022547385744863,0.0001265882165657,0.0001603943462636,-0.0002080600767045,,0.0029704976370324,0.0010159144944673,-0.0068657866970963,0.0000582245274008,0.0005601235302483,0.0000018985634455,0.9999998414339528,-0.0689128105575490,0.3100893950405605,0.0006161232992979,0.0019557164050639,-0.0059154736809433,-0.0117896087467670,-0.0002207496145274,0.0013766620540991,-0.0006734695052728,,0.0000000000000000,0.0000000000000000,
1559013415.0865106582641602,2.3323698043823242,,0.0070509572401665,-0.0045376025789430,-0.0028344480894270,-0.0000931507046697,0.0000153670507349,0.0000834672033031,0.9999999920600130,-0.0862186109871587,0.2476781776822660,0.0100417290917777,0.0048604770998277,-0.0018770997059280,-0.0025117072158506,-0.0003963608855400,-0.0003685466350364,-0.0010158089631163,,0.0029221986643147,0.0009211528264380,-0.0058647508733388,0.0000569818828218,0.0005542338034713,0.0000084162661342,0.9999998447535492,-0.0690515848017236,0.3094154253685485,0.0013637793337315,0.0021712789312005,-0.0055115297436714,-0.0089211678132415,0.0002103293809341,-0.0018684096867219,-0.0012658763444051,,0.0000000000000000,0.0000000000000000,
1559013415.1198308467864990,2.3656899929046631,,0.0071932381280544,-0.0046322832289473,-0.0029046407858034,-0.0001026229492054,0.0000150474917794,0.0000828796244161,0.9999999911865357,-0.0873043431671273,0.2476415538488249,0.0099744321815334,0.0048190489823879,-0.0019788122230723,-0.0023647640507918,-0.0001371588445673,0.0001612934770093,-0.0004769192051796,,0.0051925544355761,0.0023813793912971,-0.0010522355678721,0.0000469439347328,0.0005700122294068,-0.0000046649478309,0.9999998364302685,-0.0702091373472664,0.3112216003752460,-0.0001381758148190,0.0089325234293938,0.0004224320291542,0.0012637828476727,-0.0005778026534244,-0.0005969690391794,-0.0000826702453196,,0.0000000000000000,0.0000000000000000,
1559013415.1531507968902588,2.3990099430084229,,0.0073754076494212,-0.0045347652112967,-0.0029715253826069,-0.0001038673153822,0.0000204589244618,0.0000892332874999,0.9999999904152168,-0.0874437495980650,0.2482627051160386,0.0107016302535792,0.0047131116337587,-0.0020422429078133,-0.0029642776609433,0.0001240332731796,0.0001585181685875,0.0000582371503612,,0.0046368757536828,0.0024083626879825,-0.0023725760559474,0.0000458798311537,0.0005587346913442,0.0000202892320099,0.9999998426494540,-0.0703171895108751,0.3099329308591345,0.0027229777647251,0.0063844979740679,-0.0001243474544026,-0.0025399073492736,-0.0001940629445016,0.0010972442105412,0.0014111992204562,,0.0000000000000000,0.0000000000000000,
1559013415.1864707469940186,2.4323298931121826,,0.0075505707503740,-0.0046231488473573,-0.0030900846197150,-0.0001130097303300,0.0000125086167165,0.0000900703940646,0.9999999894798298,-0.0884910560073131,0.2473518986604620,0.0107988389511224,0.0046204124265818,-0.0006277331652278,-0.0026225866202003,0.0001362430813428,-0.0003665925135026,-0.0010106852452156,,0.0035860365057522,0.0049728162104847,-0.0003948088862355,0.0000461034086983,0.0005572411736923,0.0000432721577387,0.9999998427421228,-0.0702788005443683,0.3097651381373013,0.0053568951747581,0.0022059706971049,0.0089474814012647,0.0013144835829735,-0.0006860076682642,-0.0004370108363219,-0.0000765325530665,,0.0000000000000000,0.0000000000000000,
1559013415.2197906970977783,2.4656498432159424,,0.0076104505521006,-0.0045538709104712,-0.0029778778290387,-0.0001204865107199,0.0000121988987237,0.0000888313432698,0.9999999887215901,-0.0893484460986294,0.2473162804777659,0.0106568932540888,0.0042070812315718,-0.0029347691891992,-0.0008788117044961,-0.0001442588089676,0.0006901565303246,0.0000594087016730,,0.0035860365057522,0.0049728162104847,-0.0003948088862355,0.0000461034086983,0.0005572411736923,0.0000432721577387,0.9999998427421228,-0.0702788005443683,0.3097651381373013,0.0053568951747581,0.0022059706971049,0.0089474814012647,0.0013144835829735,-0.0006860076682642,-0.0004370108363219,-0.0000765325530665,,0.0000000000000000,0.0000000000000000,
1559013415.2531106472015381,2.4989697933197021,,0.0077848333292476,-0.0046480764660604,-0.0030468886975752,-0.0001156517795953,0.0000196734286054,0.0000899121912614,0.9999999890767101,-0.0887938218786132,0.2481729260431423,0.0107795288299834,0.0054027103456005,-0.0029024025753580,-0.0031224310881226,0.0001214783051780,0.0001566419841624,0.0003245343932267,,0.0036304880783306,0.0051519430538680,-0.0003610028637882,0.0000409396240160,0.0005788687692688,0.0000372948730190,0.9999998309219795,-0.0708737745339409,0.3122426262887678,0.0046684425669311,0.0018805343424901,0.0090315490961075,0.0019654412753880,-0.0017144266748801,0.0002639917656779,-0.0012922289315611,,0.0000000000000000,0.0000000000000000,
1559013415.2864308357238770,2.5322899818420410,,0.0079875889354211,-0.0046005502893192,-0.0029791215847667,-0.0001150126003649,0.0000181144642724,0.0000800601285396,0.9999999900171720,-0.0887254583390441,0.2479926571246599,0.0096508137145180,0.0066014369277382,-0.0013071676641660,-0.0048657017092690,-0.0003979208228985,-0.0006367305222941,-0.0007513784468068,,0.0036304880783306,0.0051519430538680,-0.0003610028637882,0.0000409396240160,0.0005788687692688,0.0000372948730190,0.9999998309219795,-0.0708737745339409,0.3122426262887678,0.0046684425669311,0.0018805343424901,0.0090315490961075,0.0019654412753880,-0.0017144266748801,0.0002639917656779,-0.0012922289315611,,0.0000000000000000,0.0000000000000000,
1559013415.3197507858276367,2.5656099319458008,,0.0081847632869856,-0.0046930303016804,-0.0030883945358371,-0.0001128780594906,0.0000282427297119,0.0000831429105868,0.9999999897740743,-0.0884792460443040,0.2491537557372544,0.0100024206341112,0.0053788597786103,-0.0021874318105367,-0.0029907656914976,0.0003918951287912,0.0004276790949930,-0.0002036315115069,,0.0024622045541892,0.0033692700341506,0.0010831382365003,0.0000311932746903,0.0005793344129262,0.0000361975982775,0.9999998310441615,-0.0719912381284506,0.3122958639970193,0.0045419871211058,-0.0010414639255032,0.0009290307061747,0.0048048202879727,0.0009482172317803,0.0003190914285369,-0.0010488524567336,,0.0000000000000000,0.0000000000000000,
1559013415.3530707359313965,2.5989298820495605,,0.0082610927897599,-0.0047808780085645,-0.0027970395312631,-0.0000972856971216,0.0000263971956415,0.0000815789772788,0.9999999915917759,-0.0866932829187584,0.2489418711104254,0.0098235556562553,0.0049430888732382,-0.0020762364698963,-0.0020188947123048,0.0006581971229849,0.0004286561517917,-0.0002010696439084,,-0.0009817813704339,-0.0000302048205232,-0.0113073154465510,0.0000366397794939,0.0005790403470259,0.0000539893675716,0.9999998302274612,-0.0713571827692653,0.3122647584925159,0.0065812067841531,-0.0103610353544354,-0.0106029035523534,-0.0180826224386692,0.0003542889317032,0.0002166567428503,-0.0017341335769743,,0.0000000000000000,0.0000000000000000,
1559013415.3863906860351562,2.6322498321533203,,0.0084338875555303,-0.0048691214069431,-0.0029201496253612,-0.0001007397176345,0.0000153774102502,0.0000849856538072,0.9999999911962416,-0.0870874982765747,0.2476796843097687,0.0102157170020754,0.0053612570269896,-0.0020337464494820,-0.0028808743808835,-0.0004070108511946,0.0004247478828849,-0.0002113171298273,,-0.0014185691403290,-0.0004501569395737,-0.0120030723032950,0.0000434684384757,0.0005856383472689,0.0000345169022151,0.9999998269733873,-0.0705855220237378,0.3130179456839972,0.0043492845201148,-0.0107360417023301,-0.0110346311703324,-0.0169592592865229,-0.0017026001587510,0.0004706384497695,-0.0002738574403338,,0.0000000000000000,0.0000000000000000,
1559013415.4197106361389160,2.6655697822570801,,0.0084902898649128,-0.0048524454719162,-0.0031257930916455,-0.0001068965869669,0.0000224376327247,0.0000831382496935,0.9999999905788520,-0.0877938731892289,0.2484884835791250,0.0100028541720370,0.0053946459830433,-0.0012810073478858,-0.0037433018060397,-0.0006682029689415,0.0004275231913067,-0.0007464734853680,,0.0003574812231935,0.0003619826310008,-0.0030307031033011,0.0000280967192277,0.0006463813474378,0.0000294119631035,0.9999997902683102,-0.0723496947302187,0.3199778806545092,0.0037542767039110,-0.0030758511275053,-0.0073704370297492,-0.0008689275127836,-0.0003743243869394,0.0005830600857735,-0.0002860996755771,,0.0000000000000000,0.0000000000000000,
1559013415.4530308246612549,2.6988899707794189,,0.0087055922064221,-0.0049364203204833,-0.0032703994283385,-0.0001063603315628,0.0000256507704671,0.0000789408007558,0.9999999908989340,-0.0877344712994205,0.2488559912050757,0.0095213346553994,0.0049144053213685,-0.0036057011084254,-0.0024735305593081,-0.0001483736819792,0.0004200964090942,0.0005901364614846,,0.0032467484218093,0.0019975254871323,0.0013584030478750,0.0000208630925172,0.0006477631435398,0.0000398047980743,0.9999997891915874,-0.0731727237161890,0.3201377922878259,0.0049444838312599,0.0078006898984313,-0.0011601021979004,0.0067432597279549,-0.0003846271429211,-0.0008461753022857,-0.0015661191428080,,0.0000000000000000,0.0000000000000000,
1559013415.4863507747650146,2.7322099208831787,,0.0087848396791741,-0.0045787026486969,-0.0029674462979794,-0.0001061390451132,0.0000189477300397,0.0000769345613770,0.9999999912282801,-0.0877101607191051,0.2480875506009457,0.0092925296057736,0.0063236542347523,-0.0016432059324658,-0.0044332433943518,0.0003978653359130,-0.0011701671760780,-0.0002148317931357,,0.0032467484218093,0.0019975254871323,0.0013584030478750,0.0000208630925172,0.0006477631435398,0.0000398047980743,0.9999997891915874,-0.0731727237161890,0.3201377922878259,0.0049444838312599,0.0078006898984313,-0.0011601021979004,0.0067432597279549,-0.0003846271429211,-0.0008461753022857,-0.0015661191428080,,0.0000000000000000,0.0000000000000000,
