#Time(sec),Dtime(sec),,x(m),y(m),z(m),qx,qy,qz,qw,roll_x_G(deg),pitch_y_G(deg),yaw_z_G(deg),vx(m/s),vy(m/s),vz(m/s),wx(rad/s),wy(rad/s),wz(rad/s),,gt_x(m),gt_y(m),gt_z(m),gt_qx,gt_qy,gt_qz,gt_qw,gt_groll_x_G(deg),gt_pitch_y_G(deg),gt_yaw_z_G(deg),gt_vx(m/s),gt_vy(m/s),gt_vz(m/s),gt_wx(rad/s),gt_wy(rad/s),gt_wz(rad/s),,Sr,Sr_avg,
1559013412.7541408538818359,0.0000000000000000,,0.0000000000000002,0.0000000000000001,-0.0000000000000001,0.0000000000000000,-0.0000000000000001,0.0000000000000000,1.0000000000000000,-0.0755855138669150,0.2459037397968158,0.0004794994091153,0.0000000000000000,0.0000000000000000,0.0000000000000000,0.0000000000000000,0.0000000000000000,0.0000000000000000,,0.0000000000000000,0.0000000000000000,0.0000000000000000,0.0000000000000000,0.0000000000000000,0.0000000000000000,1.0000000000000000,-0.0755855138669150,0.2459037397968215,0.0004794994091152,-0.0098102642223239,-0.0059528849087656,-0.0021041124127805,0.0008114594966173,-0.0000641869410174,-0.0007574954070151,,0.0000000000000000,0.0000000000000000,
1559013412.7874608039855957,0.0333199501037598,,0.0000000000000002,0.0000000000000001,-0.0000000000000001,0.0000000000000000,-0.0000000000000001,0.0000000000000000,1.0000000000000000,-0.0755855138669150,0.2459037397968158,0.0004794994091153,0.0000000000000000,0.0000000000000000,0.0000000000000000,0.0000000000000000,0.0000000000000000,0.0000000000000000,,0.0000000000000000,0.0000000000000000,0.0000000000000000,0.0000000000000000,0.0000000000000000,0.0000000000000000,1.0000000000000000,-0.0755855138669150,0.2459037397968215,0.0004794994091152,-0.0098102642223239,-0.0059528849087656,-0.0021041124127805,0.0008114594966173,-0.0000641869410174,-0.0007574954070151,,0.0000000000000000,0.0000000000000000,
1559013412.8207807540893555,0.0666399002075195,,0.0000219726581638,-0.0000260111889973,-0.0000459141663904,-0.0000208610050351,-0.0000137221306289,-0.0000034844792411,0.9999999996821901,-0.0779777081630646,0.2443307657790641,0.0000823114382821,0.0005549145090711,-0.0009140744155948,-0.0007645881653806,-0.0006713226546122,-0.0001088443910840,-0.0002176123651700,,0.0000000000000000,0.0000000000000000,0.0000000000000000,0.0000000000000000,0.0000000000000000,0.0000000000000000,1.0000000000000000,-0.0755855138669150,0.2459037397968215,0.0004794994091152,-0.0098102642223239,-0.0059528849087656,-0.0021041124127805,0.0008114594966173,-0.0000641869410174,-0.0007574954070151,,0.0000000000000000,0.0000000000000000,
1559013412.8541007041931152,0.0999598503112793,,0.0000608926743231,-0.0000640802948601,-0.0001140602429562,-0.0000373096937066,-0.0000189844924195,-0.0000087132854731,0.9999999990858274,-0.0798651435414091,0.2437269247291102,-0.0005160265755550,0.0011061855532015,-0.0033799717536283,-0.0017536299372295,-0.0014824384616985,0.0004133351236126,0.0008436244272202,,0.0026245542083911,0.0026448552001494,-0.0084863851899029,-0.0000333937179824,0.0001718520074773,-0.0000101301488424,0.9999999846245635,-0.0794174526191618,0.2655949411350161,-0.0007079784706163,0.0011400097282603,-0.0002242026966996,-0.0186141021549702,-0.0007273238734342,-0.0001038627669914,-0.0002373664610786,,0.0000000000000000,0.0000000000000000,
1559013412.8874206542968750,0.1332798004150391,,0.0001262903034411,-0.0001468154741993,-0.0002142065874932,-0.0000378024141703,-0.0000235806923088,-0.0000050935236011,0.9999999989944923,-0.0799198270708824,0.2432008019201591,-0.0001005132246582,0.0021184657892204,-0.0024107857097970,-0.0026184181863062,0.0001285783637746,-0.0003722209284548,-0.0002117934720251,,0.0013593040360304,0.0008173975454188,-0.0093296534036653,-0.0000343508870352,0.0001711666929228,0.0000003936259792,0.9999999847609122,-0.0795217528043334,0.2655180411741611,0.0004980565774619,-0.0027831455226988,-0.0074895452708006,-0.0201553516089916,-0.0013698628172278,0.0006960678729229,-0.0001766680798028,,0.0000000000000000,0.0000000000000000,
1559013412.9207408428192139,0.1665999889373779,,0.0001876071963411,-0.0002485065635448,-0.0002723575101359,-0.0000332340376668,-0.0000278667317498,-0.0000049033733097,0.9999999990474505,-0.0793962315090670,0.2427096905476230,-0.0000780715043153,0.0016332172232536,-0.0030002443095807,-0.0000183282768429,0.0009260591413560,0.0006978172556181,-0.0004629382745979,,0.0013044971720459,0.0006642558835833,-0.0097306379038952,-0.0000438730574526,0.0002087906767953,-0.0000009822662857,0.9999999772403214,-0.0806136494002281,0.2698292134783979,0.0003343256994272,-0.0023964915890247,-0.0079505480825901,-0.0198433436453342,0.0003404117596801,-0.0015395777300000,-0.0001423610374331,,0.0000000000000000,0.0000000000000000,
1559013412.9540607929229736,0.1999199390411377,,0.0002332928563638,-0.0003349555834341,-0.0002743247800222,-0.0000196489152603,-0.0000191362661342,-0.0000060110477636,0.9999999996057954,-0.0778400442623569,0.2437099649437939,-0.0002063855773677,0.0022267033864263,-0.0029219345499141,-0.0010275699642747,0.0011917962689379,0.0001643027142732,-0.0001978125823296,,0.0013044971720459,0.0006642558835833,-0.0097306379038952,-0.0000438730574526,0.0002087906767953,-0.0000009822662857,0.9999999772403214,-0.0806136494002281,0.2698292134783979,0.0003343256994272,-0.0023964915890247,-0.0079505480825901,-0.0198433436453342,0.0003404117596801,-0.0015395777300000,-0.0001423610374331,,0.0000000000000000,0.0000000000000000,
1559013412.9873807430267334,0.2332398891448975,,0.0003049992330981,-0.0004089312959995,-0.0003164140705479,-0.0000144173017045,-0.0000098617901226,-0.0000141313640163,0.9999999997475956,-0.0772445424394733,0.2447715032002950,-0.0011383418386656,0.0011389741805766,-0.0019570558982999,-0.0014499054642399,-0.0004121206084769,0.0004209957160276,0.0003212774096721,,0.0018857590854552,-0.0013061177091510,-0.0060609667982342,-0.0000362485746485,0.0002088160531889,0.0000027108259949,0.9999999775372739,-0.0797380425351669,0.2698326961289798,0.0007577056763264,-0.0000950830581132,-0.0141929863020778,-0.0110827842727304,0.0008529586484656,0.0008104145526886,-0.0009446555632167,,0.0000000000000000,0.0000000000000000,
1559013413.0207006931304932,0.2665598392486572,,0.0003431363790865,-0.0004716913804853,-0.0004165912864769,-0.0000362799963632,-0.0000178833168929,-0.0000100745123364,0.9999999991312265,-0.0797478174257171,0.2438528996089663,-0.0006721862495950,0.0008971832518353,-0.0020463925252434,-0.0023451758404527,-0.0009427345252527,-0.0001135738131031,0.0003124202551737,,0.0018767528659337,-0.0015868478416372,-0.0062711862608355,-0.0000291626588616,0.0002160709066437,-0.0000033503031968,0.9999999762258388,-0.0789291896576434,0.2706631018623400,0.0000621929295683,-0.0001832428679336,-0.0139995729550719,-0.0103720519691706,-0.0000324573375110,0.0006396181997843,0.0005033669876866,,0.0000000000000000,0.0000000000000000,
1559013413.0540206432342529,0.2998797893524170,,0.0003815858253422,-0.0005398933346406,-0.0004752779818722,-0.0000464384767907,-0.0000188827274353,-0.0000093339062641,0.9999999986998944,-0.0809115289954058,0.2437384799107219,-0.0005871411112993,0.0017386236449794,-0.0019730277478822,-0.0019602735416681,-0.0001351686921957,-0.0003713218026432,-0.0004806525835947,,0.0001864124072654,0.0012166738894161,0.0004830618136631,-0.0000185716344986,0.0002542559187380,0.0000077107003256,0.9999999674747831,-0.0777098268087173,0.2750404781751465,0.0013241122817303,-0.0062631070613861,-0.0018153276760131,0.0017081610858440,-0.0014693180564791,-0.0002084249572363,0.0000913238181965,,0.0000000000000000,0.0000000000000000,
1559013413.0873408317565918,0.3331999778747559,,0.0004266081832363,-0.0006078084874392,-0.0004822222420342,-0.0000408712578176,-0.0000194053534889,-0.0000116509969497,0.9999999989086135,-0.0802747062475675,0.2436782362172782,-0.0008525928965442,0.0017345544832530,-0.0032251609477828,-0.0011639964313866,0.0001260234255512,-0.0003740971110650,0.0000545037719461,,0.0001864124072654,0.0012166738894161,0.0004830618136631,-0.0000185716344986,0.0002542559187380,0.0000077107003256,0.9999999674747831,-0.0777098268087173,0.2750404781751465,0.0013241122817303,-0.0062631070613861,-0.0018153276760131,0.0017081610858440,-0.0014693180564791,-0.0002084249572363,0.0000913238181965,,0.0000000000000000,0.0000000000000000,
1559013413.1206507682800293,0.3665099143981934,,0.0004909860486091,-0.0007254618186561,-0.0005431715601438,-0.0000410330540630,-0.0000277670827341,-0.0000041838347556,0.9999999987638867,-0.0802895813875608,0.2427212172845814,0.0000043915813990,0.0027736632109869,-0.0048182338347173,-0.0033593601197759,0.0001177937450392,-0.0009142172577921,0.0011159593242658,,-0.0012296630497877,0.0025351477552150,0.0010995718084875,-0.0000417926695341,0.0002369557506546,0.0000081066828663,0.9999999710198130,-0.0803705614379537,0.2730581080783792,0.0013715104470487,-0.0104640517383814,0.0027693663723767,0.0022680787369609,-0.0004222550487611,-0.0009954593842849,-0.0014647236093879,,0.0000000000000000,0.0000000000000000,
1559013413.1539707183837891,0.3998298645019531,,0.0005891873107473,-0.0008564130356920,-0.0007200482866599,-0.0000281942855960,-0.0000229375109591,-0.0000003770827774,0.9999999993394054,-0.0788165103533975,0.2432752388192749,0.0004398301805941,0.0028813998120407,-0.0028534989424507,-0.0025156549301632,0.0014545482898724,0.0004297112954754,0.0000729132346273,,0.0030802988584500,0.0012210024314830,-0.0004229099459523,-0.0000380366311522,0.0002537059910602,0.0000099031762481,0.9999999670442055,-0.0799392118169074,0.2749778185721677,0.0015748725432740,0.0080886157229543,-0.0046372590586543,0.0003316676011309,0.0006035095429979,0.0012304764240980,0.0005028592422605,,0.0000000000000000,0.0000000000000000,
1559013413.1872906684875488,0.4331498146057129,,0.0006741992446340,-0.0009509035600435,-0.0007860846928432,-0.0000239244184539,-0.0000153908935166,-0.0000099964136357,0.9999999995454071,-0.0783319388372011,0.2441385362826771,-0.0006636457071524,0.0014488254492625,-0.0019891106868946,0.0001489821630623,0.0001302729643995,0.0012312538757930,-0.0009994849521102,,0.0032453695944055,0.0011196545295340,-0.0004223351860165,-0.0000312984294318,0.0002538822486879,0.0000161588989184,0.9999999671515505,-0.0791638111367561,0.2749989768490645,0.0022919017707144,0.0086654815822840,-0.0050508026033640,-0.0003003584279213,0.0014034562045708,-0.0017996052047238,-0.0003075636050198,,0.0000000000000000,0.0000000000000000,
1559013413.2206108570098877,0.4664700031280518,,0.0007329212222980,-0.0008531015282213,-0.0006750241141025,-0.0000182417027128,-0.0000186849114044,-0.0000192715501317,0.9999999994733608,-0.0776852834049389,0.2437596548184912,-0.0017260118754463,0.0022657172631365,-0.0000641655078234,-0.0022274525609659,0.0012059961658439,-0.0008934233765356,-0.0012704684028925,,0.0032453695944055,0.0011196545295340,-0.0004223351860165,-0.0000312984294318,0.0002538822486879,0.0000161588989184,0.9999999671515505,-0.0791638111367561,0.2749989768490645,0.0022919017707144,0.0086654815822840,-0.0050508026033640,-0.0003003584279213,0.0014034562045708,-0.0017996052047238,-0.0003075636050198,,0.0000000000000000,0.0000000000000000,
1559013413.2539308071136475,0.4997899532318115,,0.0008222084582921,-0.0009725788901925,-0.0007609367705220,-0.0000074809883493,-0.0000191417246350,-0.0000098859185432,0.9999999997399490,-0.0764475998452840,0.2437087586721923,-0.0006504425509465,0.0023177552990933,-0.0029557403970244,-0.0028149589155780,-0.0001473785162051,0.0001537888783564,0.0005882698179741,,-0.0003187015053108,0.0000959066590073,-0.0209231593457670,-0.0000160718343075,0.0002776230263452,0.0000108136414350,0.9999999612751075,-0.0774217422934056,0.2777186218234659,0.0016761845038021,-0.0058840299025178,-0.0058508231304586,-0.0372426919639111,0.0013397382572293,0.0005982400616631,-0.0003023762255907,,0.0000000000000000,0.0000000000000000,
1559013413.2872507572174072,0.5331099033355713,,0.0008984784082744,-0.0010594267294117,-0.0008466844181657,-0.0000056888654284,-0.0000201638680016,0.0000003101804672,0.9999999997804795,-0.0762372449153336,0.2435931798467848,0.0005181051266253,0.0028510214542724,-0.0024060098655518,-0.0028874116819119,0.0006566373428228,0.0001604724139728,0.0000633609328274,,0.0034269625326508,0.0011286720590091,-0.0090409392735334,-0.0000107213567495,0.0003332832900764,0.0000064883889218,0.9999999443825994,-0.0768108869699027,0.2840961473448347,0.0011722296041699,0.0091384267434478,-0.0020928373560309,-0.0114530222490430,0.0010196233633906,0.0007099295035005,-0.0002983235754073,,0.0000000000000000,0.0000000000000000,
1559013413.3205707073211670,0.5664298534393311,,0.0010005053560163,-0.0011741826172554,-0.0009365693352354,-0.0000014854269709,-0.0000207087585432,0.0000006610115823,0.9999999997842520,-0.0757553943496562,0.2435307929773439,0.0005583804917171,0.0028935747788849,-0.0036049706887932,-0.0019451574796816,0.0001275833291468,-0.0001059132252657,-0.0002099267663489,,0.0034269625326508,0.0011286720590091,-0.0090409392735334,-0.0000107213567495,0.0003332832900764,0.0000064883889218,0.9999999443825994,-0.0768108869699027,0.2840961473448347,0.0011722296041699,0.0091384267434478,-0.0020928373560309,-0.0114530222490430,0.0010196233633906,0.0007099295035005,-0.0002983235754073,,0.0000000000000000,0.0000000000000000,
1559013413.3538906574249268,0.5997498035430908,,0.0011047646350952,-0.0013814870341771,-0.0009717851680844,0.0000043929740206,-0.0000162898310093,0.0000009164727495,0.9999999998572516,-0.0750816566114918,0.2440372023609379,0.0005869746838866,0.0023196643761698,-0.0041970861372675,-0.0011170890088231,0.0006530873694759,0.0004249039386445,0.0003315248760917,,0.0038770528996077,0.0016472316239445,-0.0017817424349745,-0.0000074296579382,0.0003350296155490,0.0000100847786441,0.9999999437991255,-0.0764317786616396,0.2842968057608064,0.0015842104441551,0.0097196577116847,-0.0004313084064052,0.0031110367272049,0.0015891643706709,0.0003474377153907,-0.0016894822474569,,0.0000000000000000,0.0000000000000000,
1559013413.3872108459472656,0.6330699920654297,,0.0011896971781931,-0.0015248392927862,-0.0010369666399932,0.0000078469514323,-0.0000122049322265,0.0000079867498347,0.9999999998628386,-0.0746823948163189,0.2445063589394540,0.0013965551445039,0.0025738917631746,-0.0043549856941622,-0.0032072395831741,-0.0001479433815116,-0.0003807027152605,0.0008508336278437,,0.0040679258189634,0.0016302978887204,-0.0017103729637689,0.0000057362566524,0.0003389510514528,0.0000028056137798,0.9999999425357027,-0.0749269346787147,0.2847450587356998,0.0007499853509923,0.0094946585595608,-0.0007214926299639,0.0039329784922302,-0.0014333359431475,0.0007109196740203,-0.0008072421769612,,0.0000000000000000,0.0000000000000000,
1559013413.4205307960510254,0.6663899421691895,,0.0012689351386446,-0.0016240069468961,-0.0010631471995685,-0.0000012830155890,-0.0000168038328790,0.0000061638578596,0.9999999998389959,-0.0757295061695266,0.2439790967522391,0.0011883740242964,0.0025462916400540,-0.0041442235264824,-0.0040729794412957,-0.0001469483457059,-0.0006470104230271,0.0008489669181931,,0.0028244609372718,-0.0020864745447010,-0.0040981470072898,0.0000272535559166,0.0003338402301539,-0.0000050454464155,0.9999999438912424,-0.0724653892738492,0.2841582340357628,-0.0001480977271716,0.0034915832802653,-0.0125113883987069,-0.0027146551292390,0.0007540810620412,0.0003361692652106,-0.0002933166106232,,0.0000000000000000,0.0000000000000000,
1559013413.4538507461547852,0.6997098922729492,,0.0013527362862260,-0.0017186021052576,-0.0011812453641025,-0.0000100275665472,-0.0000278009710061,0.0000035021217858,0.9999999995571446,-0.0767328590711703,0.2427185194380708,0.0008850509342071,0.0031187548970177,-0.0021649563880990,-0.0039901188161936,0.0001356783140680,-0.0009010839849489,-0.0007481213963069,,0.0028244609372718,-0.0020864745447010,-0.0040981470072898,0.0000272535559166,0.0003338402301539,-0.0000050454464155,0.9999999438912424,-0.0724653892738492,0.2841582340357628,-0.0001480977271716,0.0034915832802653,-0.0125113883987069,-0.0027146551292390,0.0007540810620412,0.0003361692652106,-0.0002933166106232,,0.0000000000000000,0.0000000000000000,
1559013413.4871706962585449,0.7330298423767090,,0.0014584958593000,-0.0017020098604764,-0.0012858406293852,0.0000029368451516,-0.0000222139612335,-0.0000060375905125,0.9999999997307312,-0.0752519158692343,0.2433572988575725,-0.0002090124808734,0.0034422824712703,-0.0045721575665821,-0.0025970000544599,0.0001189234797279,0.0001547659330668,0.0005908316621513,,0.0009705727291415,0.0016289898501757,-0.0079331041607371,0.0000413433631328,0.0003589990839138,-0.0000095545487231,0.9999999346595452,-0.0708532497001342,0.2870405726501778,-0.0006679541082759,-0.0035913039464504,0.0022433528210968,-0.0086488155648112,-0.0000468759790238,-0.0001395221770508,-0.0007117160712369,,0.0000000000000000,0.0000000000000000,
1559013413.5204906463623047,0.7663497924804688,,0.0015676341042647,-0.0018277796707749,-0.0013700849363145,0.0000027530983044,-0.0000212086193649,0.0000001580671894,0.9999999997712951,-0.0752699410214527,0.2434734369900861,0.0005008121884295,0.0036973830030456,-0.0040301068235608,-0.0028524477397565,0.0006515274680284,0.0001567200560339,0.0005959554043577,,0.0009049911250469,0.0016716632260573,-0.0081049924384131,0.0000501230371511,0.0003626649995588,-0.0000170555534951,0.9999999328354414,-0.0698511788821507,0.2874595744438982,-0.0015276880078354,-0.0032216487452388,0.0018814789364114,-0.0086492393165827,0.0019662324339151,0.0004521511436906,-0.0012100221356377,,0.0000000000000000,0.0000000000000000,
1559013413.5538108348846436,0.7996699810028076,,0.0016915175535854,-0.0019777918347187,-0.0015000220306081,0.0000041211200748,-0.0000292460027338,0.0000198015752152,0.9999999993677927,-0.0751035771964028,0.2425553815253097,0.0027530185294466,0.0035141233787057,-0.0054964676258706,-0.0037800339007117,0.0006458527249698,-0.0003815239073301,0.0013911137169697,,0.0008416231557927,0.0017042349993819,-0.0082787919112038,0.0000540832522323,0.0003709936414145,-0.0000274513881228,0.9999999293425681,-0.0694029478739007,0.2884124663842267,-0.0027200200000634,-0.0031365249305964,0.0013117705238983,-0.0091546773910522,-0.0008535996312276,-0.0001344025076833,-0.0015033677918836,,0.0000000000000000,0.0000000000000000,
1559013413.5871307849884033,0.8329899311065674,,0.0018022738932517,-0.0021158529922397,-0.0015995136411058,0.0000116307652193,-0.0000291335494888,0.0000235288152460,0.9999999992311783,-0.0742412144998009,0.2425688090375160,0.0031800902449693,0.0025293098803271,-0.0033361061583511,-0.0013222511434426,0.0011872512616720,0.0006950419543393,0.0000722180655044,,0.0030406504889629,0.0022882742342330,-0.0062925504181727,0.0000611729674452,0.0003626874159403,-0.0000190422897520,0.9999999321765465,-0.0685860076404653,0.2874618788989146,-0.0017548979202029,0.0040563573129475,0.0002654088311829,-0.0037910772953182,0.0001189401809825,-0.0001427652314305,-0.0001788293011487,,0.0000000000000000,0.0000000000000000,
1559013413.6204507350921631,0.8663098812103271,,0.0018404046830560,-0.0020810557996908,-0.0015871744352929,0.0000124702414158,-0.0000297199082193,0.0000258531458413,0.9999999991464175,-0.0741438836045319,0.2425019630602893,0.0034465260601056,0.0029392402533366,-0.0032927858760709,-0.0022202872449516,0.0001240333565088,0.0001585183116114,0.0000582371758089,,0.0030406504889629,0.0022882742342330,-0.0062925504181727,0.0000611729674452,0.0003626874159403,-0.0000190422897520,0.9999999321765465,-0.0685860076404653,0.2874618788989146,-0.0017548979202029,0.0040563573129475,0.0002654088311829,-0.0037910772953182,0.0001189401809825,-0.0001427652314305,-0.0001788293011487,,0.0000000000000000,0.0000000000000000,
1559013413.6537706851959229,0.8996298313140869,,0.0019416299745170,-0.0021829274672444,-0.0016795586922433,0.0000123425651151,-0.0000333652802703,0.0000280055351100,0.9999999989750545,-0.0741574723657600,0.2420845572067693,0.0036937199590482,0.0033030676983787,-0.0040606914387763,-0.0028220405306996,-0.0004136805096473,0.0001528118199256,0.0005857079296176,,0.0036291435458029,0.0025966150466021,-0.0043469637549630,0.0000571760738891,0.0003901364780748,-0.0000200743580797,0.9999999220607196,-0.0690446522828446,0.2906071492304136,-0.0018773020674637,0.0051087369211018,0.0014169181231409,0.0000617773694103,-0.0004234086372890,-0.0003483407199383,-0.0010793746914715,,0.0000000000000000,0.0000000000000000,
1559013413.6870906352996826,0.9329497814178467,,0.0020212892396814,-0.0020738477636265,-0.0018039788242508,0.0000004441380771,-0.0000293148320830,0.0000322532937086,0.9999999990500843,-0.0755188462068618,0.2425493840160193,0.0041799146210592,0.0030700229543982,-0.0042526905507740,-0.0027742950582854,-0.0012110265898108,0.0004180645399066,0.0003135917925016,,0.0029954825554080,0.0032025419981495,0.0006789376870445,0.0000544467831987,0.0004025603575399,-0.0000166703444748,0.9999999173513996,-0.0693556131155782,0.2920313069036726,-0.0014891490537248,0.0025517339818180,0.0034124318044633,0.0093907183036208,0.0006610900745727,-0.0005176760023460,0.0005640679155476,,0.0000000000000000,0.0000000000000000,
1559013413.7204108238220215,0.9662699699401855,,0.0021366003434451,-0.0022111389276542,-0.0019104416544355,-0.0000100651452921,-0.0000279087052214,0.0000324763606438,0.9999999990325417,-0.0767230079364993,0.2427105870029401,0.0042052975226215,0.0033122078413610,-0.0045728688198783,-0.0028002432237306,-0.0001448235790191,0.0001556650630322,0.0003219725619102,,0.0030493702962463,0.0032644654958341,0.0008699874413255,0.0000565348685116,0.0004011745245693,-0.0000199703200367,0.9999999177319946,-0.0691181066800932,0.2918720288214725,-0.0018670061042162,0.0025712531059980,0.0029879908543080,0.0095492219552398,0.0001241849677172,-0.0003560954646673,0.0001962994283531,,0.0000000000000000,0.0000000000000000,
1559013413.7537307739257812,0.9995899200439453,,0.0021533031316070,-0.0021595885172991,-0.0018971982724543,-0.0000038602125293,-0.0000286108602539,0.0000372417402849,0.9999999988897851,-0.0760096491765438,0.2426308252474916,0.0047514608449471,0.0035966833986548,-0.0046326214201775,-0.0026004666303877,0.0001189234769512,0.0001547659372206,0.0005908316734798,,0.0030493702962463,0.0032644654958341,0.0008699874413255,0.0000565348685116,0.0004011745245693,-0.0000199703200367,0.9999999177319946,-0.0691181066800932,0.2918720288214725,-0.0018670061042162,0.0025712531059980,0.0029879908543080,0.0095492219552398,0.0001241849677172,-0.0003560954646673,0.0001962994283531,,0.0000000000000000,0.0000000000000000,
1559013413.7870507240295410,1.0329098701477051,,0.0022971388898405,-0.0023125542150963,-0.0020141292352575,-0.0000000793619042,-0.0000267973424139,0.0000437620506180,0.9999999986833895,-0.0755732022725082,0.2428396082336423,0.0054983529538541,0.0038145280295982,-0.0028060818946196,-0.0038621149686051,-0.0001377236316433,-0.0003731979937084,-0.0002143553467004,,0.0029821578802633,0.0023954715740928,-0.0033581745908973,0.0000636555501370,0.0004000566115030,-0.0000217090852176,0.9999999177156937,-0.0683030665391002,0.2917436920126553,-0.0020657681279611,0.0022860211320221,-0.0006600108463317,0.0015310561284423,-0.0004109627625439,-0.0006739070522599,-0.0001190709881485,,0.0000000000000000,0.0000000000000000,
1559013413.8203706741333008,1.0662298202514648,,0.0023121908742876,-0.0022199977747700,-0.0019568117537192,-0.0000041910311370,-0.0000285878378462,0.0000462696510832,0.9999999985121450,-0.0760431475526220,0.2426348335559779,0.0057859891815145,0.0037637813564479,-0.0038266906749323,-0.0037565021024573,-0.0004126854763130,-0.0001134958905710,0.0005838412272650,,0.0028483643782737,0.0054159764026453,-0.0048358352553247,0.0000756474026680,0.0004063720092715,-0.0000323465478623,0.9999999140464770,-0.0669346459473181,0.2924658971404100,-0.0032850968095539,0.0015071481466293,0.0085062691941857,-0.0014686621725559,-0.0004123515100218,-0.0004598114755936,-0.0001185764558613,,0.0000000000000000,0.0000000000000000,
1559013413.8536908626556396,1.0995500087738037,,0.0024247927263343,-0.0022982000428903,-0.0020776779937443,-0.0000056270988906,-0.0000328877542562,0.0000457309032999,0.9999999983977079,-0.0762079917518038,0.2421420257176344,0.0057249100376356,0.0038027248085285,-0.0007618615217175,-0.0043108312427171,0.0006698422001577,-0.0006309459892906,-0.0010074281914941,,0.0028483643782737,0.0054159764026453,-0.0048358352553247,0.0000756474026680,0.0004063720092715,-0.0000323465478623,0.9999999140464770,-0.0669346459473181,0.2924658971404100,-0.0032850968095539,0.0015071481466293,0.0085062691941857,-0.0014686621725559,-0.0004123515100218,-0.0004598114755936,-0.0001185764558613,,0.0000000000000000,0.0000000000000000,
1559013413.8870108127593994,1.1328699588775635,,0.0025807478752573,-0.0024115116634806,-0.0021381820750513,-0.0000120090104801,-0.0000380764925038,0.0000365865433090,0.9999999985336947,-0.0769437862011287,0.2415460795380663,0.0046778504963899,0.0039373322612722,-0.0018899892885917,-0.0041307407105342,0.0004004204011287,-0.0011682908268430,-0.0004811289904517,,0.0028483643782737,0.0054159764026453,-0.0048358352553247,0.0000756474026680,0.0004063720092715,-0.0000323465478623,0.9999999140464770,-0.0669346459473181,0.2924658971404100,-0.0032850968095539,0.0015071481466293,0.0085062691941857,-0.0014686621725559,-0.0004123515100218,-0.0004598114755936,-0.0001185764558613,,0.0000000000000000,0.0000000000000000,
1559013413.9203307628631592,1.1661899089813232,,0.0025807478752573,-0.0024115116634806,-0.0021381820750513,-0.0000120090104801,-0.0000380764925038,0.0000365865433090,0.9999999985336947,-0.0769437862011287,0.2415460795380663,0.0046778504963899,0.0039373322612722,-0.0018899892885917,-0.0041307407105342,0.0004004204011287,-0.0011682908268430,-0.0004811289904517,,0.0054303640759792,0.0028405871846140,-0.0015512931906976,0.0000727297327581,0.0004122941432348,-0.0000389757507913,0.9999999116024042,-0.0672725866643876,0.2931435651078277,-0.0040457387794924,0.0105438055470586,-0.0008907766314223,0.0042810388840735,0.0001138636871474,-0.0001375615538564,-0.0004429370164871,,0.0000000000000000,0.0000000000000000,
1559013413.9536507129669189,1.1995098590850830,,0.0028044911472602,-0.0026030049692214,-0.0023087104147030,-0.0000323129584156,-0.0000407576974278,0.0000393932670881,0.9999999978714267,-0.0792690890676898,0.2412393561927872,0.0049999835415532,0.0034385362788404,-0.0033739646124886,-0.0022443614431166,0.0011785914074160,0.0009557211007139,0.0008729765077417,,0.0042457708010142,0.0032688893773403,-0.0056604679087909,0.0000648888487885,0.0004357793942480,-0.0000388127972930,0.9999999021896570,-0.0681711214985140,0.2958347627029305,-0.0040308126094763,0.0040785656310618,0.0004996526986361,-0.0031115380115807,-0.0004219063557684,-0.0014084292342886,-0.0011841928353533,,0.0000000000000000,0.0000000000000000,
1559013413.9869606494903564,1.2328197956085205,,0.0029863096186322,-0.0027979363531615,-0.0024816298456254,-0.0000323712426669,-0.0000297884127330,0.0000530484284768,0.9999999976253087,-0.0792690562762664,0.2424984570414529,0.0065630641106285,0.0032372699425276,-0.0040215123595320,-0.0043784145977176,-0.0004122553071057,-0.0009142951944447,0.0008445383345960,,0.0016163225134831,0.0018428269025782,0.0076378858718637,0.0000685984619212,0.0004543867289951,-0.0000311516418720,0.9999998939282577,-0.0677419600665057,0.2979681196768502,-0.0031553800325751,-0.0052592363208532,-0.0075239953584969,0.0202106647193432,0.0005249262321740,0.0007250083726831,-0.0012422207510099,,0.0000000000000000,0.0000000000000000,
1559013414.0202808380126953,1.2661399841308594,,0.0030006625867554,-0.0032077604246194,-0.0016472416995235,-0.0000317954986427,-0.0000334680586377,0.0000524960227423,0.9999999975565514,-0.0792033704087770,0.2420767120711415,0.0065003300859061,0.0020579706223274,-0.0018676818151185,-0.0009473617374134,0.0001236031835348,0.0009593176039603,-0.0002024599385367,,0.0016163225134831,0.0018428269025782,0.0076378858718637,0.0000685984619212,0.0004543867289951,-0.0000311516418720,0.9999998939282577,-0.0677419600665057,0.2979681196768502,-0.0031553800325751,-0.0052592363208532,-0.0075239953584969,0.0202106647193432,0.0005249262321740,0.0007250083726831,-0.0012422207510099,,0.0000000000000000,0.0000000000000000,
1559013414.0536007881164551,1.2994599342346191,,0.0031134217914708,-0.0032972031220958,-0.0017466014345120,-0.0000303055298333,-0.0000320408923807,0.0000561771814095,0.9999999974495402,-0.0790308279556512,0.2422408132297684,0.0069219368497008,0.0043136809356820,-0.0027892379924120,-0.0047831110412200,0.0001254585690767,-0.0009085887810679,0.0003170675431711,,-0.0001918267742289,0.0014583252582462,-0.0051793105503548,0.0000672918954053,0.0004469704203664,-0.0000485581158316,0.9999998966656715,-0.0679011019789145,0.2971157712807340,-0.0051490438799222,-0.0097791878506541,-0.0069832173176110,-0.0047325701452792,0.0013753385283053,0.0003016986011062,-0.0014640276785940,,0.0000000000000000,0.0000000000000000,
1559013414.0869207382202148,1.3327798843383789,,0.0032180651619538,-0.0032466133292475,-0.0018363364656125,-0.0000268049709288,-0.0000305929445870,0.0000585388574370,0.9999999974593838,-0.0786285318734416,0.2424070772607525,0.0071923310845466,0.0040724008381023,-0.0022368735710825,-0.0027965035187057,-0.0001387186560875,-0.0001068903493460,-0.0002124886834176,,-0.0003862388438266,0.0013193463922199,-0.0052756966752279,0.0000762091679498,0.0004512275026457,-0.0000531757478453,0.9999998938791161,-0.0668817920699509,0.2976029888637595,-0.0056783421457382,-0.0093114748597145,-0.0073452508077025,-0.0049650780856609,0.0013335975818336,0.0000820299610496,-0.0005578060518019,,0.0000000000000000,0.0000000000000000,
1559013414.1202406883239746,1.3660998344421387,,0.0033376644115619,-0.0033322326361366,-0.0019127634647428,-0.0000329181068412,-0.0000355767199843,0.0000579520203971,0.9999999971461293,-0.0793293619569420,0.2418359293337645,0.0071258772759552,0.0038979478672643,-0.0021027239945824,-0.0030023076855589,-0.0006632276636995,-0.0009040152177198,-0.0007558070386273,,-0.0005695107067441,0.0011753494670631,-0.0053720416089590,0.0000732402329876,0.0004666305450950,-0.0000575712412892,0.9999998867886710,-0.0672245097017332,0.2993674002054934,-0.0061843887103450,-0.0087402760982513,-0.0075568733736873,-0.0051086759194732,-0.0005755241727456,0.0005565957981162,0.0000478677466162,,0.0000000000000000,0.0000000000000000,
1559013414.1535606384277344,1.3994197845458984,,0.0035193106102580,-0.0036298608649237,-0.0019319916570658,-0.0000333067321424,-0.0000280344117520,0.0000469506860601,0.9999999979501832,-0.0793792253828261,0.2426985114799098,0.0058640400952361,0.0033415932254110,-0.0031769225991277,-0.0020881145124183,-0.0004060156891757,0.0001584403049251,-0.0002131838444839,,0.0054194410451250,0.0039221283223847,-0.0059444888312575,0.0000707223501789,0.0004701856227759,-0.0000471678987493,0.9999998858495028,-0.0675073877342590,0.2997762539914523,-0.0049928816865142,0.0113711925223470,0.0025506995152682,-0.0051999506540596,-0.0004708282649517,0.0001321081072092,-0.0002189685619669,,0.0000000000000000,0.0000000000000000,
1559013414.1868808269500732,1.4327399730682373,,0.0036184838740936,-0.0037160820844745,-0.0020113957322876,-0.0000314142782783,-0.0000236182703690,0.0000444997816762,0.9999999982375450,-0.0791635440877103,0.2432041741358701,0.0055824955071067,0.0031169613303249,-0.0022909983474806,-0.0024826666361610,-0.0006691978737138,0.0006938310317459,-0.0007446067828945,,0.0017337937437958,0.0027914976925686,-0.0073980466569868,0.0000657147087486,0.0004684735527028,-0.0000318904734004,0.9999998875985463,-0.0680728783992629,0.2995822330364225,-0.0032422190918197,-0.0032952094916254,-0.0025957324542105,-0.0077453418634832,-0.0003198916092515,-0.0001808123633964,-0.0010700231650844,,0.0000000000000000,0.0000000000000000,
1559013414.2202007770538330,1.4660599231719971,,0.0036991073583332,-0.0035407828347947,-0.0020727461098653,-0.0000346486268753,-0.0000202247550062,0.0000508328304348,0.9999999979032278,-0.0795310579579952,0.2435940407219030,0.0063076977318691,0.0028855333218810,-0.0027543522875595,-0.0036349594264675,-0.0004055855151614,-0.0006423589981195,0.0000475132683640,,0.0017337937437958,0.0027914976925686,-0.0073980466569868,0.0000657147087486,0.0004684735527028,-0.0000318904734004,0.9999998875985463,-0.0680728783992629,0.2995822330364225,-0.0032422190918197,-0.0032952094916254,-0.0025957324542105,-0.0077453418634832,-0.0003198916092515,-0.0001808123633964,-0.0010700231650844,,0.0000000000000000,0.0000000000000000,
1559013414.2535207271575928,1.4993798732757568,,0.0037796173947093,-0.0036341280736466,-0.0021548919209743,-0.0000474835962260,-0.0000266072504501,0.0000555094662009,0.9999999969780308,-0.0809995840822909,0.2428634682803391,0.0068446339437005,0.0027604402702485,-0.0036101462540990,-0.0019816415952098,-0.0009478443979349,-0.0001173262471263,0.0008450146980434,,0.0001515348646201,0.0012294817827928,-0.0051123345942179,0.0000495634790215,0.0004787440758719,-0.0000295359639095,0.9999998837375924,-0.0699224355375030,0.3007594300014954,-0.0029747703706644,-0.0074289659969509,-0.0072463871911168,-0.0031776153482497,0.0000637078628642,-0.0005068728933111,-0.0000599529594183,,0.0000000000000000,0.0000000000000000,
1559013414.2868406772613525,1.5326998233795166,,0.0038699664891173,-0.0036855141065974,-0.0021103149760910,-0.0000617061294664,-0.0000236456813530,0.0000609119565400,0.9999999959614846,-0.0826267068468685,0.2432037838964845,0.0074632934742122,0.0032817580832808,-0.0018975683482224,-0.0027217423642427,-0.0006774275631002,0.0001537108826595,0.0003168487873504,,0.0001515348646201,0.0012294817827928,-0.0051123345942179,0.0000495634790215,0.0004787440758719,-0.0000295359639095,0.9999998837375924,-0.0699224355375030,0.3007594300014954,-0.0029747703706644,-0.0074289659969509,-0.0072463871911168,-0.0031776153482497,0.0000637078628642,-0.0005068728933111,-0.0000599529594183,,0.0000000000000000,0.0000000000000000,
1559013414.3201606273651123,1.5660197734832764,,0.0039855890001219,-0.0037300143156475,-0.0022669625943120,-0.0000715384593791,-0.0000296040822239,0.0000630955377121,0.9999999950124002,-0.0837523797738117,0.2425214186403415,0.0077144912289952,0.0030600732419204,-0.0017564642103919,-0.0054167126196485,-0.0006779924290996,-0.0003807807211989,0.0005794126081457,,0.0033008006095580,0.0011785803558295,0.0061231132623880,0.0000425381149729,0.0005060812556475,-0.0000255228093975,0.9999998707104205,-0.0707253920346598,0.3038926008353187,-0.0025192764290060,0.0057506039738655,-0.0057758740149438,0.0190748348832130,-0.0001634397485759,0.0007278783014044,-0.0009080261806957,,0.0000000000000000,0.0000000000000000,
1559013414.3534808158874512,1.5993399620056152,,0.0040580242520203,-0.0037170828548773,-0.0023820637385558,-0.0000910614227557,-0.0000299685610472,0.0000644219054514,0.9999999933297604,-0.0859889009003204,0.2424800079989788,0.0078666078986363,0.0023422640798920,-0.0009216064274388,-0.0026700896664600,-0.0006691978812058,0.0006938310229190,-0.0007446067731071,,0.0034192999153591,0.0010579430106152,0.0064953994279523,0.0000345271351897,0.0005111463805106,-0.0000263829984575,0.9999998684205874,-0.0716438772364495,0.3044728703048402,-0.0026190585096938,0.0061334241181612,-0.0059950468130410,0.0181544125080109,-0.0012176220770925,0.0004556177300401,-0.0002580562722869,,0.0000000000000000,0.0000000000000000,
1559013414.3868007659912109,1.6326599121093750,,0.0041594006933094,-0.0038260254992331,-0.0024859871042152,-0.0000992300198917,-0.0000328317962684,0.0000641094250927,0.9999999924827291,-0.0869251247468134,0.2421519153118724,0.0078312931906805,0.0021741551227725,-0.0031248439788295,0.0000022212408477,-0.0004080057678480,0.0006910557221822,-0.0002094504096379,,0.0057367386720548,0.0016183337584161,0.0098573301577264,0.0000261658727469,0.0004975904176237,-0.0000332114235218,0.9999998753080546,-0.0726057057987067,0.3029184345740711,-0.0034000292129137,0.0127253644168377,-0.0035268568899482,0.0208079684525728,-0.0005384065443650,-0.0007062302902341,-0.0015981659526005,,0.0000000000000000,0.0000000000000000,
1559013414.4201207160949707,1.6659798622131348,,0.0041918115033399,-0.0038379009933298,-0.0022620103586269,-0.0000969954072192,-0.0000320273303940,0.0000597652235415,0.9999999929971296,-0.0866711723352848,0.2422433790513581,0.0073333415226526,0.0020188965753172,-0.0036689185606801,-0.0014781840234302,-0.0006789874692945,-0.0001144730057471,0.0005812793257249,,0.0057367386720548,0.0016183337584161,0.0098573301577264,0.0000261658727469,0.0004975904176237,-0.0000332114235218,0.9999998753080546,-0.0726057057987067,0.3029184345740711,-0.0034000292129137,0.0127253644168377,-0.0035268568899482,0.0208079684525728,-0.0005384065443650,-0.0007062302902341,-0.0015981659526005,,0.0000000000000000,0.0000000000000000,
1559013414.4534406661987305,1.6992998123168945,,0.0042719655374230,-0.0039619576061605,-0.0023790318804839,-0.0001049247578007,-0.0000414005729763,0.0000739668851245,0.9999999909028440,-0.0875729491666089,0.2411716567086645,0.0089623029890452,0.0029784545463243,-0.0037901918563484,-0.0065819191628338,-0.0004108301030168,-0.0019814022869029,0.0011033687070639,,0.0021895927776940,0.0029798482027788,-0.0017919951850399,0.0000030791525065,0.0005051542388313,-0.0000423319240284,0.9999998715088527,-0.0752563039453160,0.3037837185136449,-0.0044476326101652,-0.0012074953410774,0.0004014892037958,0.0003388677432667,0.0008526051533408,0.0004610072937794,-0.0004364303313196,,0.0000000000000000,0.0000000000000000,
1559013414.4867608547210693,1.7326200008392334,,0.0043209408724747,-0.0038018901629381,-0.0025385577814233,-0.0001037674603529,-0.0000504248176183,0.0000821072532220,0.9999999899740255,-0.0874364463115141,0.2401388724385601,0.0098965931114541,0.0023508316193814,-0.0035457704920934,-0.0041375016801649,0.0003872155411763,-0.0003768725046864,0.0005896600798212,,-0.0014186147277336,0.0028985353920135,-0.0137229153900472,-0.0000057996978002,0.0005104819711338,-0.0000229059692081,0.9999998694249101,-0.0762630878852232,0.3043971376825290,-0.0022228761208905,-0.0113122472539544,-0.0013487567193806,-0.0224984772503376,0.0019746769685298,0.0005661716568284,0.0000881503365235,,0.0000000000000000,0.0000000000000000,
1559013414.5200808048248291,1.7659399509429932,,0.0044270627101162,-0.0039181966800707,-0.0026451972992381,-0.0001008584357560,-0.0000536248852689,0.0000790847793839,0.9999999903487726,-0.0871045926344441,0.2397716530690418,0.0095507441601699,0.0040024382449539,-0.0032052232616654,-0.0016732076397093,0.0001291432176914,0.0001622705921748,-0.0004743573463746,,-0.0014186147277336,0.0028985353920135,-0.0137229153900472,-0.0000057996978002,0.0005104819711338,-0.0000229059692081,0.9999998694249101,-0.0762630878852232,0.3043971376825290,-0.0022228761208905,-0.0113122472539544,-0.0013487567193806,-0.0224984772503376,0.0019746769685298,0.0005661716568284,0.0000881503365235,,0.0000000000000000,0.0000000000000000,
1559013414.5534007549285889,1.7992599010467529,,0.0045647981095058,-0.0039062122274889,-0.0024802159739125,-0.0000976028622805,-0.0000384579114808,0.0000693610378766,0.9999999920918584,-0.0867361439635782,0.2415080509679343,0.0084339954134390,0.0047402525310795,-0.0043270956486362,-0.0001594866151840,-0.0004166656310069,0.0009517348714367,0.0005913080232648,,0.0020652066108007,0.0009959875257683,0.0015828023016906,0.0000327981342627,0.0004967082862369,-0.0000168803536144,0.9999998759600995,-0.0718367374209462,0.3028197834051907,-0.0015280938783045,0.0044686226174235,-0.0073079913854599,0.0093747563660145,0.0018572803819552,0.0001997409417527,-0.0008685792563483,,0.0000000000000000,0.0000000000000000,
1559013414.5867207050323486,1.8325798511505127,,0.0047426142333613,-0.0040252886360912,-0.0025037526400266,-0.0001082016603520,-0.0000203599108032,0.0000723729370390,0.9999999913200165,-0.0879490709160368,0.2435825037200125,0.0087762238984432,0.0055259259445980,-0.0039836822947267,-0.0022611517339943,-0.0004146755610552,0.0004191194533080,0.0005875745963183,,0.0021569559694145,0.0008463975722888,0.0017737355212673,0.0000397605860765,0.0004972441031336,-0.0000275520140034,0.9999998752041344,-0.0710447551230397,0.3028796325554119,-0.0027506743039883,0.0050291824154556,-0.0075368159450591,0.0100390929728746,0.0008411775343120,0.0002563290181570,-0.0013905941741541,,0.0000000000000000,0.0000000000000000,
1559013414.6200406551361084,1.8658998012542725,,0.0049712752049773,-0.0040899586273846,-0.0022370566422975,-0.0001067777464035,-0.0000109438456413,0.0000794556260603,0.9999999910827743,-0.0877823562470803,0.2446626492255457,0.0095863055515449,0.0045780710998770,-0.0045306562534559,-0.0032894308262413,-0.0001499334692791,0.0001519126197297,0.0008545669982373,,0.0047568128774480,0.0037095875125719,0.0024648328165501,0.0000356404946868,0.0005075731344468,-0.0000260096516513,0.9999998702113747,-0.0715160763899768,0.3040634651266995,-0.0025756846490801,0.0136421741917729,0.0022794245742261,0.0105858491733670,0.0010575925698504,0.0012645954266191,-0.0008035744540393,,0.0000000000000000,0.0000000000000000,
1559013414.6533608436584473,1.8992199897766113,,0.0050979722502771,-0.0042026071293588,-0.0023320188868026,-0.0001049139936652,-0.0000125807940526,0.0000823099984396,0.9999999910299208,-0.0875673999230293,0.2444755175604259,0.0099136598805300,0.0037498895878294,-0.0033978827744523,-0.0030694426098338,0.0001285783469696,-0.0003722210277911,-0.0002117935228850,,0.0047568128774480,0.0037095875125719,0.0024648328165501,0.0000356404946868,0.0005075731344468,-0.0000260096516513,0.9999998702113747,-0.0715160763899768,0.3040634651266995,-0.0025756846490801,0.0136421741917729,0.0022794245742261,0.0105858491733670,0.0010575925698504,0.0012645954266191,-0.0008035744540393,,0.0000000000000000,0.0000000000000000,
1559013414.6866807937622070,1.9325399398803711,,0.0052515479536730,-0.0047201749507374,-0.0022370645744233,-0.0000979086049289,-0.0000184075770917,0.0000746090611285,0.9999999922542772,-0.0867684638199195,0.2438065020249114,0.0090321261090437,0.0042736100240077,-0.0044878143478656,-0.0026098144061982,0.0001209135322994,-0.0003778495756218,0.0005870982090283,,0.0048156837642820,0.0062237242223286,0.0038197723035811,0.0000351297156098,0.0005140273588113,-0.0000062339267155,0.9999998672514491,-0.0715637410734696,0.3048059729383173,-0.0003105032281870,0.0113962255418301,0.0109010646119714,0.0102634755894542,0.0009090397506952,-0.0008152950322255,-0.0005353579181246,,0.0000000000000000,0.0000000000000000,
1559013414.7200007438659668,1.9658598899841309,,0.0054175837121604,-0.0048464716851211,-0.0023139533806409,-0.0000997565918186,-0.0000136437105565,0.0000769400690708,0.9999999919713488,-0.0869790472472030,0.2443527950262348,0.0092984717055795,0.0052386287419580,-0.0045512479399053,-0.0021220294256957,-0.0004182255124331,0.0006835509511247,0.0008557385274721,,0.0052291259185608,0.0066394057520543,0.0041492087002540,0.0000389100275542,0.0005036717400379,-0.0000269764555915,0.9999998720365213,-0.0711419311843265,0.3036162666879023,-0.0026857110020908,0.0098902173340321,0.0114108640700579,0.0103509873151779,0.0004561709356494,0.0000499343514093,-0.0024497949052602,,0.0000000000000000,0.0000000000000000,
1559013414.7533206939697266,1.9991798400878906,,0.0056471305292864,-0.0048003601109448,-0.0023721860481543,-0.0001067043276913,-0.0000086865400266,0.0000884597958800,0.9999999903567975,-0.0877695044894967,0.2449227869868814,0.0106177470330201,0.0061810151392081,-0.0047833190319469,-0.0034421878863719,-0.0009452894551797,-0.0001154501031624,0.0005787174193519,,0.0048463070129249,-0.0018530932854782,-0.0043371194688543,0.0000496536779303,0.0005462905973898,-0.0000412375629876,0.9999998487002679,-0.0699188675543722,0.3084979834910337,-0.0043255173052810,0.0092678898945451,-0.0197609998285770,-0.0056686224415898,0.0003229734138586,0.0009426797041669,0.0000063279644564,,0.0000000000000000,0.0000000000000000,
1559013414.7866406440734863,2.0324997901916504,,0.0058367749855812,-0.0048997189301886,-0.0024485749263190,-0.0000970853509353,0.0000015628750865,0.0000775730839674,0.9999999922772044,-0.0866725106405385,0.2460954187617382,0.0093685394789770,0.0052153639563321,-0.0022637170395167,-0.0020529269106542,0.0006684169958504,0.0004361609342368,-0.0012662586418031,,0.0052264772958771,-0.0026613178782102,-0.0045826045094389,0.0000475461241026,0.0005503896550055,-0.0000303206917289,0.9999998469456131,-0.0701543412170739,0.3089692817089975,-0.0030752484778133,0.0105025302618742,-0.0202286429703236,-0.0065599353983998,-0.0001585589197930,0.0001465858949814,-0.0005223532207310,,0.0000000000000000,0.0000000000000000,
1559013414.8199608325958252,2.0658199787139893,,0.0059590129445308,-0.0045735027850891,-0.0021739770284511,-0.0000761203143214,0.0000031432199643,0.0000674244435666,0.9999999948248812,-0.0842750765154621,0.2462747044311076,0.0082053327860821,0.0054619941050322,-0.0044567976082926,-0.0029163405624860,0.0009182596274800,-0.0006431023009131,0.0008592143389616,,0.0017678621869116,0.0015124191525959,-0.0011558191354735,0.0000500246131654,0.0005711314993747,-0.0000341708840095,0.9999998350693360,-0.0698725603466937,0.3113455691600101,-0.0035193152565481,-0.0028836037963629,-0.0044308807700872,0.0001653605722822,-0.0004792680847459,0.0003601763455663,-0.0004656376258936,,0.0000000000000000,0.0000000000000000,
1559013414.8532807826995850,2.0991399288177490,,0.0061169145347821,-0.0046612216381007,-0.0022312264878135,-0.0000742409901308,0.0000041984319756,0.0000676236858998,0.9999999949488428,-0.0840596163053129,0.2463956399852479,0.0082279967358182,0.0052493142120799,-0.0030797401767292,-0.0023477436143627,0.0001199184834064,-0.0001115419018277,0.0005889649313616,,0.0045404922881018,0.0010672725907045,0.0060357796653052,0.0000506259437657,0.0005752212636053,-0.0000184199946330,0.9999998331090938,-0.0697948873717366,0.3118165138721259,-0.0017149266609181,0.0057761906646192,-0.0050965617410839,0.0126369763165712,0.0013868110254407,-0.0000644646570436,-0.0002140401920769,,0.0000000000000000,0.0000000000000000,
1559013414.8865907192230225,2.1324498653411865,,0.0062361169269700,-0.0047540769920834,-0.0023002470750378,-0.0000751417708309,0.0000078461195623,0.0000778417969248,0.9999999941164037,-0.0841577776255660,0.2468152726997611,0.0093983326996620,0.0038785894967753,-0.0035132435544988,-0.0019549214820172,0.0001128185353480,0.0004173211484852,0.0011252928386051,,0.0045404922881018,0.0010672725907045,0.0060357796653052,0.0000506259437657,0.0005752212636053,-0.0000184199946330,0.9999998331090938,-0.0697948873717366,0.3118165138721259,-0.0017149266609181,0.0057761906646192,-0.0050965617410839,0.0126369763165712,0.0013868110254407,-0.0000644646570436,-0.0002140401920769,,0.0000000000000000,0.0000000000000000,
1559013414.9199106693267822,2.1657698154449463,,0.0063783429285362,-0.0048733056836373,-0.0023801602006139,-0.0000963793488495,0.0000111894996972,0.0000819903949009,0.9999999919316956,-0.0865893516544966,0.2471992575089619,0.0098731695034588,0.0039770619310521,-0.0037412838594738,-0.0017286904365103,-0.0004121206387101,0.0004209955810100,0.0003212773716056,,0.0018623154410093,0.0027256348443475,0.0001956494993356,0.0000609717752342,0.0005685389954785,-0.0000005049907428,0.9999998365227858,-0.0685993416432927,0.3110533887813620,0.0003396554353508,-0.0041805850341916,0.0011643896577880,0.0006084713968448,-0.0011163554154336,-0.0002244176284876,-0.0005613433313556,,0.0000000000000000,0.0000000000000000,
1559013414.9532308578491211,2.1990900039672852,,0.0064591808565373,-0.0049070103513574,-0.0020550081242576,-0.0000981652571269,0.0000091314427988,0.0000839946151619,0.9999999916125519,-0.0867930317288001,0.2469637639353832,0.0101031699238239,0.0041295378009272,-0.0039401487158330,-0.0015094102748064,0.0001214783854831,0.0001566419868406,0.0003245343971520,,0.0018623154410093,0.0027256348443475,0.0001956494993356,0.0000609717752342,0.0005685389954785,-0.0000005049907428,0.9999998365227858,-0.0685993416432927,0.3110533887813620,0.0003396554353508,-0.0041805850341916,0.0011643896577880,0.0006084713968448,-0.0011163554154336,-0.0002244176284876,-0.0005613433313556,,0.0000000000000000,0.0000000000000000,
1559013414.9865508079528809,2.2324099540710449,,0.0066765545737384,-0.0050565572308447,-0.0021390237173233,-0.0000959910802610,0.0000120696568781,0.0000812882191216,0.9999999920161308,-0.0865451980219544,0.2472999985281388,0.0097925632541229,0.0047759790568508,-0.0026232726844735,-0.0008715204472809,0.0001226081180190,0.0012256251532375,-0.0002005932563223,,0.0017819703080484,0.0027485697378166,0.0002144086046948,0.0000582800221329,0.0005613600279983,-0.0000004010503061,0.9999998407390859,-0.0689077309125702,0.3102307548704150,0.0003524282589109,-0.0039354576729238,0.0009255666518584,0.0008877887739800,-0.0007359915180132,0.0003025436890312,0.0002885470166802,,0.0000000000000000,0.0000000000000000,
1559013415.0198707580566406,2.2657299041748047,,0.0067617710486199,-0.0046459541301716,-0.0022186322483241,-0.0000922178557582,0.0000144274281369,0.0000875374789415,0.9999999918124531,-0.0861097140587189,0.2475711540282296,0.0105083057667525,0.0060602993344244,-0.0027526481691702,-0.0031810939682863,0.0006550774089885,-0.0001077116372191,0.0003277914185636,,0.0029704976370324,0.0010159144944673,-0.0068657866970963,0.0000582245274008,0.0005601235302483,0.0000018985634455,0.9999998414339528,-0.0689128105575490,0.3100893950405605,0.0006161232992979,0.0019557164050639,-0.0059154736809433,-0.0117896087467670,-0.0002207496145274,0.0013766620540991,-0.0006734695052728,,0.0000000000000000,0.0000000000000000,
1559013415.0531907081604004,2.2990498542785645,,0.0069616805153996,-0.0047823038853391,-0.0023155874004787,-0.0000974514741208,0.0000144603473424,0.0000958238474881,0.9999999905559495,-0.0867053529888174,0.2475763232188330,0.0114578475058580,0.0051880113307845,-0.0031767960342816,-0.0020301352536224,0.0001265882228746,0.0001603943269554,-0.0002080600767210,,0.0029704976370324,0.0010159144944673,-0.0068657866970963,0.0000582245274008,0.0005601235302483,0.0000018985634455,0.9999998414339528,-0.0689128105575490,0.3100893950405605,0.0006161232992979,0.0019557164050639,-0.0059154736809433,-0.0117896087467670,-0.0002207496145274,0.0013766620540991,-0.0006734695052728,,0.0000000000000000,0.0000000000000000,
1559013415.0865106582641602,2.3323698043823242,,0.0071170060529888,-0.0047789925212137,-0.0023295050849597,-0.0000931412475558,0.0000153477142670,0.0000834718692386,0.9999999920608015,-0.0862175251500008,0.2476759625528279,0.0100422669177772,0.0048888811721625,-0.0019824485852052,-0.0022919905756417,-0.0003963608792311,-0.0003685466543446,-0.0010158089631327,,0.0028302361133023,0.0011308112806345,-0.0055005617195409,0.0000614221750839,0.0005673859537669,0.0000062026473458,0.9999998371309983,-0.0685439934837356,0.3109222268541514,0.0011085002659068,0.0022205500863492,-0.0049788719043136,-0.0089428108185530,-0.0010673586511984,-0.0010183617705479,-0.0010928818956017,,0.0000000000000000,0.0000000000000000,
1559013415.1198308467864990,2.3656899929046631,,0.0072601430354047,-0.0048768449824718,-0.0023930793709260,-0.0001026134919883,0.0000150281549881,0.0000828842901687,0.9999999911874102,-0.0873032573170176,0.2476393386880288,0.0099749700072720,0.0048474420605421,-0.0020841713615531,-0.0021450494487187,-0.0001371588385692,0.0001612934581064,-0.0004769192049640,,0.0029221986643147,0.0009211528264380,-0.0058647508733388,0.0000569818828218,0.0005542338034713,0.0000084162661342,0.9999998447535492,-0.0690515848017236,0.3094154253685485,0.0013637793337315,0.0021712789312005,-0.0055115297436714,-0.0089211678132415,0.0002103293809341,-0.0018684096867219,-0.0012658763444051,,0.0000000000000000,0.0000000000000000,
1559013415.1531507968902588,2.3990099430084229,,0.0074410135546006,-0.0047769381207215,-0.0024608513087363,-0.0001038585911329,0.0000204394420424,0.0000892380821283,0.9999999904160934,-0.0874427476886877,0.2482604732897620,0.0107021828780653,0.0047405066892501,-0.0021450148663268,-0.0027482093912268,0.0001240332791777,0.0001585181496846,0.0000582371505768,,0.0051925544355761,0.0023813793912971,-0.0010522355678721,0.0000469439347328,0.0005700122294068,-0.0000046649478309,0.9999998364302685,-0.0702091373472664,0.3112216003752460,-0.0001381758148190,0.0089325234293938,0.0004224320291542,0.0012637828476727,-0.0005778026534244,-0.0005969690391794,-0.0000826702453196,,0.0000000000000000,0.0000000000000000,
1559013415.1864707469940186,2.4323298931121826,,0.0076171397719391,-0.0048689305021653,-0.0025718193480133,-0.0001130010059646,0.0000124891339155,0.0000900751884555,0.9999999894806274,-0.0884900540909864,0.2473496667946198,0.0107993915608509,0.0046477975047478,-0.0007305157421432,-0.0024065207435575,0.0001362430867078,-0.0003665925323094,-0.0010106852446549,,0.0051925544355761,0.0023813793912971,-0.0010522355678721,0.0000469439347328,0.0005700122294068,-0.0000046649478309,0.9999998364302685,-0.0702091373472664,0.3112216003752460,-0.0001381758148190,0.0089325234293938,0.0004224320291542,0.0012637828476727,-0.0005778026534244,-0.0005969690391794,-0.0000826702453196,,0.0000000000000000,0.0000000000000000,
1559013415.2197906970977783,2.4656498432159424,,0.0076749753645315,-0.0047927508204239,-0.0024633291549648,-0.0001204789769035,0.0000121792443082,0.0000888361082698,0.9999999887223140,-0.0893475806226277,0.2473140289590230,0.0106574425388591,0.0042332621033426,-0.0030334145623006,-0.0006669620099816,-0.0001442588036026,0.0006901565115178,0.0000594087022336,,0.0036304880783306,0.0051519430538680,-0.0003610028637882,0.0000409396240160,0.0005788687692688,0.0000372948730190,0.9999998309219795,-0.0708737745339409,0.3122426262887678,0.0046684425669311,0.0018805343424901,0.0090315490961075,0.0019654412753880,-0.0017144266748801,0.0002639917656779,-0.0012922289315611,,0.0000000000000000,0.0000000000000000,
1559013415.2531106472015381,2.4989697933197021,,0.0078230777914983,-0.0048751405348260,-0.0025109048079551,-0.0001159491310898,0.0000192604885144,0.0000891024422755,0.9999999891227938,-0.0888282998662470,0.2481254766078150,0.0106868048565959,0.0052615101360811,-0.0033490976638726,-0.0022661052349139,0.0003842303296620,0.0004220505474500,0.0005952602151789,,0.0036304880783306,0.0051519430538680,-0.0003610028637882,0.0000409396240160,0.0005788687692688,0.0000372948730190,0.9999998309219795,-0.0708737745339409,0.3122426262887678,0.0046684425669311,0.0018805343424901,0.0090315490961075,0.0019654412753880,-0.0017144266748801,0.0002639917656779,-0.0012922289315611,,0.0000000000000000,0.0000000000000000,
1559013415.2864308357238770,2.5322899818420410,,0.0080537075897760,-0.0048486795637515,-0.0025113915237218,-0.0001150046287937,0.0000180965555364,0.0000800657183571,0.9999999900179655,-0.0887245422548908,0.2479906057819340,0.0096514572243186,0.0066275016748230,-0.0014069517073031,-0.0046782013440628,-0.0003979208185790,-0.0006367305409615,-0.0007513784460749,,0.0025138590955969,0.0033192539606244,0.0009078161052141,0.0000365193240325,0.0005775845015205,0.0000439068098541,0.9999998315673231,-0.0713766200413169,0.3120964502441695,0.0054260206836029,-0.0019299490377307,0.0016534070018679,0.0051813190802932,0.0001960064255400,0.0007469583069906,-0.0014681906905025,,0.0000000000000000,0.0000000000000000,
1559013415.3197507858276367,2.5656099319458008,,0.0082517984476504,-0.0049446644318840,-0.0026140749332423,-0.0001128700879466,0.0000282248207150,0.0000831485005590,0.9999999897750149,-0.0884783299629571,0.2491517043604627,0.0100030641665508,0.0054049078960794,-0.0022872212995649,-0.0028032647830012,0.0003918951336013,0.0004276790808624,-0.0002036315094782,,0.0024622045541892,0.0033692700341506,0.0010831382365003,0.0000311932746903,0.0005793344129262,0.0000361975982775,0.9999998310441615,-0.0719912381284506,0.3122958639970193,0.0045419871211058,-0.0010414639255032,0.0009290307061747,0.0048048202879727,0.0009482172317803,0.0003190914285369,-0.0010488524567336,,0.0000000000000000,0.0000000000000000,
1559013415.3530707359313965,2.5989298820495605,,0.0083260829138481,-0.0050267770846111,-0.0023210125562286,-0.0000972789237423,0.0000263790570997,0.0000815845692994,0.9999999915924573,-0.0866925041360824,0.2489397934326714,0.0098241994233669,0.0049679618016304,-0.0021723922974398,-0.0018332974980625,0.0006581971277950,0.0004286561376610,-0.0002010696418797,,-0.0009817813704339,-0.0000302048205232,-0.0113073154465510,0.0000366397794939,0.0005790403470259,0.0000539893675716,0.9999998302274612,-0.0713571827692653,0.3122647584925159,0.0065812067841531,-0.0103610353544354,-0.0106029035523534,-0.0180826224386692,0.0003542889317032,0.0002166567428503,-0.0017341335769743,,0.0000000000000000,0.0000000000000000,
1559013415.3863906860351562,2.6322498321533203,,0.0084996274686164,-0.0051179155632911,-0.0024385319143057,-0.0001007329441995,0.0000153592714519,0.0000849912457241,0.9999999911967274,-0.0870867195017775,0.2476776066021528,0.0102163607558671,0.0053861227780244,-0.0021299082037913,-0.0026952787721998,-0.0004070108474864,0.0004247478686765,-0.0002113171275907,,-0.0014185691403290,-0.0004501569395737,-0.0120030723032950,0.0000434684384757,0.0005856383472689,0.0000345169022151,0.9999998269733873,-0.0705855220237378,0.3130179456839972,0.0043492845201148,-0.0107360417023301,-0.0110346311703324,-0.0169592592865229,-0.0017026001587510,0.0004706384497695,-0.0002738574403338,,0.0000000000000000,0.0000000000000000,
1559013415.4197106361389160,2.6655697822570801,,0.0085542116091062,-0.0050913119568367,-0.0026492834740854,-0.0001068915109567,0.0000224192909923,0.0000831439526624,0.9999999905793318,-0.0877932888634052,0.2484863826567208,0.0100035106986607,0.0054185061427622,-0.0013722452376612,-0.0035617894359669,-0.0006682029652333,0.0004275231770983,-0.0007464734831314,,0.0003574812231935,0.0003619826310008,-0.0030307031033011,0.0000280967192277,0.0006463813474378,0.0000294119631035,0.9999997902683102,-0.0723496947302187,0.3199778806545092,0.0037542767039110,-0.0030758511275053,-0.0073704370297492,-0.0008689275127836,-0.0003743243869394,0.0005830600857735,-0.0002860996755771,,0.0000000000000000,0.0000000000000000,
1559013415.4530308246612549,2.6988899707794189,,0.0087704728335276,-0.0051789493054080,-0.0027865995065256,-0.0001063552554507,0.0000256324284773,0.0000789465038056,0.9999999908994940,-0.0877338869509480,0.2488538902553101,0.0095219911921600,0.0049382507537335,-0.0036969431716576,-0.0022920185499251,-0.0001483736798288,0.0004200963950672,0.0005901364642062,,0.0032467484218093,0.0019975254871323,0.0013584030478750,0.0000208630925172,0.0006477631435398,0.0000398047980743,0.9999997891915874,-0.0731727237161890,0.3201377922878259,0.0049444838312599,0.0078006898984313,-0.0011601021979004,0.0067432597279549,-0.0003846271429211,-0.0008461753022857,-0.0015661191428080,,0.0000000000000000,0.0000000000000000,
1559013415.4863507747650146,2.7322099208831787,,0.0088493622719445,-0.0048134106678733,-0.0024866315591573,-0.0001061352209668,0.0000189292784660,0.0000769404080677,0.9999999912285854,-0.0877097197655064,0.2480854371293141,0.0092932026135103,0.0063471269225153,-0.0017306574623502,-0.0042545403885565,0.0003978653380635,-0.0011701671901050,-0.0002148317904141,,0.0032467484218093,0.0019975254871323,0.0013584030478750,0.0000208630925172,0.0006477631435398,0.0000398047980743,0.9999997891915874,-0.0731727237161890,0.3201377922878259,0.0049444838312599,0.0078006898984313,-0.0011601021979004,0.0067432597279549,-0.0003846271429211,-0.0008461753022857,-0.0015661191428080,,0.0000000000000000,0.0000000000000000,
