#Time(sec),Dtime(sec),,x(m),y(m),z(m),qx,qy,qz,qw,roll_x_G(deg),pitch_y_G(deg),yaw_z_G(deg),vx(m/s),vy(m/s),vz(m/s),wx(rad/s),wy(rad/s),wz(rad/s),,gt_x(m),gt_y(m),gt_z(m),gt_qx,gt_qy,gt_qz,gt_qw,gt_groll_x_G(deg),gt_pitch_y_G(deg),gt_yaw_z_G(deg),gt_vx(m/s),gt_vy(m/s),gt_vz(m/s),gt_wx(rad/s),gt_wy(rad/s),gt_wz(rad/s),,Sr,Sr_avg,
1559013412.7541408538818359,0.0000000000000000,,0.0000000000000002,0.0000000000000001,-0.0000000000000001,0.0000000000000000,-0.0000000000000001,0.0000000000000000,1.0000000000000000,-0.0755855138669150,0.2459037397968158,0.0004794994091153,0.0000000000000000,0.0000000000000000,0.0000000000000000,0.0000000000000000,0.0000000000000000,0.0000000000000000,,0.0000000000000000,0.0000000000000000,0.0000000000000000,0.0000000000000000,0.0000000000000000,0.0000000000000000,1.0000000000000000,-0.0755855138669150,0.2459037397968215,0.0004794994091152,-0.0098102642223239,-0.0059528849087656,-0.0021041124127805,0.0008114594966173,-0.0000641869410174,-0.0007574954070151,,0.0000000000000000,0.0000000000000000,
1559013412.7874608039855957,0.0333199501037598,,0.0000000000000002,0.0000000000000001,-0.0000000000000001,0.0000000000000000,-0.0000000000000001,0.0000000000000000,1.0000000000000000,-0.0755855138669150,0.2459037397968158,0.0004794994091153,0.0000000000000000,0.0000000000000000,0.0000000000000000,0.0000000000000000,0.0000000000000000,0.0000000000000000,,0.0000000000000000,0.0000000000000000,0.0000000000000000,0.0000000000000000,0.0000000000000000,0.0000000000000000,1.0000000000000000,-0.0755855138669150,0.2459037397968215,0.0004794994091152,-0.0098102642223239,-0.0059528849087656,-0.0021041124127805,0.0008114594966173,-0.0000641869410174,-0.0007574954070151,,0.0000000000000000,0.0000000000000000,
1559013412.8207807540893555,0.0666399002075195,,0.0000219726581638,-0.0000260111889973,-0.0000459141663904,-0.0000208610050351,-0.0000137221306289,-0.0000034844792411,0.9999999996821901,-0.0779777081630646,0.2443307657790641,0.0000823114382821,0.0005549145090711,-0.0009140744155948,-0.0007645881653806,-0.0006713226546122,-0.0001088443910840,-0.0002176123651700,,0.0000000000000000,0.0000000000000000,0.0000000000000000,0.0000000000000000,0.0000000000000000,0.0000000000000000,1.0000000000000000,-0.0755855138669150,0.2459037397968215,0.0004794994091152,-0.0098102642223239,-0.0059528849087656,-0.0021041124127805,0.0008114594966173,-0.0000641869410174,-0.0007574954070151,,0.0000000000000000,0.0000000000000000,
1559013412.8541007041931152,0.0999598503112793,,0.0000608926743231,-0.0000640802948601,-0.0001140602429562,-0.0000373096937066,-0.0000189844924195,-0.0000087132854731,0.9999999990858274,-0.0798651435414091,0.2437269247291102,-0.0005160265755550,0.0011061855532015,-0.0033799717536283,-0.0017536299372295,-0.0014824384616985,0.0004133351236126,0.0008436244272202,,0.0026245542083911,0.0026448552001494,-0.0084863851899029,-0.0000333937179824,0.0001718520074773,-0.0000101301488424,0.9999999846245635,-0.0794174526191618,0.2655949411350161,-0.0007079784706163,0.0011400097282603,-0.0002242026966996,-0.0186141021549702,-0.0007273238734342,-0.0001038627669914,-0.0002373664610786,,0.0000000000000000,0.0000000000000000,
1559013412.8874206542968750,0.1332798004150391,,0.0001262903034411,-0.0001468154741993,-0.0002142065874932,-0.0000378024141703,-0.0000235806923088,-0.0000050935236011,0.9999999989944923,-0.0799198270708824,0.2432008019201591,-0.0001005132246582,0.0021184657892204,-0.0024107857097970,-0.0026184181863062,0.0001285783637746,-0.0003722209284548,-0.0002117934720251,,0.0026245542083911,0.0026448552001494,-0.0084863851899029,-0.0000333937179824,0.0001718520074773,-0.0000101301488424,0.9999999846245635,-0.0794174526191618,0.2655949411350161,-0.0007079784706163,0.0011400097282603,-0.0002242026966996,-0.0186141021549702,-0.0007273238734342,-0.0001038627669914,-0.0002373664610786,,0.0000000000000000,0.0000000000000000,
1559013412.9207408428192139,0.1665999889373779,,0.0001876071963411,-0.0002485065635448,-0.0002723575101359,-0.0000332340376668,-0.0000278667317498,-0.0000049033733097,0.9999999990474505,-0.0793962315090670,0.2427096905476230,-0.0000780715043153,0.0016332172232536,-0.0030002443095807,-0.0000183282768429,0.0009260591413560,0.0006978172556181,-0.0004629382745979,,0.0013044971720459,0.0006642558835833,-0.0097306379038952,-0.0000438730574526,0.0002087906767953,-0.0000009822662857,0.9999999772403214,-0.0806136494002281,0.2698292134783979,0.0003343256994272,-0.0023964915890247,-0.0079505480825901,-0.0198433436453342,0.0003404117596801,-0.0015395777300000,-0.0001423610374331,,0.0000000000000000,0.0000000000000000,
1559013412.9540607929229736,0.1999199390411377,,0.0002510355284044,-0.0003552317527220,-0.0002739830334416,-0.0000129934686530,-0.0000142844809747,-0.0000089746469803,0.9999999997732896,-0.0770788454877928,0.2442654901962383,-0.0005467471256826,0.0015572095440772,-0.0016274100853720,0.0003069651755764,0.0011929260021615,0.0012332859105604,-0.0007229402316692,,0.0013044971720459,0.0006642558835833,-0.0097306379038952,-0.0000438730574526,0.0002087906767953,-0.0000009822662857,0.9999999772403214,-0.0806136494002281,0.2698292134783979,0.0003343256994272,-0.0023964915890247,-0.0079505480825901,-0.0198433436453342,0.0003404117596801,-0.0015395777300000,-0.0001423610374331,,0.0000000000000000,0.0000000000000000,
1559013412.9873807430267334,0.2332398891448975,,0.0003049992330981,-0.0004089312959995,-0.0003164140705479,-0.0000144173017045,-0.0000098617901226,-0.0000141313640163,0.9999999997475956,-0.0772445424394733,0.2447715032002950,-0.0011383418386656,0.0011389741805766,-0.0019570558982999,-0.0014499054642399,-0.0004121206084769,0.0004209957160276,0.0003212774096721,,0.0018857590854552,-0.0013061177091510,-0.0060609667982342,-0.0000362485746485,0.0002088160531889,0.0000027108259949,0.9999999775372739,-0.0797380425351669,0.2698326961289798,0.0007577056763264,-0.0000950830581132,-0.0141929863020778,-0.0110827842727304,0.0008529586484656,0.0008104145526886,-0.0009446555632167,,0.0000000000000000,0.0000000000000000,
1559013413.0207006931304932,0.2665598392486572,,0.0003431363790865,-0.0004716913804853,-0.0004165912864769,-0.0000362799963632,-0.0000178833168929,-0.0000100745123364,0.9999999991312265,-0.0797478174257171,0.2438528996089663,-0.0006721862495950,0.0008971832518353,-0.0020463925252434,-0.0023451758404527,-0.0009427345252527,-0.0001135738131031,0.0003124202551737,,0.0018767528659337,-0.0015868478416372,-0.0062711862608355,-0.0000291626588616,0.0002160709066437,-0.0000033503031968,0.9999999762258388,-0.0789291896576434,0.2706631018623400,0.0000621929295683,-0.0001832428679336,-0.0139995729550719,-0.0103720519691706,-0.0000324573375110,0.0006396181997843,0.0005033669876866,,0.0000000000000000,0.0000000000000000,
1559013413.0540206432342529,0.2998797893524170,,0.0003903418709308,-0.0005530731092706,-0.0004847153840386,-0.0000454537236579,-0.0000198192877273,-0.0000091906053814,0.9999999987283439,-0.0807986128321173,0.2436311815676687,-0.0005705755700852,0.0017486898863368,-0.0027608805572256,-0.0017974615562203,0.0003923254197449,-0.0003731200542663,0.0000570656395446,,0.0001864124072654,0.0012166738894161,0.0004830618136631,-0.0000185716344986,0.0002542559187380,0.0000077107003256,0.9999999674747831,-0.0777098268087173,0.2750404781751465,0.0013241122817303,-0.0062631070613861,-0.0018153276760131,0.0017081610858440,-0.0014693180564791,-0.0002084249572363,0.0000913238181965,,0.0000000000000000,0.0000000000000000,
1559013413.0873408317565918,0.3331999778747559,,0.0004237110135403,-0.0005970652404733,-0.0004862498790501,-0.0000408711454819,-0.0000194033725068,-0.0000116516548101,0.9999999989086489,-0.0802746937008824,0.2436784631185043,-0.0008526685914171,0.0017247540302140,-0.0031887962865717,-0.0011776484955937,0.0001260234255512,-0.0003740971110650,0.0000545037719461,,-0.0012296630497877,0.0025351477552150,0.0010995718084875,-0.0000417926695341,0.0002369557506546,0.0000081066828663,0.9999999710198130,-0.0803705614379537,0.2730581080783792,0.0013715104470487,-0.0104640517383814,0.0027693663723767,0.0022680787369609,-0.0004222550487611,-0.0009954593842849,-0.0014647236093879,,0.0000000000000000,0.0000000000000000,
1559013413.1206507682800293,0.3665099143981934,,0.0004877937488308,-0.0007136232994340,-0.0005476104968427,-0.0000410329417169,-0.0000277651017351,-0.0000041844926226,0.9999999987639436,-0.0802895688373605,0.2427214441876475,0.0000043158856347,0.0027638642324680,-0.0047818690729249,-0.0033730119877220,0.0001177937451118,-0.0009142172566078,0.0011159593238638,,-0.0012296630497877,0.0025351477552150,0.0010995718084875,-0.0000417926695341,0.0002369557506546,0.0000081066828663,0.9999999710198130,-0.0803705614379537,0.2730581080783792,0.0013715104470487,-0.0104640517383814,0.0027693663723767,0.0022680787369609,-0.0004222550487611,-0.0009954593842849,-0.0014647236093879,,0.0000000000000000,0.0000000000000000,
1559013413.1539707183837891,0.3998298645019531,,0.0005994982612041,-0.0008556089415159,-0.0007330418698348,-0.0000265380885016,-0.0000211866524678,-0.0000015460843701,0.9999999994222327,-0.0786272974753887,0.2434756920323293,0.0003055970175957,0.0026085781084312,-0.0025272178199732,-0.0020225301337310,0.0006597571480049,0.0006968401992510,-0.0004655001468618,,0.0030802988584500,0.0012210024314830,-0.0004229099459523,-0.0000380366311522,0.0002537059910602,0.0000099031762481,0.9999999670442055,-0.0799392118169074,0.2749778185721677,0.0015748725432740,0.0080886157229543,-0.0046372590586543,0.0003316676011309,0.0006035095429979,0.0012304764240980,0.0005028592422605,,0.0000000000000000,0.0000000000000000,
1559013413.1872906684875488,0.4331498146057129,,0.0006708200610714,-0.0009363207511863,-0.0007889291038213,-0.0000239242859824,-0.0000153891197016,-0.0000099969655785,0.9999999995454322,-0.0783319239307519,0.2441387394619147,-0.0006637092289150,0.0014402954675941,-0.0019522686283366,0.0001417838717000,0.0001302729644844,0.0012312538768519,-0.0009994849524465,,-0.0003187015053108,0.0000959066590073,-0.0209231593457670,-0.0000160718343075,0.0002776230263452,0.0000108136414350,0.9999999612751075,-0.0774217422934056,0.2777186218234659,0.0016761845038021,-0.0058840299025178,-0.0058508231304586,-0.0372426919639111,0.0013397382572293,0.0005982400616631,-0.0003023762255907,,0.0000000000000000,0.0000000000000000,
1559013413.2206108570098877,0.4664700031280518,,0.0007280020262164,-0.0008863316148260,-0.0007318928492218,-0.0000182412887343,-0.0000186755344170,-0.0000192785762723,0.9999999994734081,-0.0776852394337721,0.2437607282650734,-0.0017268184566289,0.0022540629908316,-0.0001431720141907,-0.0023626466095803,0.0012059961659289,-0.0008934233754768,-0.0012704684032288,,-0.0003187015053108,0.0000959066590073,-0.0209231593457670,-0.0000160718343075,0.0002776230263452,0.0000108136414350,0.9999999612751075,-0.0774217422934056,0.2777186218234659,0.0016761845038021,-0.0058840299025178,-0.0058508231304586,-0.0372426919639111,0.0013397382572293,0.0005982400616631,-0.0003023762255907,,0.0000000000000000,0.0000000000000000,
1559013413.2539308071136475,0.4997899532318115,,0.0008167629958660,-0.0010093787074831,-0.0008239134728624,-0.0000074805742807,-0.0000191323475899,-0.0000098929448891,0.9999999997400619,-0.0764475558534148,0.2437098321336599,-0.0006512491440370,0.0023061077196381,-0.0030347498884828,-0.0029501511620859,-0.0001473785159726,0.0001537888844363,0.0005882698133642,,-0.0003187015053108,0.0000959066590073,-0.0209231593457670,-0.0000160718343075,0.0002776230263452,0.0000108136414350,0.9999999612751075,-0.0774217422934056,0.2777186218234659,0.0016761845038021,-0.0058840299025178,-0.0058508231304586,-0.0372426919639111,0.0013397382572293,0.0005982400616631,-0.0003023762255907,,0.0000000000000000,0.0000000000000000,
1559013413.2872507572174072,0.5331099033355713,,0.0008926325864023,-0.0010898867601352,-0.0009074615975270,-0.0000056884331454,-0.0000201549784177,0.0000003036914417,0.9999999997806632,-0.0762371985611571,0.2435941975319792,0.0005173601823564,0.0028392761985747,-0.0024674431700712,-0.0030099625583078,0.0006566373430552,0.0001604724200527,0.0000633609282176,,-0.0005509754171336,-0.0001456836824130,-0.0224293881837500,-0.0000085451778506,0.0002747311364235,0.0000002491187608,0.9999999622248595,-0.0765647796794137,0.2773856195816288,0.0004662457421669,-0.0052228411659598,-0.0065887318924069,-0.0385861136019230,-0.0007309849024750,-0.0003088524681516,-0.0003365832380950,,0.0000000000000000,0.0000000000000000,
1559013413.3205707073211670,0.5664298534393311,,0.0009942470847633,-0.0012068014713992,-0.0010016529498371,-0.0000014849946838,-0.0000206998688862,0.0000006545224449,0.9999999997844410,-0.0757553479942850,0.2435318106740051,0.0005576355388705,0.0028818354663590,-0.0036664052596765,-0.0020677077614635,0.0001275833294027,-0.0001059132195300,-0.0002099267705779,,0.0032448892448287,0.0011686060850249,-0.0088127838804373,-0.0000146503900680,0.0003385993683422,0.0000034395524150,0.9999999425620001,-0.0772627395804454,0.2847048612551494,0.0008218920959599,0.0091201923787594,-0.0014337738975883,-0.0116917202249169,0.0016286274185404,-0.0022791337687522,0.0006528442027047,,0.0000000000000000,0.0000000000000000,
1559013413.3538906574249268,0.5997498035430908,,0.0010986750576798,-0.0014154300874271,-0.0010363502437475,0.0000043934071373,-0.0000162811325745,0.0000009100809365,0.9999999998573973,-0.0750816101162776,0.2440381981642034,0.0005862409186674,0.0023088612163040,-0.0042575844637550,-0.0012321387111091,0.0006530873697317,0.0004249039443802,0.0003315248718627,,0.0032448892448287,0.0011686060850249,-0.0088127838804373,-0.0000146503900680,0.0003385993683422,0.0000034395524150,0.9999999425620001,-0.0772627395804454,0.2847048612551494,0.0008218920959599,0.0091201923787594,-0.0014337738975883,-0.0116917202249169,0.0016286274185404,-0.0022791337687522,0.0006528442027047,,0.0000000000000000,0.0000000000000000,
1559013413.3872108459472656,0.6330699920654297,,0.0011832283231941,-0.0015609076242142,-0.0011055734458872,0.0000078473846412,-0.0000121962337185,0.0000079803579202,0.9999999998629922,-0.0746823483065520,0.2445073547533182,0.0013958213713278,0.0025630946752465,-0.0044154849082162,-0.0033222888875065,-0.0001479433812554,-0.0003807027096713,0.0008508336236793,,0.0037347389898433,0.0011512820030796,-0.0013166560496787,0.0000095794397142,0.0003434069863255,0.0000027559451479,0.9999999409861386,-0.0744865658977033,0.2852556623579033,0.0007437742424991,0.0077366176992655,-0.0026162154972553,0.0044623170979321,0.0017586316680536,0.0013520804932341,-0.0005689590470865,,0.0000000000000000,0.0000000000000000,
1559013413.4205307960510254,0.6663899421691895,,0.0012624764987108,-0.0016606831253568,-0.0011317666884990,-0.0000012826048511,-0.0000167952891894,0.0000061576179223,0.9999999998391784,-0.0757294621587732,0.2439800748416387,0.0011876576807351,0.0025361163848138,-0.0042023167538673,-0.0041816484105619,-0.0001469483454497,-0.0006470104174380,0.0008489669140286,,0.0040371625405149,0.0010407715328566,-0.0011724512895224,0.0000182179897012,0.0003403120708404,-0.0000080441169780,0.9999999418955441,-0.0735023907927335,0.2848993990187070,-0.0004930345491329,0.0076945354230702,-0.0024773650802672,0.0028743059374392,0.0014570327475667,-0.0012100221356377,0.0000713423796697,,0.0000000000000000,0.0000000000000000,
1559013413.4538507461547852,0.6997098922729492,,0.0013459713704729,-0.0017570280756269,-0.0012531379833787,-0.0000100271558970,-0.0000277924271787,0.0000034958818578,0.9999999995574080,-0.0767328150652088,0.2427194975370941,0.0008843345826599,0.0031085826032488,-0.0022230479665769,-0.0040987885164427,0.0001356783143112,-0.0009010839794926,-0.0007481214003532,,0.0040371625405149,0.0010407715328566,-0.0011724512895224,0.0000182179897012,0.0003403120708404,-0.0000080441169780,0.9999999418955441,-0.0735023907927335,0.2848993990187070,-0.0004930345491329,0.0076945354230702,-0.0024773650802672,0.0028743059374392,0.0014570327475667,-0.0012100221356377,0.0000713423796697,,0.0000000000000000,0.0000000000000000,
1559013413.4871706962585449,0.7330298423767090,,0.0014516957529715,-0.0017413461277391,-0.0013590466852323,0.0000029372723970,-0.0000222055833598,-0.0000060437766187,0.9999999997308787,-0.0752518699483269,0.2433582579575255,-0.0002097226270301,0.0034325800961459,-0.0046286296803401,-0.0027020742530871,0.0001189234799711,0.0001547659385230,0.0005908316581050,,0.0028244609372718,-0.0020864745447010,-0.0040981470072898,0.0000272535559166,0.0003338402301539,-0.0000050454464155,0.9999999438912424,-0.0724653892738492,0.2841582340357628,-0.0001480977271716,0.0034915832802653,-0.0125113883987069,-0.0027146551292390,0.0007540810620412,0.0003361692652106,-0.0002933166106232,,0.0000000000000000,0.0000000000000000,
1559013413.5204906463623047,0.7663497924804688,,0.0015797577778902,-0.0018961102853408,-0.0014633902322251,0.0000037036532631,-0.0000214919041648,0.0000036419493814,0.9999999997555586,-0.0751593104503100,0.2434415001277563,0.0009000793327074,0.0038173681055131,-0.0054452509156627,-0.0033799440463594,0.0003785556952317,-0.0001161932510426,0.0013904185550277,,0.0008416231557927,0.0017042349993819,-0.0082787919112038,0.0000540832522323,0.0003709936414145,-0.0000274513881228,0.9999999293425681,-0.0694029478739007,0.2884124663842267,-0.0027200200000634,-0.0031365249305964,0.0013117705238983,-0.0091546773910522,-0.0008535996312276,-0.0001344025076833,-0.0015033677918836,,0.0000000000000000,0.0000000000000000,
1559013413.5538108348846436,0.7996699810028076,,0.0016808795708658,-0.0020630364518634,-0.0015653275915104,0.0000041225719534,-0.0000292369466720,0.0000197870824917,0.9999999993683384,-0.0751034178878118,0.2425564170855946,0.0027513564027819,0.0035002235141717,-0.0056083826407403,-0.0038657463876902,0.0006458527252312,-0.0003815239020106,0.0013911137129755,,0.0024758539387623,0.0057413881910543,-0.0145369239774630,0.0000506482715030,0.0003704794838907,-0.0000233562550897,0.9999999298170925,-0.0697943785288060,0.2883541327314159,-0.0022508180482209,0.0023056725040078,0.0144427893683314,-0.0207519046962261,-0.0006191260763444,-0.0003596639144234,0.0002011030883295,,0.0000000000000000,0.0000000000000000,
1559013413.5871307849884033,0.8329899311065674,,0.0017911479056680,-0.0022050303199954,-0.0016678312033886,0.0000116322171500,-0.0000291244934387,0.0000235143222620,0.9999999992317662,-0.0742410551816819,0.2425698446083491,0.0031784280962855,0.0025154155156598,-0.0034480232432722,-0.0014079618391859,0.0011872512626171,0.0006950419601756,0.0000722180545410,,0.0029793041120702,0.0022850978194576,-0.0062355968635227,0.0000513820153999,0.0003652185188706,-0.0000191070754111,0.9999999318051185,-0.0697080120060804,0.2877518904235050,-0.0017630965814789,0.0041950782760978,0.0002852485340554,-0.0039476011879742,0.0008162726880983,-0.0012087703216821,-0.0000799497574917,,0.0000000000000000,0.0000000000000000,
1559013413.6204507350921631,0.8663098812103271,,0.0018286347839427,-0.0021690465867364,-0.0016559938008223,0.0000124716120546,-0.0000297109469252,0.0000258388078389,0.9999999991470373,-0.0741437335229100,0.2425029877973811,0.0034448816864205,0.0029251646691293,-0.0033985518846696,-0.0023029815803120,0.0001240333574539,0.0001585183174477,0.0000582371648455,,0.0034378551607457,0.0025472472578253,-0.0043545256517963,0.0000600555418070,0.0003908734422606,-0.0000220183470360,0.9999999215632351,-0.0687157343071086,0.2906913252913965,-0.0021000470966965,0.0047460272908211,0.0013947092229500,0.0006963039049879,-0.0011309223482385,-0.0014337574830279,0.0015923746395856,,0.0000000000000000,0.0000000000000000,
1559013413.6537706851959229,0.8996298313140869,,0.0019294365089919,-0.0022741038886649,-0.0017508689078002,0.0000123439357345,-0.0000333563188908,0.0000279911969412,0.9999999989757381,-0.0741573222782393,0.2420855819530972,0.0036920755656422,0.0032889964120046,-0.0041664580815288,-0.0029047346920495,-0.0004136805087426,0.0001528118256656,0.0005857079188200,,0.0036291435458029,0.0025966150466021,-0.0043469637549630,0.0000571760738891,0.0003901364780748,-0.0000200743580797,0.9999999220607196,-0.0690446522828446,0.2906071492304136,-0.0018773020674637,0.0051087369211018,0.0014169181231409,0.0000617773694103,-0.0004234086372890,-0.0003483407199383,-0.0010793746914715,,0.0000000000000000,0.0000000000000000,
1559013413.6870906352996826,0.9329497814178467,,0.0020090419013941,-0.0021679314113719,-0.0018750408239784,0.0000004454841456,-0.0000293059984854,0.0000322390038851,0.9999999990508033,-0.0755186989118217,0.2425503941068526,0.0041782757754742,0.0030564483078391,-0.0043575533771951,-0.0028534772393431,-0.0012110265889061,0.0004180645456466,0.0003135917817040,,0.0030493702962463,0.0032644654958341,0.0008699874413255,0.0000565348685116,0.0004011745245693,-0.0000199703200367,0.9999999177319946,-0.0691181066800932,0.2918720288214725,-0.0018670061042162,0.0025712531059980,0.0029879908543080,0.0095492219552398,0.0001241849677172,-0.0003560954646673,0.0001962994283531,,0.0000000000000000,0.0000000000000000,
1559013413.7204108238220215,0.9662699699401855,,0.0020895368391844,-0.0022684509072796,-0.0019512062321418,-0.0000086926384243,-0.0000273561022848,0.0000328667752663,0.9999999990479285,-0.0765655377632826,0.2427739648612576,0.0042499476511809,0.0038321135056576,-0.0050083700392082,-0.0045151615998843,-0.0004097003673161,-0.0009124190018300,0.0005782410889529,,0.0030493702962463,0.0032644654958341,0.0008699874413255,0.0000565348685116,0.0004011745245693,-0.0000199703200367,0.9999999177319946,-0.0691181066800932,0.2918720288214725,-0.0018670061042162,0.0025712531059980,0.0029879908543080,0.0095492219552398,0.0001241849677172,-0.0003560954646673,0.0001962994283531,,0.0000000000000000,0.0000000000000000,
1559013413.7537307739257812,0.9995899200439453,,0.0021639164379046,-0.0023477802772077,-0.0020131659253484,-0.0000038574958672,-0.0000285999764006,0.0000372265361789,0.9999999988906731,-0.0760093452584449,0.2426320701279258,0.0047497169100005,0.0036078299687047,-0.0048291679291467,-0.0027215621951632,0.0001189234778481,0.0001547659428340,0.0005908316627527,,0.0029821578802633,0.0023954715740928,-0.0033581745908973,0.0000636555501370,0.0004000566115030,-0.0000217090852176,0.9999999177156937,-0.0683030665391002,0.2917436920126553,-0.0020657681279611,0.0022860211320221,-0.0006600108463317,0.0015310561284423,-0.0004109627625439,-0.0006739070522599,-0.0001190709881485,,0.0000000000000000,0.0000000000000000,
1559013413.7870507240295410,1.0329098701477051,,0.0022551633872081,-0.0024520189979627,-0.0020886939290847,0.0000003391501035,-0.0000279657224546,0.0000419843742181,0.9999999987275580,-0.0755261180509328,0.2427054511700543,0.0052948198421622,0.0034225073608592,-0.0027453619319601,-0.0025156621055606,0.0001281481948815,0.0004285783765708,-0.0004724906061309,,0.0029821578802633,0.0023954715740928,-0.0033581745908973,0.0000636555501370,0.0004000566115030,-0.0000217090852176,0.9999999177156937,-0.0683030665391002,0.2917436920126553,-0.0020657681279611,0.0022860211320221,-0.0006600108463317,0.0015310561284423,-0.0004109627625439,-0.0006739070522599,-0.0001190709881485,,0.0000000000000000,0.0000000000000000,
1559013413.8203706741333008,1.0662298202514648,,0.0023499788294858,-0.0024936479386665,-0.0021824922751440,-0.0000041872247187,-0.0000285716914362,0.0000462588885957,0.9999999985131205,-0.0760427165520344,0.2426366821448015,0.0057847534209654,0.0038009526567996,-0.0040955647781334,-0.0039782229061445,-0.0004126854747879,-0.0001134958830008,0.0005838412152552,,0.0028483643782737,0.0054159764026453,-0.0048358352553247,0.0000756474026680,0.0004063720092715,-0.0000323465478623,0.9999999140464770,-0.0669346459473181,0.2924658971404100,-0.0032850968095539,0.0015071481466293,0.0085062691941857,-0.0014686621725559,-0.0004123515100218,-0.0004598114755936,-0.0001185764558613,,0.0000000000000000,0.0000000000000000,
1559013413.8536908626556396,1.0995500087738037,,0.0023499788294858,-0.0024936479386665,-0.0021824922751440,-0.0000041872247187,-0.0000285716914362,0.0000462588885957,0.9999999985131205,-0.0760427165520344,0.2426366821448015,0.0057847534209654,0.0038009526567996,-0.0040955647781334,-0.0039782229061445,-0.0004126854747879,-0.0001134958830008,0.0005838412152552,,0.0054303640759792,0.0028405871846140,-0.0015512931906976,0.0000727297327581,0.0004122941432348,-0.0000389757507913,0.9999999116024042,-0.0672725866643876,0.2931435651078277,-0.0040457387794924,0.0105438055470586,-0.0008907766314223,0.0042810388840735,0.0001138636871474,-0.0001375615538564,-0.0004429370164871,,0.0000000000000000,0.0000000000000000,
1559013413.8870108127593994,1.1328699588775635,,0.0025881585315426,-0.0026679265891721,-0.0024342501780852,-0.0000120068471503,-0.0000380692471557,0.0000365772562250,0.9999999985343362,-0.0769435428031856,0.2415469083676015,0.0046767851520075,0.0039442059281998,-0.0021267353076176,-0.0044040622286308,0.0004004204030477,-0.0011682908138572,-0.0004811289986706,,0.0042457708010142,0.0032688893773403,-0.0056604679087909,0.0000648888487885,0.0004357793942480,-0.0000388127972930,0.9999999021896570,-0.0681711214985140,0.2958347627029305,-0.0040308126094763,0.0040785656310618,0.0004996526986361,-0.0031115380115807,-0.0004219063557684,-0.0014084292342886,-0.0011841928353533,,0.0000000000000000,0.0000000000000000,
1559013413.9203307628631592,1.1661899089813232,,0.0025881585315426,-0.0026679265891721,-0.0024342501780852,-0.0000120068471503,-0.0000380692471557,0.0000365772562250,0.9999999985343362,-0.0769435428031856,0.2415469083676015,0.0046767851520075,0.0039442059281998,-0.0021267353076176,-0.0044040622286308,0.0004004204030477,-0.0011682908138572,-0.0004811289986706,,0.0037830777864451,0.0059721551358482,-0.0016152676663159,0.0000616365717948,0.0004380310634883,-0.0000290971533605,0.9999999017415333,-0.0685385516296640,0.2960941705912740,-0.0029179549245959,0.0020071996841580,0.0080442428588867,0.0036611172836274,0.0013339569559321,0.0007723305607215,-0.0004502651281655,,0.0000000000000000,0.0000000000000000,
1559013413.9536507129669189,1.1995098590850830,,0.0028123183557680,-0.0028736795639802,-0.0026212403212388,-0.0000323107950676,-0.0000407504517550,0.0000393839798274,0.9999999978721578,-0.0792688456626358,0.2412401850371891,0.0049989181594223,0.0034454158011438,-0.0036107024074690,-0.0025176930581644,0.0011785914080655,0.0009557211056211,0.0008729765011854,,0.0016163225134831,0.0018428269025782,0.0076378858718637,0.0000685984619212,0.0004543867289951,-0.0000311516418720,0.9999998939282577,-0.0677419600665057,0.2979681196768502,-0.0031553800325751,-0.0052592363208532,-0.0075239953584969,0.0202106647193432,0.0005249262321740,0.0007250083726831,-0.0012422207510099,,0.0000000000000000,0.0000000000000000,
1559013413.9869606494903564,1.2328197956085205,,0.0029945192555312,-0.0030816869730733,-0.0028092549689848,-0.0000323690791002,-0.0000297811669536,0.0000530391410592,0.9999999976260872,-0.0792688128466111,0.2424992858947324,0.0065619987131734,0.0032441569234347,-0.0042582529103790,-0.0046517464871439,-0.0004122553064562,-0.0009142951895376,0.0008445383280396,,0.0000121213038593,0.0015928919038833,-0.0050828893196578,0.0000748137299263,0.0004453782290903,-0.0000428664643663,0.9999998971017973,-0.0670360616612345,0.2969341739491855,-0.0044962081267990,-0.0103412009775639,-0.0070697003975511,-0.0045804427936673,-0.0004666797758546,-0.0001374986022711,0.0000456533380202,,0.0000000000000000,0.0000000000000000,
1559013414.0202808380126953,1.2661399841308594,,0.0030207215444613,-0.0034917790593811,-0.0018836758764854,-0.0000317935846349,-0.0000334631202533,0.0000524870124570,0.9999999975572507,-0.0792031554501310,0.2420772765618066,0.0064992968033725,0.0020743475328455,-0.0020988396830109,-0.0011397765279432,0.0001236031841843,0.0009593176088674,-0.0002024599450931,,0.0000121213038593,0.0015928919038833,-0.0050828893196578,0.0000748137299263,0.0004453782290903,-0.0000428664643663,0.9999998971017973,-0.0670360616612345,0.2969341739491855,-0.0044962081267990,-0.0103412009775639,-0.0070697003975511,-0.0045804427936673,-0.0004666797758546,-0.0001374986022711,0.0000456533380202,,0.0000000000000000,0.0000000000000000,
1559013414.0536007881164551,1.2994599342346191,,0.0031340575984051,-0.0035893450498366,-0.0019897965228314,-0.0000303036157848,-0.0000320359539829,0.0000561681710116,0.9999999974502626,-0.0790306129917992,0.2422413777227171,0.0069209035554383,0.0043300601838762,-0.0030203980183252,-0.0049755252070295,0.0001254585696243,-0.0009085887791504,0.0003170675370335,,-0.0001918267742289,0.0014583252582462,-0.0051793105503548,0.0000672918954053,0.0004469704203664,-0.0000485581158316,0.9999998966656715,-0.0679011019789145,0.2971157712807340,-0.0051490438799222,-0.0097791878506541,-0.0069832173176110,-0.0047325701452792,0.0013753385283053,0.0003016986011062,-0.0014640276785940,,0.0000000000000000,0.0000000000000000,
1559013414.0869207382202148,1.3327798843383789,,0.0032379290947357,-0.0035270918460105,-0.0020752901147384,-0.0000268035919569,-0.0000305882792839,0.0000585303194913,0.9999999974600632,-0.0786283779959398,0.2424076105389341,0.0071913519760190,0.0040877485562982,-0.0024527997204147,-0.0029804471463828,-0.0001387186555399,-0.0001068903474285,-0.0002124886895552,,-0.0003862388438266,0.0013193463922199,-0.0052756966752279,0.0000762091679498,0.0004512275026457,-0.0000531757478453,0.9999998938791161,-0.0668817920699509,0.2976029888637595,-0.0056783421457382,-0.0093114748597145,-0.0073452508077025,-0.0049650780856609,0.0013335975818336,0.0000820299610496,-0.0005578060518019,,0.0000000000000000,0.0000000000000000,
1559013414.1202406883239746,1.3660998344421387,,0.0033579919107434,-0.0036192172467866,-0.0021572589441885,-0.0000329167279114,-0.0000355720546047,0.0000579434823898,0.9999999971468355,-0.0793292080797367,0.2418364626148204,0.0071248981563483,0.0039132968317147,-0.0023186487933157,-0.0031862541856462,-0.0006632276634854,-0.0009040152161619,-0.0007558070441532,,-0.0003862388438266,0.0013193463922199,-0.0052756966752279,0.0000762091679498,0.0004512275026457,-0.0000531757478453,0.9999998938791161,-0.0668817920699509,0.2976029888637595,-0.0056783421457382,-0.0093114748597145,-0.0073452508077025,-0.0049650780856609,0.0013335975818336,0.0000820299610496,-0.0005578060518019,,0.0000000000000000,0.0000000000000000,
1559013414.1535606384277344,1.3994197845458984,,0.0035421704965122,-0.0039269114497928,-0.0021753449236491,-0.0000333055526010,-0.0000280298212289,0.0000469420202147,0.9999999979507580,-0.0793790944299008,0.2426990361655711,0.0058630463394502,0.0033584144532647,-0.0033946610491905,-0.0022664857020065,-0.0004060156889616,0.0001584403064831,-0.0002131838500098,,-0.0005695107067441,0.0011753494670631,-0.0053720416089590,0.0000732402329876,0.0004666305450950,-0.0000575712412892,0.9999998867886710,-0.0672245097017332,0.2993674002054934,-0.0061843887103450,-0.0087402760982513,-0.0075568733736873,-0.0051086759194732,-0.0005755241727456,0.0005565957981162,0.0000478677466162,,0.0000000000000000,0.0000000000000000,
1559013414.1868808269500732,1.4327399730682373,,0.0036418513705907,-0.0040196912524759,-0.0022601210573790,-0.0000314130987089,-0.0000236136798384,0.0000444911157434,0.9999999982380761,-0.0791634131372896,0.2432046988245761,0.0055815017428332,0.0031337879852249,-0.0025087381806316,-0.0026610369205009,-0.0006691978736503,0.0006938310331538,-0.0007446067884741,,0.0017337937437958,0.0027914976925686,-0.0073980466569868,0.0000657147087486,0.0004684735527028,-0.0000318904734004,0.9999998875985463,-0.0680728783992629,0.2995822330364225,-0.0032422190918197,-0.0032952094916254,-0.0025957324542105,-0.0077453418634832,-0.0003198916092515,-0.0001808123633964,-0.0010700231650844,,0.0000000000000000,0.0000000000000000,
1559013414.2202007770538330,1.4660599231719971,,0.0037211735859681,-0.0038246401309493,-0.0023181665073445,-0.0000346481023936,-0.0000202203763123,0.0000508247494999,0.9999999979037453,-0.0795310017898929,0.2435945412264661,0.0063067710370979,0.0029010400283393,-0.0029529120279315,-0.0038066324336684,-0.0004055855150979,-0.0006423589967116,0.0000475132627845,,0.0017337937437958,0.0027914976925686,-0.0073980466569868,0.0000657147087486,0.0004684735527028,-0.0000318904734004,0.9999998875985463,-0.0680728783992629,0.2995822330364225,-0.0032422190918197,-0.0032952094916254,-0.0025957324542105,-0.0077453418634832,-0.0003198916092515,-0.0001808123633964,-0.0010700231650844,,0.0000000000000000,0.0000000000000000,
1559013414.2535207271575928,1.4993798732757568,,0.0038021512300581,-0.0039239623567445,-0.0024054792629932,-0.0000474830717806,-0.0000266028716382,0.0000555013852461,0.9999999969786207,-0.0809995279101380,0.2428639687862847,0.0068437072398921,0.0027759455798705,-0.0038087021089249,-0.0021533199556476,-0.0009478443982842,-0.0001173262460033,0.0008450146932091,,0.0016039150001529,0.0026808541271728,-0.0077449373068534,0.0000509286114285,0.0004870076570089,-0.0000417809085965,0.9999998792420798,-0.0697727422121326,0.3017045906296459,-0.0043790822358526,-0.0030165864154696,-0.0030540812294930,-0.0095399990677834,0.0000660082805553,-0.0000287355851469,0.0002058113022940,,0.0000000000000000,0.0000000000000000,
1559013414.2868406772613525,1.5326998233795166,,0.0038914404190968,-0.0039667528574257,-0.0023528290439098,-0.0000617061910950,-0.0000236416652253,0.0000609041121290,0.9999999959620534,-0.0826267177205000,0.2432042428699583,0.0074623939285589,0.0032962404790234,-0.0020863244917055,-0.0028845328098734,-0.0006774275634495,0.0001537108837825,0.0003168487825160,,0.0002987987401741,0.0013703470549558,-0.0050418977993937,0.0000542421005806,0.0004873639966526,-0.0000263471795140,0.9999998794199705,-0.0693845930889136,0.3017476779729769,-0.0026103510301210,-0.0070480327121913,-0.0073105720803142,-0.0040192874148488,-0.0008900916436687,-0.0017317757010460,-0.0002116747200489,,0.0000000000000000,0.0000000000000000,
1559013414.3201606273651123,1.5660197734832764,,0.0040075729684710,-0.0040178866102787,-0.0025151962836719,-0.0000715385210587,-0.0000296000660073,0.0000630876932630,0.9999999950130095,-0.0837523906469646,0.2425218776151893,0.0077135916745533,0.0030745557164021,-0.0019452172228891,-0.0055795070037350,-0.0006779924298428,-0.0003807807205296,0.0005794126037131,,0.0001515348646201,0.0012294817827928,-0.0051123345942179,0.0000495634790215,0.0004787440758719,-0.0000295359639095,0.9999998837375924,-0.0699224355375030,0.3007594300014954,-0.0029747703706644,-0.0074289659969509,-0.0072463871911168,-0.0031776153482497,0.0000637078628642,-0.0005068728933111,-0.0000599529594183,,0.0000000000000000,0.0000000000000000,
1559013414.3534808158874512,1.5993399620056152,,0.0040810291125619,-0.0040019948671235,-0.0026248642422702,-0.0000910617548555,-0.0000299647089605,0.0000644142899596,0.9999999933303363,-0.0859889426497230,0.2424804481873789,0.0078657345994611,0.0023571273920431,-0.0011047893371240,-0.0028262420092068,-0.0006691978819490,0.0006938310235883,-0.0007446067775398,,0.0034192999153591,0.0010579430106152,0.0064953994279523,0.0000345271351897,0.0005111463805106,-0.0000263829984575,0.9999998684205874,-0.0716438772364495,0.3044728703048402,-0.0026190585096938,0.0061334241181612,-0.0059950468130410,0.0181544125080109,-0.0012176220770925,0.0004556177300401,-0.0002580562722869,,0.0000000000000000,0.0000000000000000,
1559013414.3868007659912109,1.6326599121093750,,0.0041830038509261,-0.0041182952321871,-0.0027350573397248,-0.0000992303520331,-0.0000328279441118,0.0000641018095506,0.9999999924833107,-0.0869251664986608,0.2421523555011259,0.0078304198822614,0.0021890207756173,-0.0033080241097831,-0.0001539342173061,-0.0004080057687752,0.0006910557225501,-0.0002094504137580,,0.0021895927776940,0.0029798482027788,-0.0017919951850399,0.0000030791525065,0.0005051542388313,-0.0000423319240284,0.9999998715088527,-0.0752563039453160,0.3037837185136449,-0.0044476326101652,-0.0012074953410774,0.0004014892037958,0.0003388677432667,0.0008526051533408,0.0004610072937794,-0.0004364303313196,,0.0000000000000000,0.0000000000000000,
1559013414.4201207160949707,1.6659798622131348,,0.0042166546867410,-0.0041146146914281,-0.0024895002102261,-0.0000969966251664,-0.0000320240807353,0.0000597579868128,0.9999999929975480,-0.0866713154143826,0.2422437502687831,0.0073325117253132,0.0020342091253396,-0.0038385944832742,-0.0016177313936491,-0.0006789874702218,-0.0001144730053793,0.0005812793216048,,0.0021895927776940,0.0029798482027788,-0.0017919951850399,0.0000030791525065,0.0005051542388313,-0.0000423319240284,0.9999998715088527,-0.0752563039453160,0.3037837185136449,-0.0044476326101652,-0.0012074953410774,0.0004014892037958,0.0003388677432667,0.0008526051533408,0.0004610072937794,-0.0004364303313196,,0.0000000000000000,0.0000000000000000,
1559013414.4534406661987305,1.6992998123168945,,0.0042973477155976,-0.0042446328967213,-0.0026114228438806,-0.0001049259757965,-0.0000413973232511,0.0000739596483718,0.9999999909033858,-0.0875730922382552,0.2411720279292167,0.0089614731874235,0.0029937619765859,-0.0039598651597415,-0.0067214695115147,-0.0004108301045494,-0.0019814022873693,0.0011033687035840,,0.0021652563266717,0.0029830315984504,-0.0017711143889034,0.0000129066003569,0.0005100100540465,-0.0000459568410642,0.9999998688055579,-0.0741321804956379,0.3043396591730880,-0.0048631812643290,-0.0012841224670410,-0.0001002111966955,0.0015639855992049,0.0004832490230910,0.0007252815994434,-0.0001657244720263,,0.0000000000000000,0.0000000000000000,
1559013414.4867608547210693,1.7326200008392334,,0.0043429615962784,-0.0040645192373186,-0.0027684591096605,-0.0001037694254623,-0.0000504217771923,0.0000821003090599,0.9999999899745450,-0.0874366748451426,0.2401392197320955,0.0098957968787000,0.0023638844370891,-0.0037005928420787,-0.0042731000634522,0.0003872155396438,-0.0003768725051528,0.0005896600763413,,-0.0010190916370042,0.0029305503448535,-0.0129715628905499,0.0000147787733985,0.0005115638677940,-0.0000305568678146,0.9999998685751288,-0.0739091776481601,0.3045200255605026,-0.0030985740714162,-0.0116727147251368,-0.0011033358750865,-0.0203522164374590,-0.0005853964248672,0.0004621939733624,-0.0006874375976622,,0.0000000000000000,0.0000000000000000,
1559013414.5200808048248291,1.7659399509429932,,0.0044495435200553,-0.0041862671084472,-0.0028798623842230,-0.0001008604009327,-0.0000536218448827,0.0000790778351659,0.9999999903492867,-0.0871048211743072,0.2397720003596308,0.0095499479227600,0.0040154932959234,-0.0033600449295873,-0.0018088051944117,0.0001291432156459,0.0001622705914028,-0.0004743573494117,,-0.0010190916370042,0.0029305503448535,-0.0129715628905499,0.0000147787733985,0.0005115638677940,-0.0000305568678146,0.9999998685751288,-0.0739091776481601,0.3045200255605026,-0.0030985740714162,-0.0116727147251368,-0.0011033358750865,-0.0203522164374590,-0.0005853964248672,0.0004621939733624,-0.0006874375976622,,0.0000000000000000,0.0000000000000000,
1559013414.5534007549285889,1.7992599010467529,,0.0045886695673454,-0.0041679354912499,-0.0027029569490545,-0.0000976052078658,-0.0000384550385252,0.0000693541998703,0.9999999920922144,-0.0867364160599539,0.2415083790929942,0.0084332113735214,0.0047538842464462,-0.0044756578891603,-0.0002859894251065,-0.0004166656330524,0.0009517348706647,0.0005913080202277,,-0.0014186147277336,0.0028985353920135,-0.0137229153900472,-0.0000057996978002,0.0005104819711338,-0.0000229059692081,0.9999998694249101,-0.0762630878852232,0.3043971376825290,-0.0022228761208905,-0.0113122472539544,-0.0013487567193806,-0.0224984772503376,0.0019746769685298,0.0005661716568284,0.0000881503365235,,0.0000000000000000,0.0000000000000000,
1559013414.5867207050323486,1.8325798511505127,,0.0047669658104952,-0.0042922331568720,-0.0027309378724887,-0.0001082040058456,-0.0000203570377864,0.0000723660989706,0.9999999913203160,-0.0879493430151821,0.2435828318445870,0.0087754398429425,0.0055395633947126,-0.0041322402638126,-0.0023876571655197,-0.0004146755633713,0.0004191194522693,0.0005875745934659,,0.0019871844674433,0.0011427158324406,0.0014052757964757,0.0000145126597581,0.0004981842610422,-0.0000104171448080,0.9999998757466462,-0.0739285600851628,0.3029898472145832,-0.0007887165253009,0.0037218257784843,-0.0071086878888309,0.0082138963043690,0.0013264474691823,-0.0008638858562335,-0.0011839268263429,,0.0000000000000000,0.0000000000000000,
1559013414.6200406551361084,1.8658998012542725,,0.0050000636789198,-0.0043524732185039,-0.0024437792520141,-0.0001067804990643,-0.0000109412535835,0.0000794489926992,0.9999999910830358,-0.0877826749111636,0.2446629451948325,0.0095855449982397,0.0045938710353035,-0.0046739372559295,-0.0034023315337289,-0.0001499334715952,0.0001519126186910,0.0008545669953849,,0.0047568128774480,0.0037095875125719,0.0024648328165501,0.0000356404946868,0.0005075731344468,-0.0000260096516513,0.9999998702113747,-0.0715160763899768,0.3040634651266995,-0.0025756846490801,0.0136421741917729,0.0022794245742261,0.0105858491733670,0.0010575925698504,0.0012645954266191,-0.0008035744540393,,0.0000000000000000,0.0000000000000000,
1559013414.6533608436584473,1.8992199897766113,,0.0051272373988795,-0.0044694379565947,-0.0025421411212547,-0.0001049167463688,-0.0000125782020210,0.0000823033650402,0.9999999910302108,-0.0875677185899445,0.2444758135290466,0.0099128993239363,0.0037656899319694,-0.0035411625996508,-0.0031823427859939,0.0001285783443568,-0.0003722210292126,-0.0002117935254002,,0.0047568128774480,0.0037095875125719,0.0024648328165501,0.0000356404946868,0.0005075731344468,-0.0000260096516513,0.9999998702113747,-0.0715160763899768,0.3040634651266995,-0.0025756846490801,0.0136421741917729,0.0022794245742261,0.0105858491733670,0.0010575925698504,0.0012645954266191,-0.0008035744540393,,0.0000000000000000,0.0000000000000000,
1559013414.6866807937622070,1.9325399398803711,,0.0052845411608928,-0.0050072242366127,-0.0024365215105069,-0.0000979117303033,-0.0000184052319610,0.0000746022035044,0.9999999922545261,-0.0867688253013360,0.2438067696704492,0.0090313399027674,0.0042910836449046,-0.0046390944474684,-0.0027149982262061,0.0001209135296867,-0.0003778495770433,0.0005870982065131,,0.0052291259185608,0.0066394057520543,0.0041492087002540,0.0000389100275542,0.0005036717400379,-0.0000269764555915,0.9999998720365213,-0.0711419311843265,0.3036162666879023,-0.0026857110020908,0.0098902173340321,0.0114108640700579,0.0103509873151779,0.0004561709356494,0.0000499343514093,-0.0024497949052602,,0.0000000000000000,0.0000000000000000,
1559013414.7200007438659668,1.9658598899841309,,0.0054511919000595,-0.0051388375548532,-0.0025171054151639,-0.0000997597172069,-0.0000136413654366,0.0000769332113907,0.9999999919715966,-0.0869794087333724,0.2443530626699197,0.0092976854906618,0.0052561043571610,-0.0047025254964899,-0.0022272135658649,-0.0004182255153929,0.0006835509493629,0.0008557385248864,,0.0052291259185608,0.0066394057520543,0.0041492087002540,0.0000389100275542,0.0005036717400379,-0.0000269764555915,0.9999998720365213,-0.0711419311843265,0.3036162666879023,-0.0026857110020908,0.0098902173340321,0.0114108640700579,0.0103509873151779,0.0004561709356494,0.0000499343514093,-0.0024497949052602,,0.0000000000000000,0.0000000000000000,
1559013414.7533206939697266,1.9991798400878906,,0.0056807088339359,-0.0050756458085925,-0.0025714847756259,-0.0001067083622100,-0.0000086843853540,0.0000884534376215,0.9999999903569482,-0.0877699699118388,0.2449230328964447,0.0106170180764184,0.0061982084571888,-0.0049235440925577,-0.0035437910931138,-0.0009452894581395,-0.0001154501049242,0.0005787174167662,,0.0048463070129249,-0.0018530932854782,-0.0043371194688543,0.0000496536779303,0.0005462905973898,-0.0000412375629876,0.9999998487002679,-0.0699188675543722,0.3084979834910337,-0.0043255173052810,0.0092678898945451,-0.0197609998285770,-0.0056686224415898,0.0003229734138586,0.0009426797041669,0.0000063279644564,,0.0000000000000000,0.0000000000000000,
1559013414.7866406440734863,2.0324997901916504,,0.0058709584236696,-0.0051799327487835,-0.0026514429307338,-0.0000970893854762,0.0000015650296176,0.0000775667256156,0.9999999922773025,-0.0866729760756157,0.2460956646569807,0.0093678105092503,0.0052325639708959,-0.0024039407841345,-0.0021545269871585,0.0006684169922159,0.0004361609321688,-0.0012662586435826,,0.0052264772958771,-0.0026613178782102,-0.0045826045094389,0.0000475461241026,0.0005503896550055,-0.0000303206917289,0.9999998469456131,-0.0701543412170739,0.3089692817089975,-0.0030752484778133,0.0105025302618742,-0.0202286429703236,-0.0065599353983998,-0.0001585589197930,0.0001465858949814,-0.0005223532207310,,0.0000000000000000,0.0000000000000000,
1559013414.8199608325958252,2.0658199787139893,,0.0059924037922667,-0.0048251578234751,-0.0023587143812871,-0.0000761252646589,0.0000031449925139,0.0000674185459392,0.9999999948248964,-0.0842756466726456,0.2462749066457665,0.0082046566770285,0.0054785082842616,-0.0045805244949001,-0.0030072522123677,0.0009182596238456,-0.0006431023029811,0.0008592143371821,,0.0018265234022796,0.0015953799455236,-0.0011554579264682,0.0000444837004642,0.0005729476672168,-0.0000262091427368,0.9999998345326123,-0.0705030742439686,0.3115548276295116,-0.0026075822996182,-0.0026890477165580,-0.0041862255893648,-0.0000044877328946,0.0005216741119511,0.0008985064923763,-0.0011142032453790,,0.0000000000000000,0.0000000000000000,
1559013414.8532807826995850,2.0991399288177490,,0.0061508032925615,-0.0049166036530937,-0.0024187015460256,-0.0000742459405267,0.0000042002044771,0.0000676177882470,0.9999999949488667,-0.0840601864698757,0.2463958421957827,0.0082273206236419,0.0052658296421113,-0.0032034643540972,-0.0024386546874842,0.0001199184790919,-0.0001115419043302,0.0005889649302451,,0.0017678621869116,0.0015124191525959,-0.0011558191354735,0.0000500246131654,0.0005711314993747,-0.0000341708840095,0.9999998350693360,-0.0698725603466937,0.3113455691600101,-0.0035193152565481,-0.0028836037963629,-0.0044308807700872,0.0001653605722822,-0.0004792680847459,0.0003601763455663,-0.0004656376258936,,0.0000000000000000,0.0000000000000000,
1559013414.8865907192230225,2.1324498653411865,,0.0062890656744592,-0.0050176589469633,-0.0024961941431052,-0.0000781833256595,0.0000095700562602,0.0000779593119741,0.9999999938590637,-0.0845062420320203,0.2470128670359055,0.0094115203475036,0.0037053037150447,-0.0027850286481783,-0.0016188015022742,-0.0012094667228471,0.0006862483001971,0.0000491612332622,,0.0037245920093585,0.0014593189274381,0.0018194195298815,0.0000452053608667,0.0005873934933458,-0.0000412583801236,0.9999998256115376,-0.0704288468814915,0.3132080009324146,-0.0043341840155431,0.0031235220376402,-0.0038933986797929,0.0055238688364625,0.0007684917072766,-0.0006610307609662,0.0011769605334848,,0.0000000000000000,0.0000000000000000,
1559013414.9199106693267822,2.1657698154449463,,0.0063930583233538,-0.0051082385773150,-0.0025616834206105,-0.0000953485237077,0.0000101324342565,0.0000811767144940,0.9999999921081670,-0.0864716381229773,0.2470779853405720,0.0097801004217432,0.0041438387178464,-0.0026416509967406,-0.0023125462802308,-0.0014661138317211,0.0001582843738788,-0.0007560257851079,,0.0037245920093585,0.0014593189274381,0.0018194195298815,0.0000452053608667,0.0005873934933458,-0.0000412583801236,0.9999998256115376,-0.0704288468814915,0.3132080009324146,-0.0043341840155431,0.0031235220376402,-0.0038933986797929,0.0055238688364625,0.0007684917072766,-0.0006610307609662,0.0011769605334848,,0.0000000000000000,0.0000000000000000,
1559013414.9532308578491211,2.1990900039672852,,0.0065317817783412,-0.0052152277159627,-0.0024349245229122,-0.0000978709056415,0.0000095297757061,0.0000854740019197,0.9999999915123322,-0.0867585687444596,0.2470096467540877,0.0102726322254416,0.0043354704568823,-0.0046180336407829,-0.0016910840461702,0.0001189234423241,0.0001547658016195,0.0005908316403389,,0.0017819703080484,0.0027485697378166,0.0002144086046948,0.0000582800221329,0.0005613600279983,-0.0000004010503061,0.9999998407390859,-0.0689077309125702,0.3102307548704150,0.0003524282589109,-0.0039354576729238,0.0009255666518584,0.0008877887739800,-0.0007359915180132,0.0003025436890312,0.0002885470166802,,0.0000000000000000,0.0000000000000000,
1559013414.9865508079528809,2.2324099540710449,,0.0066799938276856,-0.0053144680063235,-0.0025028604196122,-0.0000966050287074,0.0000079412953375,0.0000809693442485,0.9999999920241849,-0.0866157440277481,0.2468268776267438,0.0097566911903576,0.0049727909143348,-0.0031185276399878,-0.0019516795668807,0.0001255932210442,0.0004267020427609,-0.0002061933832605,,0.0017819703080484,0.0027485697378166,0.0002144086046948,0.0000582800221329,0.0005613600279983,-0.0000004010503061,0.9999998407390859,-0.0689077309125702,0.3102307548704150,0.0003524282589109,-0.0039354576729238,0.0009255666518584,0.0008877887739800,-0.0007359915180132,0.0003025436890312,0.0002885470166802,,0.0000000000000000,0.0000000000000000,
1559013415.0198707580566406,2.2657299041748047,,0.0068649017058802,-0.0051087317789957,-0.0027495656496920,-0.0000922049832865,0.0000144448984866,0.0000875345536579,0.9999999918136440,-0.0861082402625965,0.2475731553788714,0.0105079677484969,0.0061065819338119,-0.0029606782363344,-0.0034195812096253,0.0006550774045963,-0.0001077116243956,0.0003277914205774,,0.0029704976370324,0.0010159144944673,-0.0068657866970963,0.0000582245274008,0.0005601235302483,0.0000018985634455,0.9999998414339528,-0.0689128105575490,0.3100893950405605,0.0006161232992979,0.0019557164050639,-0.0059154736809433,-0.0117896087467670,-0.0002207496145274,0.0013766620540991,-0.0006734695052728,,0.0000000000000000,0.0000000000000000,
1559013415.0531907081604004,2.2990498542785645,,0.0070664387901380,-0.0052523931440083,-0.0028548999763447,-0.0000974386013415,0.0000144778180448,0.0000958209222860,0.9999999905572314,-0.0867038791408657,0.2475783245959370,0.0114575094866122,0.0052343025452519,-0.0033848338507276,-0.0022686255192845,0.0001265882321459,0.0001603943522394,-0.0002080600773123,,0.0030133856423412,0.0008862501395491,-0.0071070557166754,0.0000640275546371,0.0005673942903895,-0.0000046533457127,0.9999998369712556,-0.0682514830689509,0.3109216190609969,-0.0001353538390436,0.0024675165768713,-0.0062705124728382,-0.0119718415662646,0.0001781371393008,0.0008105618762784,-0.0008822103845887,,0.0000000000000000,0.0000000000000000,
1559013415.0865106582641602,2.3323698043823242,,0.0072210610585726,-0.0052314581906954,-0.0028599665033484,-0.0000931302564482,0.0000153647720275,0.0000834691523204,0.9999999920617899,-0.0862162668515937,0.2476779166816463,0.0100419528394741,0.0049341805436651,-0.0021796025127426,-0.0025229749999384,-0.0003963608699597,-0.0003685466290606,-0.0010158089637241,,0.0028302361133023,0.0011308112806345,-0.0055005617195409,0.0000614221750839,0.0005673859537669,0.0000062026473458,0.9999998371309983,-0.0685439934837356,0.3109222268541514,0.0011085002659068,0.0022205500863492,-0.0049788719043136,-0.0089428108185530,-0.0010673586511984,-0.0010183617705479,-0.0010928818956017,,0.0000000000000000,0.0000000000000000,
1559013415.1198308467864990,2.3656899929046631,,0.0073655633801841,-0.0053352500799319,-0.0029304969696742,-0.0001026025007754,0.0000150452131498,0.0000828815734093,0.9999999911885067,-0.0873019990075876,0.2476412928606102,0.0099746559281664,0.0048927516017992,-0.0022813278249346,-0.0023760383489469,-0.0001371588308493,0.0001612934825968,-0.0004769192049201,,0.0029878107440885,0.0007288817112278,-0.0061651333612094,0.0000439352569584,0.0005723284094916,-0.0000032104520452,0.9999998352497754,-0.0705530997770213,0.3114872255928340,0.0000279644039502,0.0016421368345618,-0.0055081960745156,-0.0084120603278279,0.0010094176977873,-0.0009097846341319,-0.0008456847863272,,0.0000000000000000,0.0000000000000000,
1559013415.1531507968902588,2.3990099430084229,,0.0075476182047338,-0.0052106636442050,-0.0029965268031373,-0.0001038496452654,0.0000204564242733,0.0000892356837039,0.9999999904168894,-0.0874417235912949,0.2482624188257525,0.0107019052898121,0.0047856601874675,-0.0023287553450032,-0.0029750218016557,0.0001240332868976,0.0001585181741750,0.0000582371506206,,0.0035860365057522,0.0049728162104847,-0.0003948088862355,0.0000461034086983,0.0005572411736923,0.0000432721577387,0.9999998427421228,-0.0702788005443683,0.3097651381373013,0.0053568951747581,0.0022059706971049,0.0089474814012647,0.0013144835829735,-0.0006860076682642,-0.0004370108363219,-0.0000765325530665,,0.0000000000000000,0.0000000000000000,
1559013415.1864707469940186,2.4323298931121826,,0.0077253316931210,-0.0053091123202058,-0.0031154615138068,-0.0001129920599967,0.0000125061165866,0.0000900727901296,0.9999999894816419,-0.0884890299782753,0.2473516123776594,0.0107991139579139,0.0046929587950116,-0.0009142587896970,-0.0026333380432234,0.0001362430927100,-0.0003665925080579,-0.0010106852438322,,0.0025138590955969,0.0033192539606244,0.0009078161052141,0.0000365193240325,0.0005775845015205,0.0000439068098541,0.9999998315673231,-0.0713766200413169,0.3120964502441695,0.0054260206836029,-0.0019299490377307,0.0016534070018679,0.0051813190802932,0.0001960064255400,0.0007469583069906,-0.0014681906905025,,0.0000000000000000,0.0000000000000000,
1559013415.2197906970977783,2.4656498432159424,,0.0077835924323306,-0.0052437439242021,-0.0029852811136183,-0.0001204685015689,0.0000121961576847,0.0000888337938266,0.9999999887235754,-0.0893463812190666,0.2473159665989509,0.0106571745469483,0.0042780600604975,-0.0032193725488615,-0.0008820300068657,-0.0001442587976005,0.0006901565357693,0.0000594087030564,,0.0025138590955969,0.0033192539606244,0.0009078161052141,0.0000365193240325,0.0005775845015205,0.0000439068098541,0.9999998315673231,-0.0713766200413169,0.3120964502441695,0.0054260206836029,-0.0019299490377307,0.0016534070018679,0.0051813190802932,0.0001960064255400,0.0007469583069906,-0.0014681906905025,,0.0000000000000000,0.0000000000000000,
1559013415.2531106472015381,2.4989697933197021,,0.0079604711532253,-0.0053479502701903,-0.0030544027419693,-0.0001156337702605,0.0000196706876471,0.0000899146419895,0.9999999890786262,-0.0887917569760912,0.2481726121700229,0.0107798101563921,0.0054736869031894,-0.0031870196270532,-0.0031256464223212,0.0001214783168432,0.0001566419891770,0.0003245343945650,,0.0024622045541892,0.0033692700341506,0.0010831382365003,0.0000311932746903,0.0005793344129262,0.0000361975982775,0.9999998310441615,-0.0719912381284506,0.3122958639970193,0.0045419871211058,-0.0010414639255032,0.0009290307061747,0.0048048202879727,0.0009482172317803,0.0003190914285369,-0.0010488524567336,,0.0000000000000000,0.0000000000000000,
1559013415.2864308357238770,2.5322899818420410,,0.0081629801107495,-0.0052868903358038,-0.0029697397254033,-0.0001149965254349,0.0000181112135402,0.0000800628369733,0.9999999900188627,-0.0887236149773820,0.2479922849160674,0.0096511246483267,0.0066714564251491,-0.0015828843822507,-0.0048620998365811,-0.0003979208112333,-0.0006367305172795,-0.0007513784454685,,0.0024622045541892,0.0033692700341506,0.0010831382365003,0.0000311932746903,0.0005793344129262,0.0000361975982775,0.9999998310441615,-0.0719912381284506,0.3122958639970193,0.0045419871211058,-0.0010414639255032,0.0009290307061747,0.0048048202879727,0.0009482172317803,0.0003190914285369,-0.0010488524567336,,0.0000000000000000,0.0000000000000000,
1559013415.3197507858276367,2.5656099319458008,,0.0083626164710866,-0.0053890588287746,-0.0030788839837926,-0.0001128619844227,0.0000282394790120,0.0000831456192265,0.9999999897757552,-0.0884774026646673,0.2491533835260682,0.0100027316094058,0.0054488754395040,-0.0024631610561664,-0.0029871620615421,0.0003918951387639,0.0004276790993070,-0.0002036315094440,,-0.0004187368762987,0.0000351582624904,-0.0101975856681350,0.0000339133369935,0.0005851228979050,0.0000428547801781,0.9999998273222590,-0.0716758011117047,0.3129601442598663,0.0053041828621122,-0.0091990232467651,-0.0111310230568051,-0.0174473952502012,-0.0002537416294217,0.0002517852990422,0.0007231563213281,,0.0000000000000000,0.0000000000000000,
1559013415.3530707359313965,2.5989298820495605,,0.0084414883230786,-0.0054669016023337,-0.0027564829531848,-0.0000972718369601,0.0000263933903710,0.0000815817169882,0.9999999915930012,-0.0866916933381704,0.2489414353739539,0.0098238702659409,0.0050131274355288,-0.0023442425662775,-0.0020032210066850,0.0006581971329576,0.0004286561561056,-0.0002010696418455,,-0.0004187368762987,0.0000351582624904,-0.0101975856681350,0.0000339133369935,0.0005851228979050,0.0000428547801781,0.9999998273222590,-0.0716758011117047,0.3129601442598663,0.0053041828621122,-0.0091990232467651,-0.0111310230568051,-0.0174473952502012,-0.0002537416294217,0.0002517852990422,0.0007231563213281,,0.0000000000000000,0.0000000000000000,
1559013415.3863906860351562,2.6322498321533203,,0.0086163939716464,-0.0055632170753691,-0.0028791195058859,-0.0001007258573353,0.0000153736049767,0.0000849883933886,0.9999999911974635,-0.0870859086852973,0.2476792485685680,0.0102160315810665,0.0054312920111671,-0.0023017621385156,-0.0028652047744393,-0.0004070108431951,0.0004247478864395,-0.0002113171273095,,-0.0009817813704339,-0.0000302048205232,-0.0113073154465510,0.0000366397794939,0.0005790403470259,0.0000539893675716,0.9999998302274612,-0.0713571827692653,0.3122647584925159,0.0065812067841531,-0.0103610353544354,-0.0106029035523534,-0.0180826224386692,0.0003542889317032,0.0002166567428503,-0.0017341335769743,,0.0000000000000000,0.0000000000000000,
1559013415.4197106361389160,2.6655697822570801,,0.0086694150228899,-0.0055299294249513,-0.0030950688020129,-0.0001068851163611,0.0000224335447315,0.0000831412487535,0.9999999905799204,-0.0877925573077815,0.2484880155107109,0.0100031985392557,0.0054625785151281,-0.0015395629379908,-0.0037317433464675,-0.0006682029609420,0.0004275231948613,-0.0007464734828503,,-0.0014185691403290,-0.0004501569395737,-0.0120030723032950,0.0000434684384757,0.0005856383472689,0.0000345169022151,0.9999998269733873,-0.0705855220237378,0.3130179456839972,0.0043492845201148,-0.0107360417023301,-0.0110346311703324,-0.0169592592865229,-0.0017026001587510,0.0004706384497695,-0.0002738574403338,,0.0000000000000000,0.0000000000000000,
1559013415.4530308246612549,2.6988899707794189,,0.0088622968270156,-0.0056048795238019,-0.0032263281724688,-0.0001059763871492,0.0000245920827312,0.0000774626182166,0.9999999910818890,-0.0876912145185751,0.2487344298834367,0.0093521199407338,0.0050302941825396,-0.0015787693142442,-0.0026537712790517,0.0003970050033725,0.0004314314391670,-0.0007362260198419,,0.0034025515714207,0.0019694676577049,0.0014925504697577,0.0000218994381274,0.0006415251941719,0.0000333035632454,0.9999997934283349,-0.0730576655340355,0.3194220055325690,0.0042004903961273,0.0078299734741449,-0.0012851294595748,0.0068843513727188,0.0005175640108064,-0.0001538863434689,-0.0014675890561193,,0.0000000000000000,0.0000000000000000,
1559013415.4863507747650146,2.7322099208831787,,0.0089238140834158,-0.0052441340874143,-0.0029700820690333,-0.0001054597713887,0.0000241537214133,0.0000793751252029,0.9999999909972120,-0.0876310723563402,0.2486845049239048,0.0095713519350882,0.0059363768694604,-0.0021703517394109,-0.0039287780468098,-0.0003994807384031,-0.0009049144526726,-0.0004869479269197,,0.0034025515714207,0.0019694676577049,0.0014925504697577,0.0000218994381274,0.0006415251941719,0.0000333035632454,0.9999997934283349,-0.0730576655340355,0.3194220055325690,0.0042004903961273,0.0078299734741449,-0.0012851294595748,0.0068843513727188,0.0005175640108064,-0.0001538863434689,-0.0014675890561193,,0.0000000000000000,0.0000000000000000,
