#Time(sec),Dtime(sec),,x(m),y(m),z(m),qx,qy,qz,qw,roll_x_G(deg),pitch_y_G(deg),yaw_z_G(deg),vx(m/s),vy(m/s),vz(m/s),wx(rad/s),wy(rad/s),wz(rad/s),,gt_x(m),gt_y(m),gt_z(m),gt_qx,gt_qy,gt_qz,gt_qw,gt_groll_x_G(deg),gt_pitch_y_G(deg),gt_yaw_z_G(deg),gt_vx(m/s),gt_vy(m/s),gt_vz(m/s),gt_wx(rad/s),gt_wy(rad/s),gt_wz(rad/s),,Sr,Sr_avg,
1559013412.7541408538818359,0.0000000000000000,,0.0000000000000002,0.0000000000000001,-0.0000000000000001,0.0000000000000000,-0.0000000000000001,0.0000000000000000,1.0000000000000000,-0.0755855138669150,0.2459037397968158,0.0004794994091153,0.0000000000000000,0.0000000000000000,0.0000000000000000,0.0000000000000000,0.0000000000000000,0.0000000000000000,,0.0000000000000000,0.0000000000000000,0.0000000000000000,0.0000000000000000,0.0000000000000000,0.0000000000000000,1.0000000000000000,-0.0755855138669150,0.2459037397968215,0.0004794994091152,-0.0098102642223239,-0.0059528849087656,-0.0021041124127805,0.0008114594966173,-0.0000641869410174,-0.0007574954070151,,0.0000000000000000,0.0000000000000000,
1559013412.7874608039855957,0.0333199501037598,,0.0000000000000002,0.0000000000000001,-0.0000000000000001,0.0000000000000000,-0.0000000000000001,0.0000000000000000,1.0000000000000000,-0.0755855138669150,0.2459037397968158,0.0004794994091153,0.0000000000000000,0.0000000000000000,0.0000000000000000,0.0000000000000000,0.0000000000000000,0.0000000000000000,,0.0000000000000000,0.0000000000000000,0.0000000000000000,0.0000000000000000,0.0000000000000000,0.0000000000000000,1.0000000000000000,-0.0755855138669150,0.2459037397968215,0.0004794994091152,-0.0098102642223239,-0.0059528849087656,-0.0021041124127805,0.0008114594966173,-0.0000641869410174,-0.0007574954070151,,0.0000000000000000,0.0000000000000000,
1559013412.8207807540893555,0.0666399002075195,,0.0000219726581638,-0.0000260111889973,-0.0000459141663904,-0.0000208610050351,-0.0000137221306289,-0.0000034844792411,0.9999999996821901,-0.0779777081630646,0.2443307657790641,0.0000823114382821,0.0005549145090711,-0.0009140744155948,-0.0007645881653806,-0.0006713226546122,-0.0001088443910840,-0.0002176123651700,,0.0000000000000000,0.0000000000000000,0.0000000000000000,0.0000000000000000,0.0000000000000000,0.0000000000000000,1.0000000000000000,-0.0755855138669150,0.2459037397968215,0.0004794994091152,-0.0098102642223239,-0.0059528849087656,-0.0021041124127805,0.0008114594966173,-0.0000641869410174,-0.0007574954070151,,0.0000000000000000,0.0000000000000000,
1559013412.8541007041931152,0.0999598503112793,,0.0000608926743231,-0.0000640802948601,-0.0001140602429562,-0.0000373096937066,-0.0000189844924195,-0.0000087132854731,0.9999999990858274,-0.0798651435414091,0.2437269247291102,-0.0005160265755550,0.0011061855532015,-0.0033799717536283,-0.0017536299372295,-0.0014824384616985,0.0004133351236126,0.0008436244272202,,0.0026245542083911,0.0026448552001494,-0.0084863851899029,-0.0000333937179824,0.0001718520074773,-0.0000101301488424,0.9999999846245635,-0.0794174526191618,0.2655949411350161,-0.0007079784706163,0.0011400097282603,-0.0002242026966996,-0.0186141021549702,-0.0007273238734342,-0.0001038627669914,-0.0002373664610786,,0.0000000000000000,0.0000000000000000,
1559013412.8874206542968750,0.1332798004150391,,0.0001262903034411,-0.0001468154741993,-0.0002142065874932,-0.0000378024141703,-0.0000235806923088,-0.0000050935236011,0.9999999989944923,-0.0799198270708824,0.2432008019201591,-0.0001005132246582,0.0021184657892204,-0.0024107857097970,-0.0026184181863062,0.0001285783637746,-0.0003722209284548,-0.0002117934720251,,0.0026245542083911,0.0026448552001494,-0.0084863851899029,-0.0000333937179824,0.0001718520074773,-0.0000101301488424,0.9999999846245635,-0.0794174526191618,0.2655949411350161,-0.0007079784706163,0.0011400097282603,-0.0002242026966996,-0.0186141021549702,-0.0007273238734342,-0.0001038627669914,-0.0002373664610786,,0.0000000000000000,0.0000000000000000,
1559013412.9207408428192139,0.1665999889373779,,0.0001876071963411,-0.0002485065635448,-0.0002723575101359,-0.0000332340376668,-0.0000278667317498,-0.0000049033733097,0.9999999990474505,-0.0793962315090670,0.2427096905476230,-0.0000780715043153,0.0016332172232536,-0.0030002443095807,-0.0000183282768429,0.0009260591413560,0.0006978172556181,-0.0004629382745979,,0.0018767528659337,-0.0015868478416372,-0.0062711862608355,-0.0000291626588616,0.0002160709066437,-0.0000033503031968,0.9999999762258388,-0.0789291896576434,0.2706631018623400,0.0000621929295683,-0.0001832428679336,-0.0139995729550719,-0.0103720519691706,-0.0000324573375110,0.0006396181997843,0.0005033669876866,,0.0000000000000000,0.0000000000000000,
1559013412.9540607929229736,0.1999199390411377,,0.0002430031225140,-0.0003463603261093,-0.0002758249126591,-0.0000159877088705,-0.0000173799184589,-0.0000071601045449,0.9999999996955323,-0.0774210661285771,0.2439110540772937,-0.0003383356322398,0.0019365777073430,-0.0021586421294047,-0.0003736092921968,0.0014586631297434,0.0006997713692154,-0.0004578145394009,,0.0018767528659337,-0.0015868478416372,-0.0062711862608355,-0.0000291626588616,0.0002160709066437,-0.0000033503031968,0.9999999762258388,-0.0789291896576434,0.2706631018623400,0.0000621929295683,-0.0001832428679336,-0.0139995729550719,-0.0103720519691706,-0.0000324573375110,0.0006396181997843,0.0005033669876866,,0.0000000000000000,0.0000000000000000,
1559013412.9873807430267334,0.2332398891448975,,0.0003049992330981,-0.0004089312959995,-0.0003164140705479,-0.0000144173017045,-0.0000098617901226,-0.0000141313640163,0.9999999997475956,-0.0772445424394733,0.2447715032002950,-0.0011383418386656,0.0011389741805766,-0.0019570558982999,-0.0014499054642399,-0.0004121206084769,0.0004209957160276,0.0003212774096721,,0.0018767528659337,-0.0015868478416372,-0.0062711862608355,-0.0000291626588616,0.0002160709066437,-0.0000033503031968,0.9999999762258388,-0.0789291896576434,0.2706631018623400,0.0000621929295683,-0.0001832428679336,-0.0139995729550719,-0.0103720519691706,-0.0000324573375110,0.0006396181997843,0.0005033669876866,,0.0000000000000000,0.0000000000000000,
1559013413.0207006931304932,0.2665598392486572,,0.0003431363790865,-0.0004716913804853,-0.0004165912864769,-0.0000362799963632,-0.0000178833168929,-0.0000100745123364,0.9999999991312265,-0.0797478174257171,0.2438528996089663,-0.0006721862495950,0.0008971832518353,-0.0020463925252434,-0.0023451758404527,-0.0009427345252527,-0.0001135738131031,0.0003124202551737,,0.0003195640245647,0.0012565451760955,0.0004369553676586,-0.0000203842576571,0.0002228644697758,0.0000059252942832,0.9999999749404003,-0.0779184667913354,0.2714430136939749,0.0011242835076430,-0.0063411630690098,-0.0023399125784636,0.0026414536405355,0.0006563157658093,0.0000575598314754,0.0000708336956450,,0.0000000000000000,0.0000000000000000,
1559013413.0540206432342529,0.2998797893524170,,0.0003903418709308,-0.0005530731092706,-0.0004847153840386,-0.0000454537236579,-0.0000198192877273,-0.0000091906053814,0.9999999987283439,-0.0807986128321173,0.2436311815676687,-0.0005705755700852,0.0017486898863368,-0.0027608805572256,-0.0017974615562203,0.0003923254197449,-0.0003731200542663,0.0000570656395446,,0.0001864124072654,0.0012166738894161,0.0004830618136631,-0.0000185716344986,0.0002542559187380,0.0000077107003256,0.9999999674747831,-0.0777098268087173,0.2750404781751465,0.0013241122817303,-0.0062631070613861,-0.0018153276760131,0.0017081610858440,-0.0014693180564791,-0.0002084249572363,0.0000913238181965,,0.0000000000000000,0.0000000000000000,
1559013413.0873408317565918,0.3331999778747559,,0.0004236810195448,-0.0005972999081291,-0.0004863902846342,-0.0000408711683514,-0.0000194033448753,-0.0000116516757144,0.9999999989086482,-0.0802746963318183,0.2436784662815476,-0.0008526709911589,0.0017246526146179,-0.0031895908147355,-0.0011781241739202,0.0001260234255512,-0.0003740971110650,0.0000545037719461,,-0.0012296630497877,0.0025351477552150,0.0010995718084875,-0.0000417926695341,0.0002369557506546,0.0000081066828663,0.9999999710198130,-0.0803705614379537,0.2730581080783792,0.0013715104470487,-0.0104640517383814,0.0027693663723767,0.0022680787369609,-0.0004222550487611,-0.0009954593842849,-0.0014647236093879,,0.0000000000000000,0.0000000000000000,
1559013413.1206507682800293,0.3665099143981934,,0.0004877607004434,-0.0007138818990986,-0.0005477652279685,-0.0000410329645865,-0.0000277650741033,-0.0000041845135270,0.9999999987639433,-0.0802895714682721,0.2427214473507518,0.0000043134859152,0.0027637628133403,-0.0047826635860058,-0.0033734876645991,0.0001177937450981,-0.0009142172565912,0.0011159593238513,,-0.0012296630497877,0.0025351477552150,0.0010995718084875,-0.0000417926695341,0.0002369557506546,0.0000081066828663,0.9999999710198130,-0.0803705614379537,0.2730581080783792,0.0013715104470487,-0.0104640517383814,0.0027693663723767,0.0022680787369609,-0.0004222550487611,-0.0009954593842849,-0.0014647236093879,,0.0000000000000000,0.0000000000000000,
1559013413.1539707183837891,0.3998298645019531,,0.0005993996457263,-0.0008563405354222,-0.0007331256430384,-0.0000265381186986,-0.0000211866281024,-0.0000015461608307,0.9999999994222323,-0.0786273009731490,0.2434756948126043,0.0003055882521091,0.0026083085302238,-0.0025292191117602,-0.0020227595316316,0.0006597571479912,0.0006968401992675,-0.0004655001468743,,0.0030802988584500,0.0012210024314830,-0.0004229099459523,-0.0000380366311522,0.0002537059910602,0.0000099031762481,0.9999999670442055,-0.0799392118169074,0.2749778185721677,0.0015748725432740,0.0080886157229543,-0.0046372590586543,0.0003316676011309,0.0006035095429979,0.0012304764240980,0.0005028592422605,,0.0000000000000000,0.0000000000000000,
1559013413.1872906684875488,0.4331498146057129,,0.0006707133262405,-0.0009371126238774,-0.0007890197836091,-0.0000239243161794,-0.0000153890953363,-0.0000099970420400,0.9999999995454311,-0.0783319274285921,0.2441387422421751,-0.0006637179945244,0.0014400259407075,-0.0019542699079047,0.0001415544810870,0.0001302729644659,0.0012312538768664,-0.0009994849524940,,-0.0003187015053108,0.0000959066590073,-0.0209231593457670,-0.0000160718343075,0.0002776230263452,0.0000108136414350,0.9999999612751075,-0.0774217422934056,0.2777186218234659,0.0016761845038021,-0.0058840299025178,-0.0058508231304586,-0.0372426919639111,0.0013397382572293,0.0005982400616631,-0.0003023762255907,,0.0000000000000000,0.0000000000000000,
1559013413.2206108570098877,0.4664700031280518,,0.0007276869656048,-0.0008859466020680,-0.0007322595458048,-0.0000182413153612,-0.0000186755369057,-0.0000192785228930,0.9999999994734088,-0.0776852424588497,0.2437607279880126,-0.0017268123393205,0.0022533143465552,-0.0001422565927417,-0.0023635178289651,0.0012059961659103,-0.0008934233754623,-0.0012704684032763,,-0.0003187015053108,0.0000959066590073,-0.0209231593457670,-0.0000160718343075,0.0002776230263452,0.0000108136414350,0.9999999612751075,-0.0774217422934056,0.2777186218234659,0.0016761845038021,-0.0058840299025178,-0.0058508231304586,-0.0372426919639111,0.0013397382572293,0.0005982400616631,-0.0003023762255907,,0.0000000000000000,0.0000000000000000,
1559013413.2539308071136475,0.4997899532318115,,0.0008164141144500,-0.0010089523355151,-0.0008243195339924,-0.0000074806009080,-0.0000191323500777,-0.0000098928915088,0.9999999997400623,-0.0764475588785364,0.2437098318566661,-0.0006512430266249,0.0023053590885151,-0.0030338344485437,-0.0029510224013025,-0.0001473785159878,0.0001537888844334,0.0005882698134034,,-0.0003187015053108,0.0000959066590073,-0.0209231593457670,-0.0000160718343075,0.0002776230263452,0.0000108136414350,0.9999999612751075,-0.0774217422934056,0.2777186218234659,0.0016761845038021,-0.0058840299025178,-0.0058508231304586,-0.0372426919639111,0.0013397382572293,0.0005982400616631,-0.0003023762255907,,0.0000000000000000,0.0000000000000000,
1559013413.2872507572174072,0.5331099033355713,,0.0008921929518990,-0.0010934372901158,-0.0009072163557805,-0.0000056884489897,-0.0000201551233568,0.0000003035769020,0.9999999997806603,-0.0762372004327600,0.2435941809058020,0.0005173470790132,0.0028383897115653,-0.0024746001393532,-0.0030094674047647,0.0006566373430401,0.0001604724200497,0.0000633609282568,,0.0034269625326508,0.0011286720590091,-0.0090409392735334,-0.0000107213567495,0.0003332832900764,0.0000064883889218,0.9999999443825994,-0.0768108869699027,0.2840961473448347,0.0011722296041699,0.0091384267434478,-0.0020928373560309,-0.0114530222490430,0.0010196233633906,0.0007099295035005,-0.0002983235754073,,0.0000000000000000,0.0000000000000000,
1559013413.3205707073211670,0.5664298534393311,,0.0009937762968071,-0.0012106034972377,-0.0010013903067693,-0.0000014850105284,-0.0000207000138274,0.0000006544079044,0.9999999997844380,-0.0757553498659253,0.2435317940476466,0.0005576224353663,0.0028809488770511,-0.0036735622153387,-0.0020672125484569,0.0001275833293902,-0.0001059132196321,-0.0002099267706587,,0.0034269625326508,0.0011286720590091,-0.0090409392735334,-0.0000107213567495,0.0003332832900764,0.0000064883889218,0.9999999443825994,-0.0768108869699027,0.2840961473448347,0.0011722296041699,0.0091384267434478,-0.0020928373560309,-0.0114530222490430,0.0010196233633906,0.0007099295035005,-0.0002983235754073,,0.0000000000000000,0.0000000000000000,
1559013413.3538906574249268,0.5997498035430908,,0.0010982608119987,-0.0014189307644397,-0.0010359477179707,0.0000043933853184,-0.0000162812815603,0.0000009099912747,0.9999999998573950,-0.0750816126603858,0.2440381810781937,0.0005862306665859,0.0023081228283697,-0.0042638204447528,-0.0012314208093612,0.0006530873697192,0.0004249039442781,0.0003315248717819,,0.0038770528996077,0.0016472316239445,-0.0017817424349745,-0.0000074296579382,0.0003350296155490,0.0000100847786441,0.9999999437991255,-0.0764317786616396,0.2842968057608064,0.0015842104441551,0.0097196577116847,-0.0004313084064052,0.0031110367272049,0.0015891643706709,0.0003474377153907,-0.0016894822474569,,0.0000000000000000,0.0000000000000000,
1559013413.3872108459472656,0.6330699920654297,,0.0011827881357287,-0.0015646273714482,-0.0011051457029694,0.0000078473628213,-0.0000121963827063,0.0000079802682577,0.9999999998629914,-0.0746823508509348,0.2445073376671374,0.0013958111191004,0.0025623560924941,-0.0044217208608323,-0.0033215709502066,-0.0001479433812714,-0.0003807027097766,0.0008508336236173,,0.0040679258189634,0.0016302978887204,-0.0017103729637689,0.0000057362566524,0.0003389510514528,0.0000028056137798,0.9999999425357027,-0.0749269346787147,0.2847450587356998,0.0007499853509923,0.0094946585595608,-0.0007214926299639,0.0039329784922302,-0.0014333359431475,0.0007109196740203,-0.0008072421769612,,0.0000000000000000,0.0000000000000000,
1559013413.4205307960510254,0.6663899421691895,,0.0012627073617766,-0.0016660415149912,-0.0011310372094273,-0.0000012826055139,-0.0000167954115007,0.0000061574926260,0.9999999998391771,-0.0757294622961051,0.2439800608068500,0.0011876433412321,0.0025364813106540,-0.0042108003740260,-0.0041804929773316,-0.0001469483454656,-0.0006470104175433,0.0008489669139666,,0.0040371625405149,0.0010407715328566,-0.0011724512895224,0.0000182179897012,0.0003403120708404,-0.0000080441169780,0.9999999418955441,-0.0735023907927335,0.2848993990187070,-0.0004930345491329,0.0076945354230702,-0.0024773650802672,0.0028743059374392,0.0014570327475667,-0.0012100221356377,0.0000713423796697,,0.0000000000000000,0.0000000000000000,
1559013413.4538507461547852,0.6997098922729492,,0.0013462132260851,-0.0017626419928703,-0.0012523737014642,-0.0000100271565608,-0.0000277925494902,0.0000034957565591,0.9999999995574049,-0.0767328152024720,0.2427194835021603,0.0008843202430011,0.0031089475297984,-0.0022315316072749,-0.0040976332400950,0.0001356783143080,-0.0009010839795798,-0.0007481214004452,,0.0040371625405149,0.0010407715328566,-0.0011724512895224,0.0000182179897012,0.0003403120708404,-0.0000080441169780,0.9999999418955441,-0.0735023907927335,0.2848993990187070,-0.0004930345491329,0.0076945354230702,-0.0024773650802672,0.0028743059374392,0.0014570327475667,-0.0012100221356377,0.0000713423796697,,0.0000000000000000,0.0000000000000000,
1559013413.4871706962585449,0.7330298423767090,,0.0014517435769950,-0.0017458923233894,-0.0013582199046266,0.0000029372503279,-0.0000222056997164,-0.0000060437996239,0.9999999997308761,-0.0752518724883590,0.2433582446205709,-0.0002097252456401,0.0034326482445385,-0.0046351528632590,-0.0027008873436991,0.0001189234799679,0.0001547659384358,0.0005908316580130,,0.0009705727291415,0.0016289898501757,-0.0079331041607371,0.0000413433631328,0.0003589990839138,-0.0000095545487231,0.9999999346595452,-0.0708532497001342,0.2870405726501778,-0.0006679541082759,-0.0035913039464504,0.0022433528210968,-0.0086488155648112,-0.0000468759790238,-0.0001395221770508,-0.0007117160712369,,0.0000000000000000,0.0000000000000000,
1559013413.5204906463623047,0.7663497924804688,,0.0015605918265917,-0.0018735595278121,-0.0014455933109021,0.0000027535035418,-0.0000212003577703,0.0000001518580196,0.9999999997714700,-0.0752698976284657,0.2434743827615738,0.0005000994168824,0.0036877530823770,-0.0040931021580983,-0.0029563350096906,0.0006515274682738,0.0001567200612715,0.0005959554003560,,0.0008416231557927,0.0017042349993819,-0.0082787919112038,0.0000540832522323,0.0003709936414145,-0.0000274513881228,0.9999999293425681,-0.0694029478739007,0.2884124663842267,-0.0027200200000634,-0.0031365249305964,0.0013117705238983,-0.0091546773910522,-0.0008535996312276,-0.0001344025076833,-0.0015033677918836,,0.0000000000000000,0.0000000000000000,
1559013413.5538108348846436,0.7996699810028076,,0.0016842479598345,-0.0020229869645754,-0.0015764266489302,0.0000041214754640,-0.0000292377891128,0.0000197955439995,0.9999999993681506,-0.0751035394044455,0.2425563218265433,0.0027523261586128,0.0035046408098635,-0.0055557908633690,-0.0038803077722108,0.0006458527252152,-0.0003815239020925,0.0013911137129680,,0.0024758539387623,0.0057413881910543,-0.0145369239774630,0.0000506482715030,0.0003704794838907,-0.0000233562550897,0.9999999298170925,-0.0697943785288060,0.2883541327314159,-0.0022508180482209,0.0023056725040078,0.0144427893683314,-0.0207519046962261,-0.0006191260763444,-0.0003596639144234,0.0002011030883295,,0.0000000000000000,0.0000000000000000,
1559013413.5871307849884033,0.8329899311065674,,0.0017946714663368,-0.0021631327316736,-0.0016794419242911,0.0000116311206437,-0.0000291253358231,0.0000235227839011,0.9999999992315554,-0.0742411767004331,0.2425697493489270,0.0031793978664199,0.0025198325481655,-0.0033954310234922,-0.0014225240510431,0.0011872512618879,0.0006950419595277,0.0000722180616600,,0.0029793041120702,0.0022850978194576,-0.0062355968635227,0.0000513820153999,0.0003652185188706,-0.0000191070754111,0.9999999318051185,-0.0697080120060804,0.2877518904235050,-0.0017630965814789,0.0041950782760978,0.0002852485340554,-0.0039476011879742,0.0008162726880983,-0.0012087703216821,-0.0000799497574917,,0.0000000000000000,0.0000000000000000,
1559013413.6204507350921631,0.8663098812103271,,0.0018327604458159,-0.0021266182630391,-0.0016656803114359,0.0000124705338102,-0.0000297118513009,0.0000258471906180,0.9999999991468073,-0.0741438529884491,0.2425028854218831,0.0034458424289996,0.0029301184337607,-0.0033475422929969,-0.0023146172293252,0.0001240333567246,0.0001585183167998,0.0000582371719646,,0.0029793041120702,0.0022850978194576,-0.0062355968635227,0.0000513820153999,0.0003652185188706,-0.0000191070754111,0.9999999318051185,-0.0697080120060804,0.2877518904235050,-0.0017630965814789,0.0041950782760978,0.0002852485340554,-0.0039476011879742,0.0008162726880983,-0.0012087703216821,-0.0000799497574917,,0.0000000000000000,0.0000000000000000,
1559013413.6537706851959229,0.8996298313140869,,0.0019337113120457,-0.0022301391345117,-0.0017609058358096,0.0000123428575079,-0.0000333572232763,0.0000279995798302,0.9999999989754866,-0.0741574417454096,0.2420854795768734,0.0036930363212432,0.0032939497118487,-0.0041154479156336,-0.0029163703939805,-0.0004136805094642,0.0001528118249556,0.0005857079258619,,0.0034378551607457,0.0025472472578253,-0.0043545256517963,0.0000600555418070,0.0003908734422606,-0.0000220183470360,0.9999999215632351,-0.0687157343071086,0.2906913252913965,-0.0021000470966965,0.0047460272908211,0.0013947092229500,0.0006963039049879,-0.0011309223482385,-0.0014337574830279,0.0015923746395856,,0.0000000000000000,0.0000000000000000,
1559013413.6870906352996826,0.9329497814178467,,0.0020127262525527,-0.0021189713320351,-0.0018858947394181,0.0000004443667106,-0.0000293068340056,0.0000322473728961,0.9999999990505095,-0.0755188228750365,0.2425502996319682,0.0041792349312389,0.0030605500943678,-0.0043029738500035,-0.0028655666350165,-0.0012110265896276,0.0004180645449366,0.0003135917887459,,0.0034378551607457,0.0025472472578253,-0.0043545256517963,0.0000600555418070,0.0003908734422606,-0.0000220183470360,0.9999999215632351,-0.0687157343071086,0.2906913252913965,-0.0021000470966965,0.0047460272908211,0.0013947092229500,0.0006963039049879,-0.0011309223482385,-0.0014337574830279,0.0015923746395856,,0.0000000000000000,0.0000000000000000,
1559013413.7204108238220215,0.9662699699401855,,0.0020933240705381,-0.0022181208676497,-0.0019623635840261,-0.0000086937558855,-0.0000273569378887,0.0000328751443558,0.9999999990476208,-0.0765656617276431,0.2427738703856255,0.0042509068165746,0.0038362149411967,-0.0049537897805292,-0.0045272500068339,-0.0004097003680594,-0.0009124190024748,0.0005782410959846,,0.0034378551607457,0.0025472472578253,-0.0043545256517963,0.0000600555418070,0.0003908734422606,-0.0000220183470360,0.9999999215632351,-0.0687157343071086,0.2906913252913965,-0.0021000470966965,0.0047460272908211,0.0013947092229500,0.0006963039049879,-0.0011309223482385,-0.0014337574830279,0.0015923746395856,,0.0000000000000000,0.0000000000000000,
1559013413.7537307739257812,0.9995899200439453,,0.0021681368248285,-0.0022960541178903,-0.0020243671883478,-0.0000038585913808,-0.0000286008150965,0.0000372348627929,0.9999999988903349,-0.0760094667301733,0.2426319752873453,0.0047506712081076,0.0036122330393678,-0.0047751324165184,-0.0027332535435917,0.0001189234771049,0.0001547659421892,0.0005908316697844,,0.0029821578802633,0.0023954715740928,-0.0033581745908973,0.0000636555501370,0.0004000566115030,-0.0000217090852176,0.9999999177156937,-0.0683030665391002,0.2917436920126553,-0.0020657681279611,0.0022860211320221,-0.0006600108463317,0.0015310561284423,-0.0004109627625439,-0.0006739070522599,-0.0001190709881485,,0.0000000000000000,0.0000000000000000,
1559013413.7870507240295410,1.0329098701477051,,0.0023125979418590,-0.0024547430721415,-0.0021466307878047,-0.0000000777406618,-0.0000267872971543,0.0000437551729900,0.9999999986839598,-0.0755730198093612,0.2428407582870030,0.0054975633061582,0.0038300842305209,-0.0029485954489362,-0.0039949006820480,-0.0001377236308480,-0.0003731979867864,-0.0002143553517258,,0.0029821578802633,0.0023954715740928,-0.0033581745908973,0.0000636555501370,0.0004000566115030,-0.0000217090852176,0.9999999177156937,-0.0683030665391002,0.2917436920126553,-0.0020657681279611,0.0022860211320221,-0.0006600108463317,0.0015310561284423,-0.0004109627625439,-0.0006739070522599,-0.0001190709881485,,0.0000000000000000,0.0000000000000000,
1559013413.8203706741333008,1.0662298202514648,,0.0023271742900823,-0.0023493741979226,-0.0020803687055007,-0.0000041897436795,-0.0000285782353013,0.0000462633606971,0.9999999985127161,-0.0760430030492851,0.2426359329651172,0.0057852668905052,0.0037785687188491,-0.0039538013783614,-0.0038778819211918,-0.0004126854755177,-0.0001134958836490,0.0005838412222397,,0.0028483643782737,0.0054159764026453,-0.0048358352553247,0.0000756474026680,0.0004063720092715,-0.0000323465478623,0.9999999140464770,-0.0669346459473181,0.2924658971404100,-0.0032850968095539,0.0015071481466293,0.0085062691941857,-0.0014686621725559,-0.0004123515100218,-0.0004598114755936,-0.0001185764558613,,0.0000000000000000,0.0000000000000000,
1559013413.8536908626556396,1.0995500087738037,,0.0023271742900823,-0.0023493741979226,-0.0020803687055007,-0.0000041897436795,-0.0000285782353013,0.0000462633606971,0.9999999985127161,-0.0760430030492851,0.2426359329651172,0.0057852668905052,0.0037785687188491,-0.0039538013783614,-0.0038778819211918,-0.0004126854755177,-0.0001134958836490,0.0005838412222397,,0.0052727955121410,0.0028594060605301,-0.0016091656637851,0.0000741511501028,0.0004075664680992,-0.0000336539987448,0.9999999136292910,-0.0671068135670647,0.2926025797277269,-0.0034351616037410,0.0104847270995378,-0.0010913329897448,0.0042982785962522,0.0000560693915759,0.0001306207850575,-0.0007089182618074,,0.0000000000000000,0.0000000000000000,
1559013413.8870108127593994,1.1328699588775635,,0.0025638917178148,-0.0025144013400565,-0.0023255785147899,-0.0000120093660772,-0.0000380757912968,0.0000365817281739,0.9999999985338932,-0.0769438292942409,0.2415461591575236,0.0046772986127432,0.0039218127306056,-0.0019849703983101,-0.0043037184469091,0.0004004204017376,-0.0011682908204005,-0.0004811289948302,,0.0052727955121410,0.0028594060605301,-0.0016091656637851,0.0000741511501028,0.0004075664680992,-0.0000336539987448,0.9999999136292910,-0.0671068135670647,0.2926025797277269,-0.0034351616037410,0.0104847270995378,-0.0010913329897448,0.0042982785962522,0.0000560693915759,0.0001306207850575,-0.0007089182618074,,0.0000000000000000,0.0000000000000000,
1559013413.9203307628631592,1.1661899089813232,,0.0025638917178148,-0.0025144013400565,-0.0023255785147899,-0.0000120093660772,-0.0000380757912968,0.0000365817281739,0.9999999985338932,-0.0769438292942409,0.2415461591575236,0.0046772986127432,0.0039218127306056,-0.0019849703983101,-0.0043037184469091,0.0004004204017376,-0.0011682908204005,-0.0004811289948302,,0.0054303640759792,0.0028405871846140,-0.0015512931906976,0.0000727297327581,0.0004122941432348,-0.0000389757507913,0.9999999116024042,-0.0672725866643876,0.2931435651078277,-0.0040457387794924,0.0105438055470586,-0.0008907766314223,0.0042810388840735,0.0001138636871474,-0.0001375615538564,-0.0004429370164871,,0.0000000000000000,0.0000000000000000,
1559013413.9536507129669189,1.1995098590850830,,0.0027867014845810,-0.0027116156670890,-0.0025065252496426,-0.0000323133140403,-0.0000407569961769,0.0000393884517658,0.9999999978716334,-0.0792691321623611,0.2412394358061703,0.0049994316349562,0.0034230161626004,-0.0034689382118741,-0.0024173432489394,0.0011785914067554,0.0009557210990778,0.0008729765050257,,0.0042457708010142,0.0032688893773403,-0.0056604679087909,0.0000648888487885,0.0004357793942480,-0.0000388127972930,0.9999999021896570,-0.0681711214985140,0.2958347627029305,-0.0040308126094763,0.0040785656310618,0.0004996526986361,-0.0031115380115807,-0.0004219063557684,-0.0014084292342886,-0.0011841928353533,,0.0000000000000000,0.0000000000000000,
1559013413.9869606494903564,1.2328197956085205,,0.0029676639933727,-0.0029117931102555,-0.0026889981869030,-0.0000323715982475,-0.0000297877115226,0.0000530436130756,0.9999999976255735,-0.0792690993708954,0.2424985366507670,0.0065625121945056,0.0032217518256136,-0.0041164851474851,-0.0045513970149671,-0.0004122553077664,-0.0009142951960809,0.0008445383318798,,0.0016163225134831,0.0018428269025782,0.0076378858718637,0.0000685984619212,0.0004543867289951,-0.0000311516418720,0.9999998939282577,-0.0677419600665057,0.2979681196768502,-0.0031553800325751,-0.0052592363208532,-0.0075239953584969,0.0202106647193432,0.0005249262321740,0.0007250083726831,-0.0012422207510099,,0.0000000000000000,0.0000000000000000,
1559013414.0202808380126953,1.2661399841308594,,0.0029881800740827,-0.0033236585881150,-0.0017928829559559,-0.0000317959282122,-0.0000334690280072,0.0000524911415399,0.9999999975567616,-0.0792034220209854,0.2420766002368361,0.0064997708885017,0.0020478543773706,-0.0019619892665042,-0.0010658666892481,0.0001236031828742,0.0009593176023241,-0.0002024599412529,,0.0016163225134831,0.0018428269025782,0.0076378858718637,0.0000685984619212,0.0004543867289951,-0.0000311516418720,0.9999998939282577,-0.0677419600665057,0.2979681196768502,-0.0031553800325751,-0.0052592363208532,-0.0075239953584969,0.0202106647193432,0.0005249262321740,0.0007250083726831,-0.0012422207510099,,0.0000000000000000,0.0000000000000000,
1559013414.0536007881164551,1.2994599342346191,,0.0031005844087271,-0.0034164155510668,-0.0018964067735001,-0.0000303059594110,-0.0000320418618211,0.0000561723001604,0.9999999974497703,-0.0790308795700477,0.2422407013883555,0.0069213776467047,0.0043035637171598,-0.0028835454271997,-0.0049016158157627,0.0001254585684103,-0.0009085887847839,0.0003170675404638,,-0.0001918267742289,0.0014583252582462,-0.0051793105503548,0.0000672918954053,0.0004469704203664,-0.0000485581158316,0.9999998966656715,-0.0679011019789145,0.2971157712807340,-0.0051490438799222,-0.0097791878506541,-0.0069832173176110,-0.0047325701452792,0.0013753385283053,0.0003016986011062,-0.0014640276785940,,0.0000000000000000,0.0000000000000000,
1559013414.0869207382202148,1.3327798843383789,,0.0032033560456541,-0.0033576446058240,-0.0019835625878641,-0.0000268056749900,-0.0000305941298614,0.0000585342134861,0.9999999974596006,-0.0786286148278268,0.2424069407271264,0.0071917991079054,0.0040611170229547,-0.0023223293807986,-0.0029098170312578,-0.0001387186567540,-0.0001068903530620,-0.0002124886861249,,-0.0001918267742289,0.0014583252582462,-0.0051793105503548,0.0000672918954053,0.0004469704203664,-0.0000485581158316,0.9999998966656715,-0.0679011019789145,0.2971157712807340,-0.0051490438799222,-0.0097791878506541,-0.0069832173176110,-0.0047325701452792,0.0013753385283053,0.0003016986011062,-0.0014640276785940,,0.0000000000000000,0.0000000000000000,
1559013414.1202406883239746,1.3660998344421387,,0.0033226158147142,-0.0034458389061129,-0.0020634035960406,-0.0000329188109374,-0.0000355779052905,0.0000579473764062,0.9999999971463331,-0.0793294449126169,0.2418357927931968,0.0071253452960034,0.0038866623628577,-0.0021881780041729,-0.0031156221849259,-0.0006632276645301,-0.0009040152217025,-0.0007558070410299,,-0.0003862388438266,0.0013193463922199,-0.0052756966752279,0.0000762091679498,0.0004512275026457,-0.0000531757478453,0.9999998938791161,-0.0668817920699509,0.2976029888637595,-0.0056783421457382,-0.0093114748597145,-0.0073452508077025,-0.0049650780856609,0.0013335975818336,0.0000820299610496,-0.0005578060518019,,0.0000000000000000,0.0000000000000000,
1559013414.1535606384277344,1.3994197845458984,,0.0035059638515911,-0.0037521365046762,-0.0020819874072204,-0.0000333074525632,-0.0000280355883302,0.0000469459626563,0.9999999979503480,-0.0793793102504192,0.2426983759261254,0.0058634990132865,0.0033318492033304,-0.0032665292335211,-0.0021980384546451,-0.0004060156900064,0.0001584403009425,-0.0002131838468865,,-0.0005695107067441,0.0011753494670631,-0.0053720416089590,0.0000732402329876,0.0004666305450950,-0.0000575712412892,0.9999998867886710,-0.0672245097017332,0.2993674002054934,-0.0061843887103450,-0.0087402760982513,-0.0075568733736873,-0.0051086759194732,-0.0005755241727456,0.0005565957981162,0.0000478677466162,,0.0000000000000000,0.0000000000000000,
1559013414.1868808269500732,1.4327399730682373,,0.0036048440551109,-0.0038410569092945,-0.0021647022171219,-0.0000314149986882,-0.0000236194470187,0.0000444950582346,0.9999999982377048,-0.0791636289561390,0.2432040385747063,0.0055819544201826,0.0031072180663366,-0.0023806050093214,-0.0025925903709930,-0.0006691978745724,0.0006938310277232,-0.0007446067853496,,0.0054194410451250,0.0039221283223847,-0.0059444888312575,0.0000707223501789,0.0004701856227759,-0.0000471678987493,0.9999998858495028,-0.0675073877342590,0.2997762539914523,-0.0049928816865142,0.0113711925223470,0.0025506995152682,-0.0051999506540596,-0.0004708282649517,0.0001321081072092,-0.0002189685619669,,0.0000000000000000,0.0000000000000000,
1559013414.2202007770538330,1.4660599231719971,,0.0036842729397171,-0.0036528268012484,-0.0022231083845544,-0.0000346496324141,-0.0000202261196637,0.0000508284860366,0.9999999979033860,-0.0795311753179064,0.2435938836759036,0.0063072001104295,0.0028751945368964,-0.0028327045154823,-0.0037401206136098,-0.0004055855160200,-0.0006423590021422,0.0000475132659089,,0.0017337937437958,0.0027914976925686,-0.0073980466569868,0.0000657147087486,0.0004684735527028,-0.0000318904734004,0.9999998875985463,-0.0680728783992629,0.2995822330364225,-0.0032422190918197,-0.0032952094916254,-0.0025957324542105,-0.0077453418634832,-0.0003198916092515,-0.0001808123633964,-0.0010700231650844,,0.0000000000000000,0.0000000000000000,
1559013414.2535207271575928,1.4993798732757568,,0.0037644721332615,-0.0037485306931117,-0.0023084194079789,-0.0000474846018141,-0.0000266086151117,0.0000555051217614,0.9999999969781880,-0.0809997014454358,0.2428633112280294,0.0068441363203033,0.0027500986450376,-0.0036884950681918,-0.0020868046997215,-0.0009478443989524,-0.0001173262514035,0.0008450146960386,,0.0017337937437958,0.0027914976925686,-0.0073980466569868,0.0000657147087486,0.0004684735527028,-0.0000318904734004,0.9999998875985463,-0.0680728783992629,0.2995822330364225,-0.0032422190918197,-0.0032952094916254,-0.0025957324542105,-0.0077453418634832,-0.0003198916092515,-0.0001808123633964,-0.0010700231650844,,0.0000000000000000,0.0000000000000000,
1559013414.2868406772613525,1.5326998233795166,,0.0038544610894562,-0.0037983537767558,-0.0022584964700064,-0.0000617072659645,-0.0000236471809424,0.0000609075963106,0.9999999959616446,-0.0826268392220758,0.2432036113745870,0.0074627940649803,0.0032713834566909,-0.0019732779707888,-0.0028211915764766,-0.0006774275641177,0.0001537108783823,0.0003168487853455,,0.0001515348646201,0.0012294817827928,-0.0051123345942179,0.0000495634790215,0.0004787440758719,-0.0000295359639095,0.9999998837375924,-0.0699224355375030,0.3007594300014954,-0.0029747703706644,-0.0074289659969509,-0.0072463871911168,-0.0031776153482497,0.0000637078628642,-0.0005068728933111,-0.0000599529594183,,0.0000000000000000,0.0000000000000000,
1559013414.3201606273651123,1.5660197734832764,,0.0039697195078456,-0.0038455148874019,-0.0024186384262638,-0.0000715395959258,-0.0000296055818464,0.0000630911774396,0.9999999950125497,-0.0837525121520055,0.2425212461100334,0.0077139918173289,0.0030496961145142,-0.0018321710122748,-0.0055161632290453,-0.0006779924302015,-0.0003807807256638,0.0005794126061482,,0.0034192999153591,0.0010579430106152,0.0064953994279523,0.0000345271351897,0.0005111463805106,-0.0000263829984575,0.9999998684205874,-0.0716438772364495,0.3044728703048402,-0.0026190585096938,0.0061334241181612,-0.0059950468130410,0.0181544125080109,-0.0012176220770925,0.0004556177300401,-0.0002580562722869,,0.0000000000000000,0.0000000000000000,
1559013414.3534808158874512,1.5993399620056152,,0.0040429888666835,-0.0038333698166571,-0.0025293502894427,-0.0000910625127144,-0.0000299702073634,0.0000644178138164,0.9999999933298753,-0.0859890278097336,0.2424798186923011,0.0078661392977538,0.0023326256690609,-0.0009963489390760,-0.0027647929251208,-0.0006691978823077,0.0006938310184541,-0.0007446067751047,,0.0054834424333086,0.0016926963640627,0.0094367202161087,0.0000273884684487,0.0005074995475433,-0.0000298596187091,0.9999998704012337,-0.0724638084152833,0.3040544374464539,-0.0030173332102161,0.0127890296280384,-0.0033393080811948,0.0213937424123287,-0.0004166825674474,-0.0008206978673115,-0.0004262244328856,,0.0000000000000000,0.0000000000000000,
1559013414.3868007659912109,1.6326599121093750,,0.0041439788169466,-0.0039453148592179,-0.0026370764311507,-0.0000992311098828,-0.0000328334426462,0.0000641053334133,0.9999999924828291,-0.0869252516585606,0.2421517259942634,0.0078308245866350,0.0021645149765229,-0.0031995840539429,-0.0000924832006114,-0.0004080057689069,0.0006910557174496,-0.0002094504113357,,0.0057367386720548,0.0016183337584161,0.0098573301577264,0.0000261658727469,0.0004975904176237,-0.0000332114235218,0.9999998753080546,-0.0726057057987067,0.3029184345740711,-0.0034000292129137,0.0127253644168377,-0.0035268568899482,0.0208079684525728,-0.0005384065443650,-0.0007062302902341,-0.0015981659526005,,0.0000000000000000,0.0000000000000000,
1559013414.4201207160949707,1.6659798622131348,,0.0041773846861666,-0.0039521896098101,-0.0023971536515832,-0.0000969966774019,-0.0000320293837911,0.0000597613562438,0.9999999929971718,-0.0866713197879909,0.2422431431309349,0.0073328986972402,0.0020100762390028,-0.0037389774656900,-0.0015610633299943,-0.0006789874703534,-0.0001144730104798,0.0005812793240271,,0.0021895927776940,0.0029798482027788,-0.0017919951850399,0.0000030791525065,0.0005051542388313,-0.0000423319240284,0.9999998715088527,-0.0752563039453160,0.3037837185136449,-0.0044476326101652,-0.0012074953410774,0.0004014892037958,0.0003388677432667,0.0008526051533408,0.0004610072937794,-0.0004364303313196,,0.0000000000000000,0.0000000000000000,
1559013414.4534406661987305,1.6992998123168945,,0.0042572293179328,-0.0040787079802431,-0.0025170862669318,-0.0001049260280690,-0.0000414026264182,0.0000739630177981,0.9999999909029115,-0.0875730966283323,0.2411714207817178,0.0089618601635903,0.0029696293049161,-0.0038602482785267,-0.0066647994016978,-0.0004108301041648,-0.0019814022922252,0.0011033687056785,,0.0021895927776940,0.0029798482027788,-0.0017919951850399,0.0000030791525065,0.0005051542388313,-0.0000423319240284,0.9999998715088527,-0.0752563039453160,0.3037837185136449,-0.0044476326101652,-0.0012074953410774,0.0004014892037958,0.0003388677432667,0.0008526051533408,0.0004610072937794,-0.0004364303313196,,0.0000000000000000,0.0000000000000000,
1559013414.4867608547210693,1.7326200008392334,,0.0043029194844335,-0.0039051271190785,-0.0026750135310413,-0.0001037691318057,-0.0000504270364099,0.0000821036805560,0.9999999899740335,-0.0874366396017394,0.2401386176174977,0.0098961840821713,0.0023402237165064,-0.0036066039729145,-0.0042179633483300,0.0003872155400284,-0.0003768725100088,0.0005896600784358,,-0.0010190916370042,0.0029305503448535,-0.0129715628905499,0.0000147787733985,0.0005115638677940,-0.0000305568678146,0.9999998685751288,-0.0739091776481601,0.3045200255605026,-0.0030985740714162,-0.0116727147251368,-0.0011033358750865,-0.0203522164374590,-0.0005853964248672,0.0004621939733624,-0.0006874375976622,,0.0000000000000000,0.0000000000000000,
1559013414.5200808048248291,1.7659399509429932,,0.0044086691697902,-0.0040235719547422,-0.0027844800675174,-0.0001008601072384,-0.0000536271041734,0.0000790812067124,0.9999999903487677,-0.0871047859259838,0.2397713982356374,0.0095503351301605,0.0039918287130794,-0.0032660560615192,-0.0017536688648351,0.0001291432162763,0.0001622705866227,-0.0004743573473627,,-0.0010190916370042,0.0029305503448535,-0.0129715628905499,0.0000147787733985,0.0005115638677940,-0.0000305568678146,0.9999998685751288,-0.0739091776481601,0.3045200255605026,-0.0030985740714162,-0.0116727147251368,-0.0011033358750865,-0.0203522164374590,-0.0005853964248672,0.0004621939733624,-0.0006874375976622,,0.0000000000000000,0.0000000000000000,
1559013414.5534007549285889,1.7992599010467529,,0.0045475070712400,-0.0040048080745327,-0.0026126806846486,-0.0000976048434755,-0.0000384602320078,0.0000693576168388,0.9999999920918131,-0.0867363726761126,0.2415077845159563,0.0084336037736038,0.0047304535120764,-0.0043830320073202,-0.0002346981914648,-0.0004166656324220,0.0009517348658845,0.0005913080222767,,0.0019871844674433,0.0011427158324406,0.0014052757964757,0.0000145126597581,0.0004981842610422,-0.0000104171448080,0.9999998757466462,-0.0739285600851628,0.3029898472145832,-0.0007887165253009,0.0037218257784843,-0.0071086878888309,0.0082138963043690,0.0013264474691823,-0.0008638858562335,-0.0011839268263429,,0.0000000000000000,0.0000000000000000,
1559013414.5867207050323486,1.8325798511505127,,0.0047249793052213,-0.0041258506285129,-0.0026388599292644,-0.0001082036415207,-0.0000203622313881,0.0000723695159276,0.9999999913200023,-0.0879492996334918,0.2435822372579317,0.0087758322488320,0.0055161277598000,-0.0040396155595861,-0.0023363648201297,-0.0004146755626878,0.0004191194476082,0.0005875745955703,,0.0020652066108007,0.0009959875257683,0.0015828023016906,0.0000327981342627,0.0004967082862369,-0.0000168803536144,0.9999998759600995,-0.0718367374209462,0.3028197834051907,-0.0015280938783045,0.0044686226174235,-0.0073079913854599,0.0093747563660145,0.0018572803819552,0.0001997409417527,-0.0008685792563483,,0.0000000000000000,0.0000000000000000,
1559013414.6200406551361084,1.8658998012542725,,0.0049548249311875,-0.0041875623339472,-0.0023580246153060,-0.0001067799065326,-0.0000109464289298,0.0000794523871292,0.9999999910827727,-0.0877826053903032,0.2446623526934522,0.0095859348189851,0.0045691051287259,-0.0045838971781251,-0.0033554779772148,-0.0001499334709118,0.0001519126140299,0.0008545669974893,,0.0047568128774480,0.0037095875125719,0.0024648328165501,0.0000356404946868,0.0005075731344468,-0.0000260096516513,0.9999998702113747,-0.0715160763899768,0.3040634651266995,-0.0025756846490801,0.0136421741917729,0.0022794245742261,0.0105858491733670,0.0010575925698504,0.0012645954266191,-0.0008035744540393,,0.0000000000000000,0.0000000000000000,
1559013414.6533608436584473,1.8992199897766113,,0.0050812521981976,-0.0043018148956935,-0.0024549758548184,-0.0001049161538335,-0.0000125833774319,0.0000823067595096,0.9999999910299283,-0.0875676490709886,0.2444752210193362,0.0099132891479583,0.0037409216131019,-0.0034511225478410,-0.0031354894951098,0.0001285783452065,-0.0003722210338112,-0.0002117935233685,,0.0052291259185608,0.0066394057520543,0.0041492087002540,0.0000389100275542,0.0005036717400379,-0.0000269764555915,0.9999998720365213,-0.0711419311843265,0.3036162666879023,-0.0026857110020908,0.0098902173340321,0.0114108640700579,0.0103509873151779,0.0004561709356494,0.0000499343514093,-0.0024497949052602,,0.0000000000000000,0.0000000000000000,
1559013414.6866807937622070,1.9325399398803711,,0.0052379513297651,-0.0048348081867571,-0.0023531870933639,-0.0000979108387450,-0.0000184102697576,0.0000746056938375,0.9999999922542601,-0.0867687214665774,0.2438061929409740,0.0090317406845612,0.0042664521577607,-0.0045482008568530,-0.0026710341204690,0.0001209135305363,-0.0003778495816419,0.0005870982085448,,0.0052291259185608,0.0066394057520543,0.0041492087002540,0.0000389100275542,0.0005036717400379,-0.0000269764555915,0.9999998720365213,-0.0711419311843265,0.3036162666879023,-0.0026857110020908,0.0098902173340321,0.0114108640700579,0.0103509873151779,0.0004561709356494,0.0000499343514093,-0.0024497949052602,,0.0000000000000000,0.0000000000000000,
1559013414.7200007438659668,1.9658598899841309,,0.0054037359243482,-0.0049632273370657,-0.0024322267539190,-0.0000997588256577,-0.0000136464033199,0.0000769367017549,0.9999999919713483,-0.0869793048990637,0.2443524859310124,0.0092980862775918,0.0052314693766719,-0.0046116325695376,-0.0021832493771167,-0.0004182255142961,0.0006835509449411,0.0008557385269447,,0.0048463070129249,-0.0018530932854782,-0.0043371194688543,0.0000496536779303,0.0005462905973898,-0.0000412375629876,0.9999998487002679,-0.0699188675543722,0.3084979834910337,-0.0043255173052810,0.0092678898945451,-0.0197609998285770,-0.0056686224415898,0.0003229734138586,0.0009426797041669,0.0000063279644564,,0.0000000000000000,0.0000000000000000,
1559013414.7533206939697266,1.9991798400878906,,0.0056316582664990,-0.0049070375979620,-0.0024875881521849,-0.0001067069853303,-0.0000086893357606,0.0000884565803649,0.9999999903567742,-0.0877698106371869,0.2449224661215022,0.0106173790183297,0.0061731362542855,-0.0048376276594315,-0.0035010028614198,-0.0009452894570427,-0.0001154501093460,0.0005787174188245,,0.0048463070129249,-0.0018530932854782,-0.0043371194688543,0.0000496536779303,0.0005462905973898,-0.0000412375629876,0.9999998487002679,-0.0699188675543722,0.3084979834910337,-0.0043255173052810,0.0092678898945451,-0.0197609998285770,-0.0056686224415898,0.0003229734138586,0.0009426797041669,0.0000063279644564,,0.0000000000000000,0.0000000000000000,
1559013414.7866406440734863,2.0324997901916504,,0.0058210261989029,-0.0050083052821389,-0.0025660433856057,-0.0000970880085493,0.0000015600791811,0.0000775698684470,0.9999999922772003,-0.0866728167856495,0.2460950978769011,0.0093681714574960,0.0052074855844850,-0.0023180250409012,-0.0021117409412750,0.0006684169936712,0.0004361609278981,-0.0012662586420885,,0.0052264772958771,-0.0026613178782102,-0.0045826045094389,0.0000475461241026,0.0005503896550055,-0.0000303206917289,0.9999998469456131,-0.0701543412170739,0.3089692817089975,-0.0030752484778133,0.0105025302618742,-0.0202286429703236,-0.0065599353983998,-0.0001585589197930,0.0001465858949814,-0.0005223532207310,,0.0000000000000000,0.0000000000000000,
1559013414.8199608325958252,2.0658199787139893,,0.0059162972117144,-0.0046447859904809,-0.0022638813325249,-0.0000784325310230,0.0000047573418119,0.0000652605008882,0.9999999947833864,-0.0845410911491289,0.2464593404198635,0.0079571018996475,0.0054921154063600,-0.0027246327099029,-0.0029119655984748,0.0009310343164179,-0.0006337213942007,-0.0004722718811793,,0.0018265234022796,0.0015953799455236,-0.0011554579264682,0.0000444837004642,0.0005729476672168,-0.0000262091427368,0.9999998345326123,-0.0705030742439686,0.3115548276295116,-0.0026075822996182,-0.0026890477165580,-0.0041862255893648,-0.0000044877328946,0.0005216741119511,0.0008985064923763,-0.0011142032453790,,0.0000000000000000,0.0000000000000000,
1559013414.8532807826995850,2.0991399288177490,,0.0061015206961570,-0.0047571207246325,-0.0023375019370376,-0.0000742437063732,0.0000041954983133,0.0000676207474340,0.9999999949488523,-0.0840599290311324,0.2463953033646751,0.0082276604765707,0.0052418545427909,-0.0031261758433849,-0.0023992645177194,0.0001199184812112,-0.0001115419083426,0.0005889649313590,,0.0017678621869116,0.0015124191525959,-0.0011558191354735,0.0000500246131654,0.0005711314993747,-0.0000341708840095,0.9999998350693360,-0.0698725603466937,0.3113455691600101,-0.0035193152565481,-0.0028836037963629,-0.0044308807700872,0.0001653605722822,-0.0004792680847459,0.0003601763455663,-0.0004656376258936,,0.0000000000000000,0.0000000000000000,
1559013414.8865907192230225,2.1324498653411865,,0.0062278433964482,-0.0048995181476864,-0.0024519854904734,-0.0000781776065432,0.0000095675520813,0.0000779586332377,0.9999999938595878,-0.0845055870247467,0.2470125799187038,0.0094114429765391,0.0036760111947893,-0.0027288294449391,-0.0015977287445304,-0.0012094667207278,0.0006862482961847,0.0000491612343762,,0.0035853931829597,0.0016109033633505,0.0015901379357438,0.0000526102442627,0.0005726425298447,-0.0000379765869908,0.9999998339352233,-0.0695783964641965,0.3115181782101862,-0.0039554728880048,0.0037116021849215,-0.0034948575776070,0.0057091480121017,0.0006449705688283,0.0007822083425708,0.0002719526237343,,0.0000000000000000,0.0000000000000000,
1559013414.9199106693267822,2.1657698154449463,,0.0063311011578540,-0.0049886883582178,-0.0025169464665061,-0.0000953428045376,0.0000101299300721,0.0000811760356566,0.9999999921087928,-0.0864709831105424,0.2470776982192904,0.0097800230445087,0.0041145452884184,-0.0025854552355935,-0.0022914716933596,-0.0014661138268248,0.0001582843739441,-0.0007560257899832,,0.0035853931829597,0.0016109033633505,0.0015901379357438,0.0000526102442627,0.0005726425298447,-0.0000379765869908,0.9999998339352233,-0.0695783964641965,0.3115181782101862,-0.0039554728880048,0.0037116021849215,-0.0034948575776070,0.0057091480121017,0.0006449705688283,0.0007822083425708,0.0002719526237343,,0.0000000000000000,0.0000000000000000,
1559013414.9532308578491211,2.1990900039672852,,0.0064473356948822,-0.0050721361917269,-0.0023849475455345,-0.0000981636011773,0.0000091386781296,0.0000839904219077,0.9999999916130005,-0.0867928439731643,0.2469645923457342,0.0101026882354855,0.0041239230226131,-0.0040168965663689,-0.0016627893904981,0.0001214783854438,0.0001566419842951,0.0003245343914924,,0.0037245920093585,0.0014593189274381,0.0018194195298815,0.0000452053608667,0.0005873934933458,-0.0000412583801236,0.9999998256115376,-0.0704288468814915,0.3132080009324146,-0.0043341840155431,0.0031235220376402,-0.0038933986797929,0.0055238688364625,0.0007684917072766,-0.0006610307609662,0.0011769605334848,,0.0000000000000000,0.0000000000000000,
1559013414.9865508079528809,2.2324099540710449,,0.0065672831121357,-0.0051570804764628,-0.0024434767934001,-0.0000965547375343,0.0000058039705363,0.0000813420210774,0.9999999920134862,-0.0866098158785610,0.2465820184566682,0.0097997437906886,0.0048596226833347,-0.0036643083433833,-0.0019170372230143,-0.0004060157265861,0.0001584402215023,-0.0002131838329648,,0.0037245920093585,0.0014593189274381,0.0018194195298815,0.0000452053608667,0.0005873934933458,-0.0000412583801236,0.9999998256115376,-0.0704288468814915,0.3132080009324146,-0.0043341840155431,0.0031235220376402,-0.0038933986797929,0.0055238688364625,0.0007684917072766,-0.0006610307609662,0.0011769605334848,,0.0000000000000000,0.0000000000000000,
1559013415.0198707580566406,2.2657299041748047,,0.0068090884246117,-0.0051126955595689,-0.0027305171761499,-0.0000921877570079,0.0000144438533477,0.0000875299507628,0.9999999918156501,-0.0861062685575979,0.2475730346980929,0.0105074404888690,0.0060814319784238,-0.0029628668562798,-0.0034110544031130,0.0006550774095477,-0.0001077116242903,0.0003277914157209,,0.0018623154410093,0.0027256348443475,0.0001956494993356,0.0000609717752342,0.0005685389954785,-0.0000005049907428,0.9999998365227858,-0.0685993416432927,0.3110533887813620,0.0003396554353508,-0.0041805850341916,0.0011643896577880,0.0006084713968448,-0.0011163554154336,-0.0002244176284876,-0.0005613433313556,,0.0000000000000000,0.0000000000000000,
1559013415.0531907081604004,2.2990498542785645,,0.0070097417478003,-0.0052564341476751,-0.0028355518364251,-0.0000974213748173,0.0000144767728224,0.0000958163191583,0.9999999905593659,-0.0867019074088604,0.2475782038864723,0.0114569822010620,0.0052091518847365,-0.0033870345233831,-0.0022600988060046,0.0001265882466086,0.0001603943542253,-0.0002080600902682,,0.0029704976370324,0.0010159144944673,-0.0068657866970963,0.0000582245274008,0.0005601235302483,0.0000018985634455,0.9999998414339528,-0.0689128105575490,0.3100893950405605,0.0006161232992979,0.0019557164050639,-0.0059154736809433,-0.0117896087467670,-0.0002207496145274,0.0013766620540991,-0.0006734695052728,,0.0000000000000000,0.0000000000000000,
1559013415.0865106582641602,2.3323698043823242,,0.0071637611811486,-0.0052395451951941,-0.0028411589724651,-0.0000931128335509,0.0000153638218780,0.0000834645288502,0.9999999920638127,-0.0862142726250436,0.2476778068881502,0.0100414232089954,0.0049091520830870,-0.0021835479410234,-0.0025148142993730,-0.0003963608554971,-0.0003685466270747,-0.0010158089766799,,0.0029221986643147,0.0009211528264380,-0.0058647508733388,0.0000569818828218,0.0005542338034713,0.0000084162661342,0.9999998447535492,-0.0690515848017236,0.3094154253685485,0.0013637793337315,0.0021712789312005,-0.0055115297436714,-0.0089211678132415,0.0002103293809341,-0.0018684096867219,-0.0012658763444051,,0.0000000000000000,0.0000000000000000,
1559013415.1198308467864990,2.3656899929046631,,0.0073075096669695,-0.0053434561611444,-0.0029114435982246,-0.0001025850776589,0.0000150442630860,0.0000828769497285,0.9999999911906916,-0.0873000047557941,0.2476411830730447,0.0099741262739523,0.0048677226357725,-0.0022852841868005,-0.0023678777656424,-0.0001371588162372,0.0001612934847044,-0.0004769192179322,,0.0029519888838059,0.0008384119710609,-0.0059934795015772,0.0000581090590179,0.0005500910080263,-0.0000013667004831,0.9999998470106645,-0.0689278484126669,0.3089392815590514,0.0002433889468124,0.0020987750031054,-0.0055223274976015,-0.0086310729384422,-0.0007987834396772,0.0002558300329838,-0.0004012739227619,,0.0000000000000000,0.0000000000000000,
1559013415.1531507968902588,2.3990099430084229,,0.0074885964142024,-0.0052271859578695,-0.0029754850095401,-0.0001038317452622,0.0000204554685947,0.0000892310315549,0.9999999904191827,-0.0874396747099380,0.2482623083719746,0.0107013723863152,0.0047605941600351,-0.0023361954092223,-0.0029661411997345,0.0001240333015097,0.0001585181762826,0.0000582371376086,,0.0051925544355761,0.0023813793912971,-0.0010522355678721,0.0000469439347328,0.0005700122294068,-0.0000046649478309,0.9999998364302685,-0.0702091373472664,0.3112216003752460,-0.0001381758148190,0.0089325234293938,0.0004224320291542,0.0012637828476727,-0.0005778026534244,-0.0005969690391794,-0.0000826702453196,,0.0000000000000000,0.0000000000000000,
1559013415.1864707469940186,2.4323298931121826,,0.0076654293806193,-0.0053258963195477,-0.0030941076582415,-0.0001129741597675,0.0000125051609717,0.0000900681375992,0.9999999894840954,-0.0884869810671379,0.2473515019244983,0.0107985809954456,0.0046678922931006,-0.0009217118582256,-0.0026244572337835,0.0001362431077256,-0.0003665925060217,-0.0010106852569446,,0.0036304880783306,0.0051519430538680,-0.0003610028637882,0.0000409396240160,0.0005788687692688,0.0000372948730190,0.9999998309219795,-0.0708737745339409,0.3122426262887678,0.0046684425669311,0.0018805343424901,0.0090315490961075,0.0019654412753880,-0.0017144266748801,0.0002639917656779,-0.0012922289315611,,0.0000000000000000,0.0000000000000000,
1559013415.2197906970977783,2.4656498432159424,,0.0077220413497971,-0.0052633808424912,-0.0029668186643673,-0.0001204506027970,0.0000121952562378,0.0000888289730542,0.9999999887261707,-0.0893443325570797,0.2473158623238073,0.0106566222964593,0.0042526245744549,-0.0032279192368080,-0.0008744506062528,-0.0001442587825848,0.0006901565378055,0.0000594086899439,,0.0036304880783306,0.0051519430538680,-0.0003610028637882,0.0000409396240160,0.0005788687692688,0.0000372948730190,0.9999998309219795,-0.0708737745339409,0.3122426262887678,0.0046684425669311,0.0018805343424901,0.0090315490961075,0.0019654412753880,-0.0017144266748801,0.0002639917656779,-0.0012922289315611,,0.0000000000000000,0.0000000000000000,
1559013415.2531106472015381,2.4989697933197021,,0.0078980263158188,-0.0053678878396659,-0.0030356738624996,-0.0001156158711901,0.0000196697861953,0.0000899098211203,0.9999999890811468,-0.0887897082841211,0.2481725078947732,0.0107792579096098,0.0054482507185063,-0.0031955790729522,-0.0031180673766473,0.0001214783318382,0.0001566419913178,0.0003245343811961,,0.0024622045541892,0.0033692700341506,0.0010831382365003,0.0000311932746903,0.0005793344129262,0.0000361975982775,0.9999998310441615,-0.0719912381284506,0.3122958639970193,0.0045419871211058,-0.0010414639255032,0.0009290307061747,0.0048048202879727,0.0009482172317803,0.0003190914285369,-0.0010488524567336,,0.0000000000000000,0.0000000000000000,
1559013415.2864308357238770,2.5322899818420410,,0.0081002616488732,-0.0053045097291401,-0.0029534984667992,-0.0001149790954370,0.0000181103504929,0.0000800581461856,0.9999999900212579,-0.0887216199707237,0.2479921850878196,0.0096505872973441,0.0066462187312943,-0.0015904103279619,-0.0048556095035396,-0.0003979207962382,-0.0006367305151387,-0.0007513784588374,,0.0024622045541892,0.0033692700341506,0.0010831382365003,0.0000311932746903,0.0005793344129262,0.0000361975982775,0.9999998310441615,-0.0719912381284506,0.3122958639970193,0.0045419871211058,-0.0010414639255032,0.0009290307061747,0.0048048202879727,0.0009482172317803,0.0003190914285369,-0.0010488524567336,,0.0000000000000000,0.0000000000000000,
1559013415.3197507858276367,2.5656099319458008,,0.0082990111960621,-0.0054069429922576,-0.0030624145659338,-0.0001128445541240,0.0000282386159387,0.0000831409283878,0.9999999897781366,-0.0884754076292168,0.2491532836898720,0.0100021942725569,0.0054236370260003,-0.0024706993689481,-0.0029806722685573,0.0003918951533382,0.0004276791014758,-0.0002036315225000,,-0.0004187368762987,0.0000351582624904,-0.0101975856681350,0.0000339133369935,0.0005851228979050,0.0000428547801781,0.9999998273222590,-0.0716758011117047,0.3129601442598663,0.0053041828621122,-0.0091990232467651,-0.0111310230568051,-0.0174473952502012,-0.0002537416294217,0.0002517852990422,0.0007231563213281,,0.0000000000000000,0.0000000000000000,
1559013415.3530707359313965,2.5989298820495605,,0.0083761709154675,-0.0054843153259870,-0.0027447978008143,-0.0000972545620786,0.0000263924876864,0.0000815771672837,0.9999999915950762,-0.0866897160416029,0.2489413310344763,0.0098233491027314,0.0049875690449027,-0.0023515022057267,-0.0019986850379419,0.0006581971475319,0.0004286561582744,-0.0002010696549014,,-0.0009817813704339,-0.0000302048205232,-0.0113073154465510,0.0000366397794939,0.0005790403470259,0.0000539893675716,0.9999998302274612,-0.0713571827692653,0.3122647584925159,0.0065812067841531,-0.0103610353544354,-0.0106029035523534,-0.0180826224386692,0.0003542889317032,0.0002166567428503,-0.0017341335769743,,0.0000000000000000,0.0000000000000000,
1559013415.3863906860351562,2.6322498321533203,,0.0085503067767774,-0.0055808497173072,-0.0028672976501005,-0.0001007085822898,0.0000153727022792,0.0000849838432979,0.9999999911996039,-0.0870839313648395,0.2476791442189975,0.0102155103522083,0.0054057331817552,-0.0023090322987146,-0.0028606683433382,-0.0004070108287733,0.0004247478884703,-0.0002113171401046,,-0.0014185691403290,-0.0004501569395737,-0.0120030723032950,0.0000434684384757,0.0005856383472689,0.0000345169022151,0.9999998269733873,-0.0705855220237378,0.3130179456839972,0.0043492845201148,-0.0107360417023301,-0.0110346311703324,-0.0169592592865229,-0.0017026001587510,0.0004706384497695,-0.0002738574403338,,0.0000000000000000,0.0000000000000000,
1559013415.4197106361389160,2.6655697822570801,,0.0086026961762125,-0.0055484194755053,-0.0030813808737051,-0.0001068679559951,0.0000224326131233,0.0000831366342957,0.9999999905821589,-0.0877905931641302,0.2484879078392429,0.0100026699534211,0.0054370704343903,-0.0015470838933990,-0.0037265486170811,-0.0006682029465202,0.0004275231968921,-0.0007464734956453,,0.0034025515714207,0.0019694676577049,0.0014925504697577,0.0000218994381274,0.0006415251941719,0.0000333035632454,0.9999997934283349,-0.0730576655340355,0.3194220055325690,0.0042004903961273,0.0078299734741449,-0.0012851294595748,0.0068843513727188,0.0005175640108064,-0.0001538863434689,-0.0014675890561193,,0.0000000000000000,0.0000000000000000,
1559013415.4530308246612549,2.6988899707794189,,0.0088197040248867,-0.0056430800559384,-0.0032253122158694,-0.0001063317001596,0.0000256457510941,0.0000789391852612,0.9999999909022352,-0.0877311912230628,0.2488554155052281,0.0095211504358811,0.0049568281833718,-0.0038718014399938,-0.0024567778769707,-0.0001483736618037,0.0004200964145398,0.0005901364519482,,0.0034025515714207,0.0019694676577049,0.0014925504697577,0.0000218994381274,0.0006415251941719,0.0000333035632454,0.9999997934283349,-0.0730576655340355,0.3194220055325690,0.0042004903961273,0.0078299734741449,-0.0012851294595748,0.0068843513727188,0.0005175640108064,-0.0001538863434689,-0.0014675890561193,,0.0000000000000000,0.0000000000000000,
1559013415.4863507747650146,2.7322099208831787,,0.0088981190725448,-0.0052463093262354,-0.0028960570027972,-0.0001061137386013,0.0000189422241751,0.0000769335131991,0.9999999912311506,-0.0877072613686639,0.2480869192818387,0.0092924104465596,0.0063653647710180,-0.0018922297053472,-0.0044068627387377,0.0003978653560886,-0.0011701671706323,-0.0002148318026721,,0.0034025515714207,0.0019694676577049,0.0014925504697577,0.0000218994381274,0.0006415251941719,0.0000333035632454,0.9999997934283349,-0.0730576655340355,0.3194220055325690,0.0042004903961273,0.0078299734741449,-0.0012851294595748,0.0068843513727188,0.0005175640108064,-0.0001538863434689,-0.0014675890561193,,0.0000000000000000,0.0000000000000000,
