#Time(sec),Dtime(sec),,x(m),y(m),z(m),qx,qy,qz,qw,roll_x_G(deg),pitch_y_G(deg),yaw_z_G(deg),vx(m/s),vy(m/s),vz(m/s),wx(rad/s),wy(rad/s),wz(rad/s),,gt_x(m),gt_y(m),gt_z(m),gt_qx,gt_qy,gt_qz,gt_qw,gt_groll_x_G(deg),gt_pitch_y_G(deg),gt_yaw_z_G(deg),gt_vx(m/s),gt_vy(m/s),gt_vz(m/s),gt_wx(rad/s),gt_wy(rad/s),gt_wz(rad/s),,Sr,Sr_avg,
1559013412.7541408538818359,0.0000000000000000,,0.0000000000000002,0.0000000000000001,-0.0000000000000001,0.0000000000000000,-0.0000000000000001,0.0000000000000000,1.0000000000000000,-0.0755855138669150,0.2459037397968158,0.0004794994091153,0.0000000000000000,0.0000000000000000,0.0000000000000000,0.0000000000000000,0.0000000000000000,0.0000000000000000,,0.0000000000000000,0.0000000000000000,0.0000000000000000,0.0000000000000000,0.0000000000000000,0.0000000000000000,1.0000000000000000,-0.0755855138669150,0.2459037397968215,0.0004794994091152,-0.0098102642223239,-0.0059528849087656,-0.0021041124127805,0.0008114594966173,-0.0000641869410174,-0.0007574954070151,,0.0000000000000000,0.0000000000000000,
1559013412.7874608039855957,0.0333199501037598,,0.0000000000000002,0.0000000000000001,-0.0000000000000001,0.0000000000000000,-0.0000000000000001,0.0000000000000000,1.0000000000000000,-0.0755855138669150,0.2459037397968158,0.0004794994091153,0.0000000000000000,0.0000000000000000,0.0000000000000000,0.0000000000000000,0.0000000000000000,0.0000000000000000,,0.0000000000000000,0.0000000000000000,0.0000000000000000,0.0000000000000000,0.0000000000000000,0.0000000000000000,1.0000000000000000,-0.0755855138669150,0.2459037397968215,0.0004794994091152,-0.0098102642223239,-0.0059528849087656,-0.0021041124127805,0.0008114594966173,-0.0000641869410174,-0.0007574954070151,,0.0000000000000000,0.0000000000000000,
1559013412.8207807540893555,0.0666399002075195,,0.0000219726581638,-0.0000260111889973,-0.0000459141663904,-0.0000208610050351,-0.0000137221306289,-0.0000034844792411,0.9999999996821901,-0.0779777081630646,0.2443307657790641,0.0000823114382821,0.0005549145090711,-0.0009140744155948,-0.0007645881653806,-0.0006713226546122,-0.0001088443910840,-0.0002176123651700,,0.0000000000000000,0.0000000000000000,0.0000000000000000,0.0000000000000000,0.0000000000000000,0.0000000000000000,1.0000000000000000,-0.0755855138669150,0.2459037397968215,0.0004794994091152,-0.0098102642223239,-0.0059528849087656,-0.0021041124127805,0.0008114594966173,-0.0000641869410174,-0.0007574954070151,,0.0000000000000000,0.0000000000000000,
1559013412.8541007041931152,0.0999598503112793,,0.0000608926743231,-0.0000640802948601,-0.0001140602429562,-0.0000373096937066,-0.0000189844924195,-0.0000087132854731,0.9999999990858274,-0.0798651435414091,0.2437269247291102,-0.0005160265755550,0.0011061855532015,-0.0033799717536283,-0.0017536299372295,-0.0014824384616985,0.0004133351236126,0.0008436244272202,,0.0026245542083911,0.0026448552001494,-0.0084863851899029,-0.0000333937179824,0.0001718520074773,-0.0000101301488424,0.9999999846245635,-0.0794174526191618,0.2655949411350161,-0.0007079784706163,0.0011400097282603,-0.0002242026966996,-0.0186141021549702,-0.0007273238734342,-0.0001038627669914,-0.0002373664610786,,0.0000000000000000,0.0000000000000000,
1559013412.8874206542968750,0.1332798004150391,,0.0001262903034411,-0.0001468154741993,-0.0002142065874932,-0.0000378024141703,-0.0000235806923088,-0.0000050935236011,0.9999999989944923,-0.0799198270708824,0.2432008019201591,-0.0001005132246582,0.0021184657892204,-0.0024107857097970,-0.0026184181863062,0.0001285783637746,-0.0003722209284548,-0.0002117934720251,,0.0026245542083911,0.0026448552001494,-0.0084863851899029,-0.0000333937179824,0.0001718520074773,-0.0000101301488424,0.9999999846245635,-0.0794174526191618,0.2655949411350161,-0.0007079784706163,0.0011400097282603,-0.0002242026966996,-0.0186141021549702,-0.0007273238734342,-0.0001038627669914,-0.0002373664610786,,0.0000000000000000,0.0000000000000000,
1559013412.9207408428192139,0.1665999889373779,,0.0001876071963411,-0.0002485065635448,-0.0002723575101359,-0.0000332340376668,-0.0000278667317498,-0.0000049033733097,0.9999999990474505,-0.0793962315090670,0.2427096905476230,-0.0000780715043153,0.0016332172232536,-0.0030002443095807,-0.0000183282768429,0.0009260591413560,0.0006978172556181,-0.0004629382745979,,0.0013044971720459,0.0006642558835833,-0.0097306379038952,-0.0000438730574526,0.0002087906767953,-0.0000009822662857,0.9999999772403214,-0.0806136494002281,0.2698292134783979,0.0003343256994272,-0.0023964915890247,-0.0079505480825901,-0.0198433436453342,0.0003404117596801,-0.0015395777300000,-0.0001423610374331,,0.0000000000000000,0.0000000000000000,
1559013412.9540607929229736,0.1999199390411377,,0.0002510355284044,-0.0003552317527220,-0.0002739830334416,-0.0000129934686530,-0.0000142844809747,-0.0000089746469803,0.9999999997732896,-0.0770788454877928,0.2442654901962383,-0.0005467471256826,0.0015572095440772,-0.0016274100853720,0.0003069651755764,0.0011929260021615,0.0012332859105604,-0.0007229402316692,,0.0013044971720459,0.0006642558835833,-0.0097306379038952,-0.0000438730574526,0.0002087906767953,-0.0000009822662857,0.9999999772403214,-0.0806136494002281,0.2698292134783979,0.0003343256994272,-0.0023964915890247,-0.0079505480825901,-0.0198433436453342,0.0003404117596801,-0.0015395777300000,-0.0001423610374331,,0.0000000000000000,0.0000000000000000,
1559013412.9873807430267334,0.2332398891448975,,0.0003049992330981,-0.0004089312959995,-0.0003164140705479,-0.0000144173017045,-0.0000098617901226,-0.0000141313640163,0.9999999997475956,-0.0772445424394733,0.2447715032002950,-0.0011383418386656,0.0011389741805766,-0.0019570558982999,-0.0014499054642399,-0.0004121206084769,0.0004209957160276,0.0003212774096721,,0.0018767528659337,-0.0015868478416372,-0.0062711862608355,-0.0000291626588616,0.0002160709066437,-0.0000033503031968,0.9999999762258388,-0.0789291896576434,0.2706631018623400,0.0000621929295683,-0.0001832428679336,-0.0139995729550719,-0.0103720519691706,-0.0000324573375110,0.0006396181997843,0.0005033669876866,,0.0000000000000000,0.0000000000000000,
1559013413.0207006931304932,0.2665598392486572,,0.0003431363790865,-0.0004716913804853,-0.0004165912864769,-0.0000362799963632,-0.0000178833168929,-0.0000100745123364,0.9999999991312265,-0.0797478174257171,0.2438528996089663,-0.0006721862495950,0.0008971832518353,-0.0020463925252434,-0.0023451758404527,-0.0009427345252527,-0.0001135738131031,0.0003124202551737,,0.0003195640245647,0.0012565451760955,0.0004369553676586,-0.0000203842576571,0.0002228644697758,0.0000059252942832,0.9999999749404003,-0.0779184667913354,0.2714430136939749,0.0011242835076430,-0.0063411630690098,-0.0023399125784636,0.0026414536405355,0.0006563157658093,0.0000575598314754,0.0000708336956450,,0.0000000000000000,0.0000000000000000,
1559013413.0540206432342529,0.2998797893524170,,0.0003903418709308,-0.0005530731092706,-0.0004847153840386,-0.0000454537236579,-0.0000198192877273,-0.0000091906053814,0.9999999987283439,-0.0807986128321173,0.2436311815676687,-0.0005705755700852,0.0017486898863368,-0.0027608805572256,-0.0017974615562203,0.0003923254197449,-0.0003731200542663,0.0000570656395446,,0.0001864124072654,0.0012166738894161,0.0004830618136631,-0.0000185716344986,0.0002542559187380,0.0000077107003256,0.9999999674747831,-0.0777098268087173,0.2750404781751465,0.0013241122817303,-0.0062631070613861,-0.0018153276760131,0.0017081610858440,-0.0014693180564791,-0.0002084249572363,0.0000913238181965,,0.0000000000000000,0.0000000000000000,
1559013413.0873408317565918,0.3331999778747559,,0.0004235085341944,-0.0005965719651736,-0.0004865054814404,-0.0000408711550906,-0.0000194033185843,-0.0000116516233847,0.9999999989086499,-0.0802746947866737,0.2436784693024474,-0.0008526649986903,0.0017240687199706,-0.0031871259043428,-0.0011785142098235,0.0001260234255512,-0.0003740971110650,0.0000545037719461,,0.0001864124072654,0.0012166738894161,0.0004830618136631,-0.0000185716344986,0.0002542559187380,0.0000077107003256,0.9999999674747831,-0.0777098268087173,0.2750404781751465,0.0013241122817303,-0.0062631070613861,-0.0018153276760131,0.0017081610858440,-0.0014693180564791,-0.0002084249572363,0.0000913238181965,,0.0000000000000000,0.0000000000000000,
1559013413.1206507682800293,0.3665099143981934,,0.0004875706306642,-0.0007130797139592,-0.0005478921793673,-0.0000410329513250,-0.0000277650478119,-0.0000041844611969,0.9999999987639447,-0.0802895699230695,0.2427214503716803,0.0000043194784127,0.0027631789637401,-0.0047801986745752,-0.0033738776896112,0.0001177937451062,-0.0009142172565754,0.0011159593238826,,-0.0016435135824158,0.0026275468295871,0.0012304795801690,-0.0000513339756734,0.0002473163494147,-0.0000056877855006,0.9999999680835472,-0.0814710891680904,0.2742431862158812,-0.0002111219548778,-0.0103930579498410,0.0014988548355177,0.0039006241131574,0.0011318795150146,0.0002227528020740,-0.0000919199519558,,0.0000000000000000,0.0000000000000000,
1559013413.1539707183837891,0.3998298645019531,,0.0005574942967990,-0.0008094483077777,-0.0006993855897925,-0.0000341463867487,-0.0000257455512961,-0.0000020697332304,0.9999999990834535,-0.0794993963368072,0.2429531986530176,0.0002463162920762,0.0034413750789935,-0.0033109345031846,-0.0041616468634774,0.0009233695065517,-0.0006393498305822,0.0003266199044156,,0.0030802988584500,0.0012210024314830,-0.0004229099459523,-0.0000380366311522,0.0002537059910602,0.0000099031762481,0.9999999670442055,-0.0799392118169074,0.2749778185721677,0.0015748725432740,0.0080886157229543,-0.0046372590586543,0.0003316676011309,0.0006035095429979,0.0012304764240980,0.0005028592422605,,0.0000000000000000,0.0000000000000000,
1559013413.1872906684875488,0.4331498146057129,,0.0006398390193831,-0.0009020695165030,-0.0007719575099675,-0.0000255784676790,-0.0000199741326742,-0.0000037813069523,0.9999999994662390,-0.0785184282349694,0.2436142921489159,0.0000492681081955,0.0023332082573858,-0.0027186569818073,-0.0018252419071451,0.0003944501896383,0.0004295554452148,-0.0004699287259005,,0.0030802988584500,0.0012210024314830,-0.0004229099459523,-0.0000380366311522,0.0002537059910602,0.0000099031762481,0.9999999670442055,-0.0799392118169074,0.2749778185721677,0.0015748725432740,0.0080886157229543,-0.0046372590586543,0.0003316676011309,0.0006035095429979,0.0012304764240980,0.0005028592422605,,0.0000000000000000,0.0000000000000000,
1559013413.2206108570098877,0.4664700031280518,,0.0007321897528405,-0.0009814400444543,-0.0007248301442101,-0.0000182409391038,-0.0000186759745194,-0.0000192941166865,0.9999999994731067,-0.0776852069773910,0.2437606754518410,-0.0017285992047352,0.0022640180309426,-0.0003692729545637,-0.0023458715172385,0.0012059961659185,-0.0008934233753920,-0.0012704684032716,,0.0013329283684650,-0.0002645851969253,-0.0013593500048340,-0.0000230157938096,0.0002529160120719,0.0000307535759244,0.9999999672789903,-0.0782070900445297,0.2748904838150207,0.0039647358401133,0.0011904048733413,-0.0095880255103111,-0.0023563199210912,0.0018597589805722,0.0016142132226378,-0.0009464622708037,,0.0000000000000000,0.0000000000000000,
1559013413.2539308071136475,0.4997899532318115,,0.0008214000618307,-0.0011147023921193,-0.0008160924783590,-0.0000074802246581,-0.0000191327878671,-0.0000099084855318,0.9999999997399024,-0.0764475233977562,0.2437097793192798,-0.0006530299188866,0.0023160583562900,-0.0032608508260834,-0.0029333712130724,-0.0001473785158252,0.0001537888842407,0.0005882698030461,,-0.0003187015053108,0.0000959066590073,-0.0209231593457670,-0.0000160718343075,0.0002776230263452,0.0000108136414350,0.9999999612751075,-0.0774217422934056,0.2777186218234659,0.0016761845038021,-0.0058840299025178,-0.0058508231304586,-0.0372426919639111,0.0013397382572293,0.0005982400616631,-0.0003023762255907,,0.0000000000000000,0.0000000000000000,
1559013413.2872507572174072,0.5331099033355713,,0.0008964650627510,-0.0011917287521395,-0.0008995106746629,-0.0000056881366386,-0.0000201552799753,0.0000002888588262,0.9999999997806632,-0.0762371718443716,0.2435941607241150,0.0005156605210579,0.0028469972621294,-0.0026728003224190,-0.0029939390271543,0.0006566373432027,0.0001604724198570,0.0000633609178995,,0.0034269625326508,0.0011286720590091,-0.0090409392735334,-0.0000107213567495,0.0003332832900764,0.0000064883889218,0.9999999443825994,-0.0768108869699027,0.2840961473448347,0.0011722296041699,0.0091384267434478,-0.0020928373560309,-0.0114530222490430,0.0010196233633906,0.0007099295035005,-0.0002983235754073,,0.0000000000000000,0.0000000000000000,
1559013413.3205707073211670,0.5664298534393311,,0.0009983508567541,-0.0013158597197485,-0.0009931388664434,-0.0000014846981830,-0.0000207001705078,0.0000006396896581,0.9999999997844448,-0.0757553212773610,0.2435317738659260,0.0005559358577764,0.0028895563533619,-0.0038717623905304,-0.0020516825113147,0.0001275833295260,-0.0001059132196285,-0.0002099267803954,,0.0034269625326508,0.0011286720590091,-0.0090409392735334,-0.0000107213567495,0.0003332832900764,0.0000064883889218,0.9999999443825994,-0.0768108869699027,0.2840961473448347,0.0011722296041699,0.0091384267434478,-0.0020928373560309,-0.0114530222490430,0.0010196233633906,0.0007099295035005,-0.0002983235754073,,0.0000000000000000,0.0000000000000000,
1559013413.3538906574249268,0.5997498035430908,,0.0011023591286092,-0.0015238557129694,-0.0010280841455707,0.0000043936558553,-0.0000162814192561,0.0000008957167473,0.9999999998574045,-0.0750815886527936,0.2440381631487041,0.0005845949330632,0.0023154199395529,-0.0044507936668556,-0.0012174127254590,0.0006530873698550,0.0004249039442817,0.0003315248620452,,0.0040679258189634,0.0016302978887204,-0.0017103729637689,0.0000057362566524,0.0003389510514528,0.0000028056137798,0.9999999425357027,-0.0749269346787147,0.2847450587356998,0.0007499853509923,0.0094946585595608,-0.0007214926299639,0.0039329784922302,-0.0014333359431475,0.0007109196740203,-0.0008072421769612,,0.0000000000000000,0.0000000000000000,
1559013413.3872108459472656,0.6330699920654297,,0.0011871427926087,-0.0016761207015094,-0.0010967900756510,0.0000078476334176,-0.0000121965204530,0.0000079659935668,0.9999999998631013,-0.0746823268434425,0.2445073197373150,0.0013941753668386,0.0025696505008848,-0.0046086941753160,-0.0033075615138268,-0.0001479433811555,-0.0003807027097568,0.0008508336142102,,0.0037347389898433,0.0011512820030796,-0.0013166560496787,0.0000095794397142,0.0003434069863255,0.0000027559451479,0.9999999409861386,-0.0744865658977033,0.2852556623579033,0.0007437742424991,0.0077366176992655,-0.0026162154972553,0.0044623170979321,0.0017586316680536,0.0013520804932341,-0.0005689590470865,,0.0000000000000000,0.0000000000000000,
1559013413.4205307960510254,0.6663899421691895,,0.0012655686490635,-0.0017759519921350,-0.0011231318533331,-0.0000012824092676,-0.0000167955199305,0.0000061434533677,0.9999999998392620,-0.0757294466855989,0.2439800462572644,0.0011860345635732,0.0025410064787724,-0.0043848644158020,-0.0041679791122847,-0.0001469483453497,-0.0006470104175235,0.0008489669045595,,0.0040371625405149,0.0010407715328566,-0.0011724512895224,0.0000182179897012,0.0003403120708404,-0.0000080441169780,0.9999999418955441,-0.0735023907927335,0.2848993990187070,-0.0004930345491329,0.0076945354230702,-0.0024773650802672,0.0028743059374392,0.0014570327475667,-0.0012100221356377,0.0000713423796697,,0.0000000000000000,0.0000000000000000,
1559013413.4538507461547852,0.6997098922729492,,0.0013492108620308,-0.0018777953023614,-0.0012440914080685,-0.0000100269604675,-0.0000277926577960,0.0000034817171589,0.9999999995574529,-0.0767327995918233,0.2427194689527249,0.0008827114491033,0.0031134739605449,-0.0024055958678867,-0.0040851225189986,0.0001356783143865,-0.0009010839795344,-0.0007481214096563,,0.0028244609372718,-0.0020864745447010,-0.0040981470072898,0.0000272535559166,0.0003338402301539,-0.0000050454464155,0.9999999438912424,-0.0724653892738492,0.2841582340357628,-0.0001480977271716,0.0034915832802653,-0.0125113883987069,-0.0027146551292390,0.0007540810620412,0.0003361692652106,-0.0002933166106232,,0.0000000000000000,0.0000000000000000,
1559013413.4871706962585449,0.7330298423767090,,0.0014542626408478,-0.0018626600067561,-0.0013492493688464,0.0000029373945938,-0.0000222058365935,-0.0000060576233224,0.9999999997307889,-0.0752518627199607,0.2433582268505460,-0.0002113093174410,0.0034362628001406,-0.0048027571666484,-0.0026880151990475,0.0001189234800464,0.0001547659384812,0.0005908316488019,,0.0009705727291415,0.0016289898501757,-0.0079331041607371,0.0000413433631328,0.0003589990839138,-0.0000095545487231,0.9999999346595452,-0.0708532497001342,0.2870405726501778,-0.0006679541082759,-0.0035913039464504,0.0022433528210968,-0.0086488155648112,-0.0000468759790238,-0.0001395221770508,-0.0007117160712369,,0.0000000000000000,0.0000000000000000,
1559013413.5204906463623047,0.7663497924804688,,0.0015824539752893,-0.0020235430183537,-0.0014530989103547,0.0000037037754679,-0.0000214921574112,0.0000036281025193,0.9999999997556031,-0.0751593032225523,0.2434414690205191,0.0008984926241174,0.0038210473862045,-0.0056193784285574,-0.0033658847216613,0.0003785556952675,-0.0001161932510996,0.0013904185459942,,0.0009049911250469,0.0016716632260573,-0.0081049924384131,0.0000501230371511,0.0003626649995588,-0.0000170555534951,0.9999999328354414,-0.0698511788821507,0.2874595744438982,-0.0015276880078354,-0.0032216487452388,0.0018814789364114,-0.0086492393165827,0.0019662324339151,0.0004521511436906,-0.0012100221356377,,0.0000000000000000,0.0000000000000000,
1559013413.5538108348846436,0.7996699810028076,,0.0016828542420189,-0.0021907703204716,-0.0015551228919790,0.0000041226167405,-0.0000292372273641,0.0000197734758901,0.9999999993685993,-0.0751034194024013,0.2425563828703480,0.0027497972306095,0.0035028052621233,-0.0057760241115206,-0.0038523559590066,0.0006458527252670,-0.0003815239020676,0.0013911137039421,,0.0008416231557927,0.0017042349993819,-0.0082787919112038,0.0000540832522323,0.0003709936414145,-0.0000274513881228,0.9999999293425681,-0.0694029478739007,0.2884124663842267,-0.0027200200000634,-0.0031365249305964,0.0013117705238983,-0.0091546773910522,-0.0008535996312276,-0.0001344025076833,-0.0015033677918836,,0.0000000000000000,0.0000000000000000,
1559013413.5871307849884033,0.8329899311065674,,0.0017932135002690,-0.0023386551180584,-0.0016571560069627,0.0000116322619374,-0.0000291247742343,0.0000235007155075,0.9999999992320773,-0.0742410566966191,0.2425698103929541,0.0031768689063552,0.0025179959585690,-0.0036156644521127,-0.0013945688954470,0.0011872512626084,0.0006950419601005,0.0000722180457218,,0.0008416231557927,0.0017042349993819,-0.0082787919112038,0.0000540832522323,0.0003709936414145,-0.0000274513881228,0.9999999293425681,-0.0694029478739007,0.2884124663842267,-0.0027200200000634,-0.0031365249305964,0.0013117705238983,-0.0091546773910522,-0.0008535996312276,-0.0001344025076833,-0.0015033677918836,,0.0000000000000000,0.0000000000000000,
1559013413.6204507350921631,0.8663098812103271,,0.0018303404269371,-0.0023044484517329,-0.0016455992707265,0.0000124715719921,-0.0000297111663925,0.0000258253722981,0.9999999991473784,-0.0741437446763469,0.2425029606368991,0.0034433421073701,0.0029272028351930,-0.0035612492143985,-0.0022904911291809,0.0001240333574452,0.0001585183173726,0.0000582371560263,,0.0030406504889629,0.0022882742342330,-0.0062925504181727,0.0000611729674452,0.0003626874159403,-0.0000190422897520,0.9999999321765465,-0.0685860076404653,0.2874618788989146,-0.0017548979202029,0.0040563573129475,0.0002654088311829,-0.0037910772953182,0.0001189401809825,-0.0001427652314305,-0.0001788293011487,,0.0000000000000000,0.0000000000000000,
1559013413.6537706851959229,0.8996298313140869,,0.0019312037691430,-0.0024144061873913,-0.0017400982851972,0.0000123438956216,-0.0000333565383566,0.0000279777612702,0.9999999989761074,-0.0741573334319607,0.2420855547926135,0.0036905359717384,0.0032910339574360,-0.0043291553012839,-0.0028922443011392,-0.0004136805088031,0.0001528118256464,0.0005857079101666,,0.0036291435458029,0.0025966150466021,-0.0043469637549630,0.0000571760738891,0.0003901364780748,-0.0000200743580797,0.9999999220607196,-0.0690446522828446,0.2906071492304136,-0.0018773020674637,0.0051087369211018,0.0014169181231409,0.0000617773694103,-0.0004234086372890,-0.0003483407199383,-0.0010793746914715,,0.0000000000000000,0.0000000000000000,
1559013413.6870906352996826,0.9329497814178467,,0.0020100867056632,-0.0023094839065321,-0.0018645090279655,0.0000004453337634,-0.0000293061478595,0.0000322257062485,0.9999999990512276,-0.0755187226401943,0.2425503749812919,0.0041767519893112,0.0030575996088723,-0.0045152726075224,-0.0028417458372767,-0.0012110265889666,0.0004180645456274,0.0003135917730506,,0.0029954825554080,0.0032025419981495,0.0006789376870445,0.0000544467831987,0.0004025603575399,-0.0000166703444748,0.9999999173513996,-0.0693556131155782,0.2920313069036726,-0.0014891490537248,0.0025517339818180,0.0034124318044633,0.0093907183036208,0.0006610900745727,-0.0005176760023460,0.0005640679155476,,0.0000000000000000,0.0000000000000000,
1559013413.7204108238220215,0.9662699699401855,,0.0020906107766230,-0.0024139621525356,-0.0019403799798431,-0.0000086927887824,-0.0000273562515364,0.0000328534775213,0.9999999990483599,-0.0765655614919193,0.2427739457358140,0.0042484238526914,0.0038332645855222,-0.0051660893258878,-0.0045034330799860,-0.0004097003674470,-0.0009124190017793,0.0005782410804467,,0.0029954825554080,0.0032025419981495,0.0006789376870445,0.0000544467831987,0.0004025603575399,-0.0000166703444748,0.9999999173513996,-0.0693556131155782,0.2920313069036726,-0.0014891490537248,0.0025517339818180,0.0034124318044633,0.0093907183036208,0.0006610900745727,-0.0005176760023460,0.0005640679155476,,0.0000000000000000,0.0000000000000000,
1559013413.7537307739257812,0.9995899200439453,,0.0021650450329811,-0.0024973225685013,-0.0020017832156560,-0.0000038576672302,-0.0000286001799867,0.0000372133199662,0.9999999988911584,-0.0760093713526366,0.2426320447961617,0.0047482024627476,0.0036089942396964,-0.0049853085134261,-0.0027096814033204,0.0001189234777173,0.0001547659428848,0.0005908316542464,,0.0030289224516844,0.0023765824402918,-0.0033198514464759,0.0000678295528458,0.0003977654355162,-0.0000278324407393,0.9999999182035793,-0.0678280433599501,0.2914802751545360,-0.0027669415083076,0.0023106145672500,-0.0010975358309224,0.0018299455987290,0.0003901844902430,0.0004943516105413,0.0005143763264641,,0.0000000000000000,0.0000000000000000,
1559013413.7870507240295410,1.0329098701477051,,0.0022563214773286,-0.0026054804125969,-0.0020770129796751,0.0000003389787461,-0.0000279659260955,0.0000419711579005,0.9999999987281071,-0.0755261441456172,0.2427054258385020,0.0052933053827627,0.0034236701267431,-0.0029015022565575,-0.0025037800064179,0.0001281481947424,0.0004285783765707,-0.0004724906145532,,0.0030289224516844,0.0023765824402918,-0.0033198514464759,0.0000678295528458,0.0003977654355162,-0.0000278324407393,0.9999999182035793,-0.0678280433599501,0.2914802751545360,-0.0027669415083076,0.0023106145672500,-0.0010975358309224,0.0018299455987290,0.0003901844902430,0.0004943516105413,0.0005143763264641,,0.0000000000000000,0.0000000000000000,
1559013413.8203706741333008,1.0662298202514648,,0.0023508382065887,-0.0026490812873662,-0.0021709352850252,-0.0000041874639278,-0.0000285719443004,0.0000462458428797,0.9999999985137157,-0.0760427503380269,0.2426366511921995,0.0057832585190520,0.0038017801191045,-0.0042482508810350,-0.0039668739737544,-0.0004126854749270,-0.0001134958830008,0.0005838412068328,,0.0028483643782737,0.0054159764026453,-0.0048358352553247,0.0000756474026680,0.0004063720092715,-0.0000323465478623,0.9999999140464770,-0.0669346459473181,0.2924658971404100,-0.0032850968095539,0.0015071481466293,0.0085062691941857,-0.0014686621725559,-0.0004123515100218,-0.0004598114755936,-0.0001185764558613,,0.0000000000000000,0.0000000000000000,
1559013413.8536908626556396,1.0995500087738037,,0.0024645862499202,-0.0027399808895192,-0.0022981377364039,-0.0000056235317659,-0.0000328718604793,0.0000457070948561,0.9999999983993391,-0.0762075945362692,0.2421438433765805,0.0057221793433148,0.0038407317539978,-0.0011834232595397,-0.0045212046691431,0.0006698422019025,-0.0006309459763454,-0.0010074282079526,,0.0052727955121410,0.0028594060605301,-0.0016091656637851,0.0000741511501028,0.0004075664680992,-0.0000336539987448,0.9999999136292910,-0.0671068135670647,0.2926025797277269,-0.0034351616037410,0.0104847270995378,-0.0010913329897448,0.0042982785962522,0.0000560693915759,0.0001306207850575,-0.0007089182618074,,0.0000000000000000,0.0000000000000000,
1559013413.8870108127593994,1.1328699588775635,,0.0026215358823394,-0.0028561676237402,-0.0023565779827329,-0.0000120057470351,-0.0000380609282385,0.0000365631185800,0.9999999985351832,-0.0769434236013065,0.2415478594836846,0.0046751638107300,0.0039750414772152,-0.0023005244626823,-0.0043323891139932,0.0004004204028736,-0.0011682908138978,-0.0004811290069102,,0.0052727955121410,0.0028594060605301,-0.0016091656637851,0.0000741511501028,0.0004075664680992,-0.0000336539987448,0.9999999136292910,-0.0671068135670647,0.2926025797277269,-0.0034351616037410,0.0104847270995378,-0.0010913329897448,0.0042982785962522,0.0000560693915759,0.0001306207850575,-0.0007089182618074,,0.0000000000000000,0.0000000000000000,
1559013413.9203307628631592,1.1661899089813232,,0.0026215358823394,-0.0028561676237402,-0.0023565779827329,-0.0000120057470351,-0.0000380609282385,0.0000365631185800,0.9999999985351832,-0.0769434236013065,0.2415478594836846,0.0046751638107300,0.0039750414772152,-0.0023005244626823,-0.0043323891139932,0.0004004204028736,-0.0011682908138978,-0.0004811290069102,,0.0054303640759792,0.0028405871846140,-0.0015512931906976,0.0000727297327581,0.0004122941432348,-0.0000389757507913,0.9999999116024042,-0.0672725866643876,0.2931435651078277,-0.0040457387794924,0.0105438055470586,-0.0008907766314223,0.0042810388840735,0.0001138636871474,-0.0001375615538564,-0.0004429370164871,,0.0000000000000000,0.0000000000000000,
1559013413.9536507129669189,1.1995098590850830,,0.0028475536621841,-0.0030723877235104,-0.0025392508515709,-0.0000323096949430,-0.0000407421323179,0.0000393698421617,0.9999999978730889,-0.0792687264527604,0.2412411361796221,0.0049972967961115,0.0034762607947634,-0.0037844957665676,-0.0024460267529033,0.0011785914089787,0.0009557211132808,0.0008729764917305,,0.0042457708010142,0.0032688893773403,-0.0056604679087909,0.0000648888487885,0.0004357793942480,-0.0000388127972930,0.9999999021896570,-0.0681711214985140,0.2958347627029305,-0.0040308126094763,0.0040785656310618,0.0004996526986361,-0.0031115380115807,-0.0004219063557684,-0.0014084292342886,-0.0011841928353533,,0.0000000000000000,0.0000000000000000,
1559013413.9869606494903564,1.2328197956085205,,0.0030314588063935,-0.0032899933660249,-0.0027233066105050,-0.0000323679786817,-0.0000297728473192,0.0000530250031450,0.9999999976271203,-0.0792686936080126,0.2425002370580969,0.0065603773226392,0.0032750048054653,-0.0044320481493286,-0.0045800791567225,-0.0004122553055430,-0.0009142951818779,0.0008445383185847,,0.0017202034351819,0.0019900629173381,0.0072379787002510,0.0000717982285343,0.0004393324456583,-0.0000273138883466,0.9999999005429790,-0.0673731475188560,0.2962435873813040,-0.0027132812992026,-0.0048331981524825,-0.0074150282889605,0.0200688168406487,0.0011818874627352,-0.0009863661834970,-0.0003966653603129,,0.0000000000000000,0.0000000000000000,
1559013414.0202808380126953,1.2661399841308594,,0.0030491169935192,-0.0036673563716709,-0.0018349306069335,-0.0000317936539972,-0.0000334540661486,0.0000524736856117,0.9999999975582506,-0.0792031698533280,0.2420783120227561,0.0064977682461727,0.0020974878445559,-0.0022417214103262,-0.0011001420099150,0.0001236031850975,0.0009593176165271,-0.0002024599545480,,0.0017202034351819,0.0019900629173381,0.0072379787002510,0.0000717982285343,0.0004393324456583,-0.0000273138883466,0.9999999005429790,-0.0673731475188560,0.2962435873813040,-0.0027132812992026,-0.0048331981524825,-0.0074150282889605,0.0200688168406487,0.0011818874627352,-0.0009863661834970,-0.0003966653603129,,0.0000000000000000,0.0000000000000000,
1559013414.0536007881164551,1.2994599342346191,,0.0031632667393280,-0.0037699430569078,-0.0019396581202585,-0.0000303036850921,-0.0000320268997453,0.0000561548440057,0.9999999974512990,-0.0790306273871486,0.2422424132012198,0.0069193749813486,0.0043532056627275,-0.0031632795927494,-0.0049358900323055,0.0001254585697726,-0.0009085887704642,0.0003170675286618,,0.0015068107179514,0.0016932286072444,0.0080463489154361,0.0000789686078477,0.0004532145802662,-0.0000374523461941,0.9999998934789068,-0.0665570470683093,0.2978329434119240,-0.0038766901340410,-0.0054034348577261,-0.0075699882581830,0.0206820219755173,-0.0000512534279551,-0.0005031805485487,-0.0009181024506688,,0.0000000000000000,0.0000000000000000,
1559013414.0869207382202148,1.3327798843383789,,0.0032672661069570,-0.0037104303729541,-0.0020261118504982,-0.0000268038105722,-0.0000305791681361,0.0000585170205375,0.9999999974611143,-0.0786284094864420,0.2424086525495871,0.0071898266118529,0.0041103712828834,-0.0025939251417427,-0.0029426218804334,-0.0001387186553916,-0.0001068903387424,-0.0002124886979270,,0.0000121213038593,0.0015928919038833,-0.0050828893196578,0.0000748137299263,0.0004453782290903,-0.0000428664643663,0.9999998971017973,-0.0670360616612345,0.2969341739491855,-0.0044962081267990,-0.0103412009775639,-0.0070697003975511,-0.0045804427936673,-0.0004666797758546,-0.0001374986022711,0.0000456533380202,,0.0000000000000000,0.0000000000000000,
1559013414.1202406883239746,1.3660998344421387,,0.0033880110499231,-0.0038068077281346,-0.0021069407385685,-0.0000329169465977,-0.0000355629432436,0.0000579301833678,0.9999999971479229,-0.0793292395714258,0.2418375046405560,0.0071233727781515,0.0039359255623105,-0.0024597743788952,-0.0031484307353967,-0.0006632276634388,-0.0009040152073887,-0.0007558070524472,,-0.0005695107067441,0.0011753494670631,-0.0053720416089590,0.0000732402329876,0.0004666305450950,-0.0000575712412892,0.9999998867886710,-0.0672245097017332,0.2993674002054934,-0.0061843887103450,-0.0087402760982513,-0.0075568733736873,-0.0051086759194732,-0.0005755241727456,0.0005565957981162,0.0000478677466162,,0.0000000000000000,0.0000000000000000,
1559013414.1535606384277344,1.3994197845458984,,0.0035715874955671,-0.0041101236895783,-0.0021254595892000,-0.0000333060151162,-0.0000280207024112,0.0000469289819718,0.9999999979516102,-0.0793791537578307,0.2427000790864751,0.0058615508434153,0.0033800273897582,-0.0035289377485839,-0.0022299533048519,-0.0004060156889150,0.0001584403152562,-0.0002131838583038,,0.0054194410451250,0.0039221283223847,-0.0059444888312575,0.0000707223501789,0.0004701856227759,-0.0000471678987493,0.9999998858495028,-0.0675073877342590,0.2997762539914523,-0.0049928816865142,0.0113711925223470,0.0025506995152682,-0.0051999506540596,-0.0004708282649517,0.0001321081072092,-0.0002189685619669,,0.0000000000000000,0.0000000000000000,
1559013414.1868808269500732,1.4327399730682373,,0.0036719197452200,-0.0042069477543366,-0.0022091350648018,-0.0000314135611906,-0.0000236045609138,0.0000444780773611,0.9999999982388568,-0.0791634724705993,0.2432057417603835,0.0055800062324710,0.0031554067169459,-0.0026430142111921,-0.0026245036938540,-0.0006691978737631,0.0006938310419609,-0.0007446067964476,,0.0017337937437958,0.0027914976925686,-0.0073980466569868,0.0000657147087486,0.0004684735527028,-0.0000318904734004,0.9999998875985463,-0.0680728783992629,0.2995822330364225,-0.0032422190918197,-0.0032952094916254,-0.0025957324542105,-0.0077453418634832,-0.0003198916092515,-0.0001808123633964,-0.0010700231650844,,0.0000000000000000,0.0000000000000000,
1559013414.2202007770538330,1.4660599231719971,,0.0037522314063045,-0.0040221509961111,-0.0022688870569143,-0.0000346485512308,-0.0000202111494092,0.0000508114902252,0.9999999979045900,-0.0795310596657281,0.2435955964969280,0.0063052501938098,0.0029228227678340,-0.0030910607398293,-0.0037721925138323,-0.0004055855152106,-0.0006423589879045,0.0000475132548109,,0.0016665977433136,0.0027382713719194,-0.0075614852205783,0.0000557976014359,0.0004839310802037,-0.0000371757330550,0.9999998806576439,-0.0692122584203265,0.3013527317085731,-0.0038506439030291,-0.0032002131920308,-0.0028765022289008,-0.0087563088163733,0.0000535150975338,0.0007230283808894,-0.0005930472980253,,0.0000000000000000,0.0000000000000000,
1559013414.2535207271575928,1.4993798732757568,,0.0038338651726897,-0.0041256313703881,-0.0023551628521117,-0.0000474835206611,-0.0000265936444278,0.0000554881259694,0.9999999969795806,-0.0809995857763421,0.2428650240727304,0.0068421863832336,0.0027977329875236,-0.0039468514920305,-0.0021188837335574,-0.0009478443984005,-0.0001173262370548,0.0008450146850165,,0.0016665977433136,0.0027382713719194,-0.0075614852205783,0.0000557976014359,0.0004839310802037,-0.0000371757330550,0.9999998806576439,-0.0692122584203265,0.3013527317085731,-0.0038506439030291,-0.0032002131920308,-0.0028765022289008,-0.0087563088163733,0.0000535150975338,0.0007230283808894,-0.0005930472980253,,0.0000000000000000,0.0000000000000000,
1559013414.2868406772613525,1.5326998233795166,,0.0039245214925705,-0.0041731353101254,-0.0023056616374505,-0.0000617066662421,-0.0000236322690195,0.0000608908891788,0.9999999959630514,-0.0826267785766996,0.2432053175064845,0.0074608771928263,0.0033185087229221,-0.0022248440928557,-0.0028529112440874,-0.0006774275635658,0.0001537108927309,0.0003168487743235,,0.0000028817418052,0.0010918397830906,-0.0051684678384338,0.0000500533688933,0.0004737014950638,-0.0000311960040012,0.9999998860641751,-0.0698671837824446,0.3001813534159015,-0.0031642389618452,-0.0071128201670945,-0.0069704242050648,-0.0023966880980879,-0.0008921859553084,0.0000764483556850,0.0002165858604712,,0.0000000000000000,0.0000000000000000,
1559013414.3201606273651123,1.5660197734832764,,0.0040414371999717,-0.0042291364088311,-0.0024669170561017,-0.0000715389962667,-0.0000295906695096,0.0000630744702650,0.9999999950140879,-0.0837524514988141,0.2425229522703942,0.0077120749231427,0.0030968302930025,-0.0020837370398788,-0.0055478882840955,-0.0006779924299887,-0.0003807807113851,0.0005794125955694,,0.0033008006095580,0.0011785803558295,0.0061231132623880,0.0000425381149729,0.0005060812556475,-0.0000255228093975,0.9999998707104205,-0.0707253920346598,0.3038926008353187,-0.0025192764290060,0.0057506039738655,-0.0057758740149438,0.0190748348832130,-0.0001634397485759,0.0007278783014044,-0.0009080261806957,,0.0000000000000000,0.0000000000000000,
1559013414.3534808158874512,1.5993399620056152,,0.0041150398928504,-0.0042128354304518,-0.0025775806558976,-0.0000910625224242,-0.0000299552585248,0.0000644012813689,0.9999999933313872,-0.0859890368966770,0.2424815290306895,0.0078642423888601,0.0023790692721816,-0.0012403579602139,-0.0027958815171125,-0.0006691978820948,0.0006938310327328,-0.0007446067856835,,0.0034192999153591,0.0010579430106152,0.0064953994279523,0.0000345271351897,0.0005111463805106,-0.0000263829984575,0.9999998684205874,-0.0716438772364495,0.3044728703048402,-0.0026190585096938,0.0061334241181612,-0.0059950468130410,0.0181544125080109,-0.0012176220770925,0.0004556177300401,-0.0002580562722869,,0.0000000000000000,0.0000000000000000,
1559013414.3868007659912109,1.6326599121093750,,0.0042178965954103,-0.0043345799064154,-0.0026865534248018,-0.0000992311196492,-0.0000328184933850,0.0000640888008824,0.9999999924843787,-0.0869252607471709,0.2421534363655603,0.0078289276541889,0.0022109704496945,-0.0034435923980994,-0.0001235759095120,-0.0004080057691300,0.0006910557317868,-0.0002094504215705,,0.0057367386720548,0.0016183337584161,0.0098573301577264,0.0000261658727469,0.0004975904176237,-0.0000332114235218,0.9999998753080546,-0.0726057057987067,0.3029184345740711,-0.0034000292129137,0.0127253644168377,-0.0035268568899482,0.0208079684525728,-0.0005384065443650,-0.0007062302902341,-0.0015981659526005,,0.0000000000000000,0.0000000000000000,
1559013414.4201207160949707,1.6659798622131348,,0.0042502287380506,-0.0043338408437050,-0.0024491217733541,-0.0000969976002754,-0.0000320144810604,0.0000597449318629,0.9999999929985409,-0.0866714334673764,0.2422448481982135,0.0073310141726054,0.0020548832871734,-0.0039730389932337,-0.0015930115827088,-0.0006789874705765,-0.0001144729961425,0.0005812793137923,,0.0021895927776940,0.0029798482027788,-0.0017919951850399,0.0000030791525065,0.0005051542388313,-0.0000423319240284,0.9999998715088527,-0.0752563039453160,0.3037837185136449,-0.0044476326101652,-0.0012074953410774,0.0004014892037958,0.0003388677432667,0.0008526051533408,0.0004610072937794,-0.0004364303313196,,0.0000000000000000,0.0000000000000000,
1559013414.4534406661987305,1.6992998123168945,,0.0043316486711726,-0.0044685818195794,-0.0025701750358494,-0.0001049269509005,-0.0000413877232926,0.0000739465933700,0.9999999909046463,-0.0875732102611134,0.2411731258810232,0.0089599756213025,0.0030144394727483,-0.0040943097818530,-0.0066967520978790,-0.0004108301050577,-0.0019814022779036,0.0011033686957721,,0.0021895927776940,0.0029798482027788,-0.0017919951850399,0.0000030791525065,0.0005051542388313,-0.0000423319240284,0.9999998715088527,-0.0752563039453160,0.3037837185136449,-0.0044476326101652,-0.0012074953410774,0.0004014892037958,0.0003388677432667,0.0008526051533408,0.0004610072937794,-0.0004364303313196,,0.0000000000000000,0.0000000000000000,
1559013414.4867608547210693,1.7326200008392334,,0.0043776925202006,-0.0042951206707732,-0.0027276924497425,-0.0001037705782178,-0.0000504122021948,0.0000820873839649,0.9999999899759693,-0.0874368131399807,0.2401403148491768,0.0098943142064631,0.0023844502413223,-0.0038365685767976,-0.0042491066691623,0.0003872155391355,-0.0003768724956872,0.0005896600685295,,-0.0012483852178724,0.0029130126356645,-0.0133931447355384,0.0000071086377619,0.0005056201075181,-0.0000284163205645,0.9999998717451352,-0.0747869104155516,0.3038392157692573,-0.0028528379095790,-0.0112782604992390,-0.0011266766814515,-0.0219192188233137,-0.0009281082893722,-0.0018408100586385,0.0009666547412053,,0.0000000000000000,0.0000000000000000,
1559013414.5200808048248291,1.7659399509429932,,0.0044849979384174,-0.0044216464260942,-0.0028382515307113,-0.0001008615537702,-0.0000536122697599,0.0000790649099136,0.9999999903507057,-0.0871049594771474,0.2397730954949144,0.0095484652361066,0.0040360667472555,-0.0034960194082053,-0.0017848110253153,0.0001291432149842,0.0001622706008756,-0.0004743573569837,,-0.0012483852178724,0.0029130126356645,-0.0133931447355384,0.0000071086377619,0.0005056201075181,-0.0000284163205645,0.9999998717451352,-0.0747869104155516,0.3038392157692573,-0.0028528379095790,-0.0112782604992390,-0.0011266766814515,-0.0219192188233137,-0.0009281082893722,-0.0018408100586385,0.0009666547412053,,0.0000000000000000,0.0000000000000000,
1559013414.5534007549285889,1.7992599010467529,,0.0046232602019758,-0.0043991399668500,-0.0026664594981881,-0.0000976070037390,-0.0000384454968347,0.0000693415372169,0.9999999920932841,-0.0867366279546278,0.2415094704483749,0.0084317587882640,0.0047736216531610,-0.0046069205479876,-0.0002653079171890,-0.0004166656337141,0.0009517348801374,0.0005913080126557,,-0.0001511772105664,0.0030155273596015,-0.0048614124194785,0.0000030721911607,0.0005041404853026,-0.0000069560272466,0.9999998728922651,-0.0752376542126348,0.3036728872561671,-0.0003936479922015,-0.0054319784976542,-0.0006416497053578,-0.0048294910229743,0.0002559425192885,-0.0015522266039625,-0.0019227124284953,,0.0000000000000000,0.0000000000000000,
1559013414.5867207050323486,1.8325798511505127,,0.0048022507150998,-0.0045280499480367,-0.0026937127200801,-0.0001082058014811,-0.0000203474957896,0.0000723534362613,0.9999999913212321,-0.0879495549057471,0.2435839232203199,0.0087739872357506,0.0055593059033252,-0.0042635020218563,-0.0023669776248375,-0.0004146755645218,0.0004191194617447,0.0005875745863828,,0.0021569559694145,0.0008463975722888,0.0017737355212673,0.0000397605860765,0.0004972441031336,-0.0000275520140034,0.9999998752041344,-0.0710447551230397,0.3028796325554119,-0.0027506743039883,0.0050291824154556,-0.0075368159450591,0.0100390929728746,0.0008411775343120,0.0002563290181570,-0.0013905941741541,,0.0000000000000000,0.0000000000000000,
1559013414.6200406551361084,1.8658998012542725,,0.0050323139522841,-0.0045871540303970,-0.0024148415788547,-0.0001067827664769,-0.0000109318051914,0.0000794364723116,0.9999999910838917,-0.0877829408003432,0.2446640258754144,0.0095841087154793,0.0046115811425320,-0.0048020473640076,-0.0033865735291711,-0.0001499334727458,0.0001519126281665,0.0008545669883018,,0.0050295467112770,0.0037456691426175,0.0026653708937446,0.0000378362631380,0.0005064495079158,-0.0000271930095341,0.9999998706689184,-0.0712651056492512,0.3039345400159836,-0.0027109965208810,0.0137063823640347,0.0019974603783339,0.0095194336026907,0.0005897801602259,0.0018424878362566,0.0002677952870727,,0.0000000000000000,0.0000000000000000,
1559013414.6533608436584473,1.8992199897766113,,0.0051600217814818,-0.0047079772257424,-0.0025127279836696,-0.0001049190137977,-0.0000125687535044,0.0000822908445365,0.9999999910311220,-0.0875679844756007,0.2444768942273300,0.0099114630303332,0.0037834049907677,-0.0036692712064691,-0.0031665842876535,0.0001285783428474,-0.0003722210198300,-0.0002117935321871,,0.0048156837642820,0.0062237242223286,0.0038197723035811,0.0000351297156098,0.0005140273588113,-0.0000062339267155,0.9999998672514491,-0.0715637410734696,0.3048059729383173,-0.0003105032281870,0.0113962255418301,0.0109010646119714,0.0102634755894542,0.0009090397506952,-0.0008152950322255,-0.0005353579181246,,0.0000000000000000,0.0000000000000000,
1559013414.6866807937622070,1.9325399398803711,,0.0053155866355257,-0.0052355481667641,-0.0024127400019652,-0.0000979144207137,-0.0000183957214765,0.0000745898814490,0.9999999922553566,-0.0867691395593202,0.2438078575135095,0.0090299263497657,0.0043075621953108,-0.0047594315080593,-0.0027024991522700,0.0001209135281772,-0.0003778495676606,0.0005870981997262,,0.0048156837642820,0.0062237242223286,0.0038197723035811,0.0000351297156098,0.0005140273588113,-0.0000062339267155,0.9999998672514491,-0.0715637410734696,0.3048059729383173,-0.0003105032281870,0.0113962255418301,0.0109010646119714,0.0102634755894542,0.0009090397506952,-0.0008152950322255,-0.0005353579181246,,0.0000000000000000,0.0000000000000000,
1559013414.7200007438659668,1.9658598899841309,,0.0054828171575032,-0.0053713899287546,-0.0024928838404583,-0.0000997624075683,-0.0000136318547565,0.0000769208892258,0.9999999919724057,-0.0869797229900241,0.2443541505335125,0.0092962719215551,0.0052725888336783,-0.0048228605693849,-0.0022147147050445,-0.0004182255172091,0.0006835509588666,0.0008557385183792,,0.0052291259185608,0.0066394057520543,0.0041492087002540,0.0000389100275542,0.0005036717400379,-0.0000269764555915,0.9999998720365213,-0.0711419311843265,0.3036162666879023,-0.0026857110020908,0.0098902173340321,0.0114108640700579,0.0103509873151779,0.0004561709356494,0.0000499343514093,-0.0024497949052602,,0.0000000000000000,0.0000000000000000,
1559013414.7533206939697266,1.9991798400878906,,0.0056798401762843,-0.0052854027756245,-0.0025299703365049,-0.0001043388696753,-0.0000083850778567,0.0000869884184515,0.9999999907380530,-0.0874991623962278,0.2449570680954342,0.0104490867571866,0.0054157919347964,-0.0046177666712494,-0.0016081810068758,-0.0004176606505973,0.0012180425570101,0.0005931746937094,,0.0052291259185608,0.0066394057520543,0.0041492087002540,0.0000389100275542,0.0005036717400379,-0.0000269764555915,0.9999998720365213,-0.0711419311843265,0.3036162666879023,-0.0026857110020908,0.0098902173340321,0.0114108640700579,0.0103509873151779,0.0004561709356494,0.0000499343514093,-0.0024497949052602,,0.0000000000000000,0.0000000000000000,
1559013414.7866406440734863,2.0324997901916504,,0.0059016698699361,-0.0054188115555532,-0.0026274221655567,-0.0000970925107180,0.0000015745081530,0.0000775542692744,0.9999999922779503,-0.0866733402530130,0.2460967488231357,0.0093663815677256,0.0052480612548138,-0.0025234983934355,-0.0021425366782149,0.0006684169900383,0.0004361609416884,-0.0012662586501578,,0.0048463070129249,-0.0018530932854782,-0.0043371194688543,0.0000496536779303,0.0005462905973898,-0.0000412375629876,0.9999998487002679,-0.0699188675543722,0.3084979834910337,-0.0043255173052810,0.0092678898945451,-0.0197609998285770,-0.0056686224415898,0.0003229734138586,0.0009426797041669,0.0000063279644564,,0.0000000000000000,0.0000000000000000,
1559013414.8199608325958252,2.0658199787139893,,0.0059769135911518,-0.0049939731675301,-0.0022597450244506,-0.0000784420478035,0.0000047690045947,0.0000652433237060,0.9999999947837052,-0.0845421900703299,0.2464606741961874,0.0079551316508053,0.0055222338178284,-0.0028966872548924,-0.0029099439210648,0.0009310343127849,-0.0006337213804104,-0.0004722718892486,,0.0017678621869116,0.0015124191525959,-0.0011558191354735,0.0000500246131654,0.0005711314993747,-0.0000341708840095,0.9999998350693360,-0.0698725603466937,0.3113455691600101,-0.0035193152565481,-0.0028836037963629,-0.0044308807700872,0.0001653605722822,-0.0004792680847459,0.0003601763455663,-0.0004656376258936,,0.0000000000000000,0.0000000000000000,
1559013414.8532807826995850,2.0991399288177490,,0.0061631966661841,-0.0051123553614398,-0.0023332936263194,-0.0000742532232645,0.0000042071612108,0.0000676035700462,0.9999999949492581,-0.0840610279608541,0.2463966371649764,0.0082256902103726,0.0052719802591629,-0.0032982234223777,-0.0023972411927390,0.0001199184738902,-0.0001115418990083,0.0005889649221319,,0.0035131014967832,0.0016804778614988,0.0014754773829679,0.0000542418079358,0.0005692923406826,-0.0000303833826693,0.9999998360204401,-0.0693871855706775,0.3111353832455008,-0.0030847509308920,0.0037567571271211,-0.0033495931420475,0.0056101325899363,0.0010071452707052,-0.0009120524046011,-0.0011193995596841,,0.0000000000000000,0.0000000000000000,
1559013414.8865907192230225,2.1324498653411865,,0.0062908740457375,-0.0052520038398081,-0.0024465089318249,-0.0000781878355345,0.0000095791492125,0.0000779416278767,0.9999999938600025,-0.0845067674677543,0.2470139062203383,0.0094094924219746,0.0037062823738289,-0.0028966614205504,-0.0015951349339478,-0.0012094667280488,0.0006862483055190,0.0000491612251491,,0.0037245920093585,0.0014593189274381,0.0018194195298815,0.0000452053608667,0.0005873934933458,-0.0000412583801236,0.9999998256115376,-0.0704288468814915,0.3132080009324146,-0.0043341840155431,0.0031235220376402,-0.0038933986797929,0.0055238688364625,0.0007684917072766,-0.0006610307609662,0.0011769605334848,,0.0000000000000000,0.0000000000000000,
1559013414.9199106693267822,2.1657698154449463,,0.0064150013287469,-0.0053649018992982,-0.0025206800595026,-0.0000963895775831,0.0000112003069438,0.0000819669391065,0.9999999919325117,-0.0865905352536189,0.2472004922200260,0.0098704798795674,0.0039944923696475,-0.0039721148333524,-0.0017947728382887,-0.0004121206466499,0.0004209955877114,0.0003212773571040,,0.0018623154410093,0.0027256348443475,0.0001956494993356,0.0000609717752342,0.0005685389954785,-0.0000005049907428,0.9999998365227858,-0.0685993416432927,0.3110533887813620,0.0003396554353508,-0.0041805850341916,0.0011643896577880,0.0006084713968448,-0.0011163554154336,-0.0002244176284876,-0.0005613433313556,,0.0000000000000000,0.0000000000000000,
1559013414.9532308578491211,2.1990900039672852,,0.0065016784976502,-0.0054186027149560,-0.0023024898501857,-0.0000981747945811,0.0000091468609278,0.0000839721230964,0.9999999916133636,-0.0867941355889724,0.2469655271615042,0.0101005899885264,0.0041494241525922,-0.0041775923094192,-0.0016244684458122,0.0001214783775433,0.0001566419935420,0.0003245343826504,,0.0018623154410093,0.0027256348443475,0.0001956494993356,0.0000609717752342,0.0005685389954785,-0.0000005049907428,0.9999998365227858,-0.0685993416432927,0.3110533887813620,0.0003396554353508,-0.0041805850341916,0.0011643896577880,0.0006084713968448,-0.0011163554154336,-0.0002244176284876,-0.0005613433313556,,0.0000000000000000,0.0000000000000000,
1559013414.9865508079528809,2.2324099540710449,,0.0067199526892081,-0.0055788779902594,-0.0023917016987423,-0.0000960006178678,0.0000120850752890,0.0000812657266931,0.9999999920168571,-0.0865463019121339,0.2473017617890950,0.0097899832777003,0.0047958810998288,-0.0028607075468631,-0.0009865776583640,0.0001226081101883,0.0012256251690267,-0.0002005932696668,,0.0017819703080484,0.0027485697378166,0.0002144086046948,0.0000582800221329,0.0005613600279983,-0.0000004010503061,0.9999998407390859,-0.0689077309125702,0.3102307548704150,0.0003524282589109,-0.0039354576729238,0.0009255666518584,0.0008877887739800,-0.0007359915180132,0.0003025436890312,0.0002885470166802,,0.0000000000000000,0.0000000000000000,
1559013415.0198707580566406,2.2657299041748047,,0.0068027704688707,-0.0051459967826046,-0.0024633637513136,-0.0000922289029985,0.0000144426505651,0.0000875154303246,0.9999999918131444,-0.0861109907180518,0.2475728949348286,0.0105057766810864,0.0060788671903998,-0.0029768328338362,-0.0032910205509472,0.0006550774011578,-0.0001077116214299,0.0003277914052192,,0.0017819703080484,0.0027485697378166,0.0002144086046948,0.0000582800221329,0.0005613600279983,-0.0000004010503061,0.9999998407390859,-0.0689077309125702,0.3102307548704150,0.0003524282589109,-0.0039354576729238,0.0009255666518584,0.0008877887739800,-0.0007359915180132,0.0003025436890312,0.0002885470166802,,0.0000000000000000,0.0000000000000000,
1559013415.0531907081604004,2.2990498542785645,,0.0070033338543851,-0.0052902248604167,-0.0025641802987707,-0.0000974625213936,0.0000144755702474,0.0000958017987309,0.9999999905567651,-0.0867066296376619,0.2475780641774767,0.0114553183949870,0.0052065860195811,-0.0034009716643757,-0.0021400643107516,0.0001265882138079,0.0001603943423137,-0.0002080600892212,,0.0028302361133023,0.0011308112806345,-0.0055005617195409,0.0000614221750839,0.0005673859537669,0.0000062026473458,0.9999998371309983,-0.0685439934837356,0.3109222268541514,0.0011085002659068,0.0022205500863492,-0.0049788719043136,-0.0089428108185530,-0.0010673586511984,-0.0010183617705479,-0.0010928818956017,,0.0000000000000000,0.0000000000000000,
1559013415.0865106582641602,2.3323698043823242,,0.0071589485958297,-0.0052835515739562,-0.0025754395807278,-0.0000931531751251,0.0000153628888614,0.0000834499470007,0.9999999920612870,-0.0862189026350653,0.2476776979993546,0.0100397523175379,0.0049073156858937,-0.0022017060895999,-0.0023990781590262,-0.0003963608882977,-0.0003685466389863,-0.0010158089756329,,0.0029519888838059,0.0008384119710609,-0.0059934795015772,0.0000581090590179,0.0005500910080263,-0.0000013667004831,0.9999998470106645,-0.0689278484126669,0.3089392815590514,0.0002433889468124,0.0020987750031054,-0.0055223274976015,-0.0086310729384422,-0.0007987834396772,0.0002558300329838,-0.0004012739227619,,0.0000000000000000,0.0000000000000000,
1559013415.1198308467864990,2.3656899929046631,,0.0073026419564153,-0.0053880084502856,-0.0026422381237344,-0.0001026254197213,0.0000150433300122,0.0000828623678952,0.9999999911877747,-0.0873046348211415,0.2476410741591687,0.0099724553868779,0.0048658857682922,-0.0023034192466537,-0.0022521412954874,-0.0001371588483818,0.0001612934733255,-0.0004769192171246,,0.0051925544355761,0.0023813793912971,-0.0010522355678721,0.0000469439347328,0.0005700122294068,-0.0000046649478309,0.9999998364302685,-0.0702091373472664,0.3112216003752460,-0.0001381758148190,0.0089325234293938,0.0004224320291542,0.0012637828476727,-0.0005778026534244,-0.0005969690391794,-0.0000826702453196,,0.0000000000000000,0.0000000000000000,
1559013415.1531507968902588,2.3990099430084229,,0.0074842031004605,-0.0052817025298143,-0.0027088509888697,-0.0001038714550417,0.0000204545495565,0.0000892162723004,0.9999999904163946,-0.0874442324183945,0.2482622010584131,0.0106996811422959,0.0047589796168653,-0.0023582636640403,-0.0028532164626332,0.0001240332693651,0.0001585181649037,0.0000582371384162,,0.0045112719021584,0.0024116991237641,-0.0023282875840601,0.0000437592867711,0.0005660070270210,0.0000077071153321,0.9999998388308723,-0.0705671796930517,0.3107644445694721,0.0012799550679791,0.0062053748406470,0.0001340691669611,-0.0019715272355825,-0.0001328795624431,-0.0017238758737221,0.0011393750319257,,0.0000000000000000,0.0000000000000000,
1559013415.1864707469940186,2.4323298931121826,,0.0076609796343321,-0.0053811868404411,-0.0028235064041159,-0.0001130138702205,0.0000125042419038,0.0000900533786597,0.9999999894809491,-0.0884915388391107,0.2473513945960046,0.0107968898247874,0.0046662788611885,-0.0009437531432726,-0.0025115321118767,0.0001362430761021,-0.0003665925172725,-0.0010106852565105,,0.0046368757536828,0.0024083626879825,-0.0023725760559474,0.0000458798311537,0.0005587346913442,0.0000202892320099,0.9999998426494540,-0.0703171895108751,0.3099329308591345,0.0027229777647251,0.0063844979740679,-0.0001243474544026,-0.0025399073492736,-0.0001940629445016,0.0010972442105412,0.0014111992204562,,0.0000000000000000,0.0000000000000000,
1559013415.2197906970977783,2.4656498432159424,,0.0077176646013799,-0.0053075856122210,-0.0027079332974006,-0.0001204918588462,0.0000121941950010,0.0000888144526010,0.9999999887225033,-0.0893490673244015,0.2473157387407295,0.0106549584780318,0.0042510512911782,-0.0032450597970495,-0.0007677548409684,-0.0001442588142084,0.0006901565265547,0.0000594086903781,,0.0046368757536828,0.0024083626879825,-0.0023725760559474,0.0000458798311537,0.0005587346913442,0.0000202892320099,0.9999998426494540,-0.0703171895108751,0.3099329308591345,0.0027229777647251,0.0063844979740679,-0.0001243474544026,-0.0025399073492736,-0.0001940629445016,0.0010972442105412,0.0014111992204562,,0.0000000000000000,0.0000000000000000,
1559013415.2531106472015381,2.4989697933197021,,0.0078935944642673,-0.0054126935166108,-0.0027730390349936,-0.0001156571277113,0.0000196687247372,0.0000898953003836,0.9999999890777025,-0.0887944431183866,0.2481723842994116,0.0107775940226785,0.0054466750480744,-0.0032126884440142,-0.0030113707818542,0.0001214782988666,0.0001566419802034,0.0003245343823162,,0.0036304880783306,0.0051519430538680,-0.0003610028637882,0.0000409396240160,0.0005788687692688,0.0000372948730190,0.9999998309219795,-0.0708737745339409,0.3122426262887678,0.0046684425669311,0.0018805343424901,0.0090315490961075,0.0019654412753880,-0.0017144266748801,0.0002639917656779,-0.0012922289315611,,0.0000000000000000,0.0000000000000000,
1559013415.2864308357238770,2.5322899818420410,,0.0080929413395119,-0.0053521061812114,-0.0027030865902319,-0.0001150203506011,0.0000181092207386,0.0000800435228938,0.9999999900177049,-0.0887263546968347,0.2479920536038026,0.0096489116769820,0.0066434930961706,-0.0016084055251295,-0.0047551079415078,-0.0003979208292098,-0.0006367305262530,-0.0007513784577173,,0.0036304880783306,0.0051519430538680,-0.0003610028637882,0.0000409396240160,0.0005788687692688,0.0000372948730190,0.9999998309219795,-0.0708737745339409,0.3122426262887678,0.0046684425669311,0.0018805343424901,0.0090315490961075,0.0019654412753880,-0.0017144266748801,0.0002639917656779,-0.0012922289315611,,0.0000000000000000,0.0000000000000000,
1559013415.3197507858276367,2.5656099319458008,,0.0082915953197822,-0.0054551704840787,-0.0028084708920604,-0.0001128858097229,0.0000282374860897,0.0000831263046974,0.9999999897747280,-0.0884801424229534,0.2491531522130597,0.0100005185582080,0.0054209084336954,-0.0024886639647880,-0.0028801700580829,0.0003918951203526,0.0004276790906372,-0.0002036315215392,,0.0024622045541892,0.0033692700341506,0.0010831382365003,0.0000311932746903,0.0005793344129262,0.0000361975982775,0.9999998310441615,-0.0719912381284506,0.3122958639970193,0.0045419871211058,-0.0010414639255032,0.0009290307061747,0.0048048202879727,0.0009482172317803,0.0003190914285369,-0.0010488524567336,,0.0000000000000000,0.0000000000000000,
1559013415.3530707359313965,2.5989298820495605,,0.0083687862039024,-0.0055358504282932,-0.0025095580978942,-0.0000972956131026,0.0000263916439520,0.0000815625926207,0.9999999915922942,-0.0866944273627008,0.2489412323687161,0.0098216789674779,0.0049848831131609,-0.0023704823897467,-0.0019068610237356,0.0006581971145463,0.0004286561474358,-0.0002010696539407,,-0.0009817813704339,-0.0000302048205232,-0.0113073154465510,0.0000366397794939,0.0005790403470259,0.0000539893675716,0.9999998302274612,-0.0713571827692653,0.3122647584925159,0.0065812067841531,-0.0103610353544354,-0.0106029035523534,-0.0180826224386692,0.0003542889317032,0.0002166567428503,-0.0017341335769743,,0.0000000000000000,0.0000000000000000,
1559013415.3863906860351562,2.6322498321533203,,0.0085428413931194,-0.0056329556080981,-0.0026292920647001,-0.0001007496339718,0.0000153718585836,0.0000849692690995,0.9999999911967203,-0.0870886427428255,0.2476790455681455,0.0102138403224859,0.0054030486138371,-0.0023279873808382,-0.0027688439219509,-0.0004070108616114,0.0004247478784059,-0.0002113171391083,,-0.0014185691403290,-0.0004501569395737,-0.0120030723032950,0.0000434684384757,0.0005856383472689,0.0000345169022151,0.9999998269733873,-0.0705855220237378,0.3130179456839972,0.0043492845201148,-0.0107360417023301,-0.0110346311703324,-0.0169592592865229,-0.0017026001587510,0.0004706384497695,-0.0002738574403338,,0.0000000000000000,0.0000000000000000,
1559013415.4197106361389160,2.6655697822570801,,0.0085966796801709,-0.0056062387074624,-0.0028397774454596,-0.0001069086821965,0.0000224318067574,0.0000831220159118,0.9999999905790392,-0.0877952672780455,0.2484878134366917,0.0100009948224320,0.0054349660834274,-0.0015679837439251,-0.0036344082230257,-0.0006682029793583,0.0004275231868277,-0.0007464734946490,,0.0003574812231935,0.0003619826310008,-0.0030307031033011,0.0000280967192277,0.0006463813474378,0.0000294119631035,0.9999997902683102,-0.0723496947302187,0.3199778806545092,0.0037542767039110,-0.0030758511275053,-0.0073704370297492,-0.0008689275127836,-0.0003743243869394,0.0005830600857735,-0.0002860996755771,,0.0000000000000000,0.0000000000000000,
1559013415.4530308246612549,2.6988899707794189,,0.0088136033070176,-0.0057017371873492,-0.0029800082090946,-0.0001063724269648,0.0000256449443490,0.0000789245667645,0.9999999908990782,-0.0877358654112745,0.2488553210404326,0.0095194752769607,0.0049547227402558,-0.0038926671880383,-0.0023646368410618,-0.0001483736943842,0.0004200964045480,0.0005901364528222,,0.0032467484218093,0.0019975254871323,0.0013584030478750,0.0000208630925172,0.0006477631435398,0.0000398047980743,0.9999997891915874,-0.0731727237161890,0.3201377922878259,0.0049444838312599,0.0078006898984313,-0.0011601021979004,0.0067432597279549,-0.0003846271429211,-0.0008461753022857,-0.0015661191428080,,0.0000000000000000,0.0000000000000000,
1559013415.4863507747650146,2.7322099208831787,,0.0088596918439379,-0.0053124261865073,-0.0026512192495814,-0.0001071525863687,0.0000218787033138,0.0000774576437376,0.9999999910199795,-0.0878260216561886,0.2484235094457838,0.0093519898701962,0.0060525335438528,-0.0018548337883095,-0.0038121552076925,-0.0006632278126257,-0.0009040153348316,-0.0007558070504837,,0.0032467484218093,0.0019975254871323,0.0013584030478750,0.0000208630925172,0.0006477631435398,0.0000398047980743,0.9999997891915874,-0.0731727237161890,0.3201377922878259,0.0049444838312599,0.0078006898984313,-0.0011601021979004,0.0067432597279549,-0.0003846271429211,-0.0008461753022857,-0.0015661191428080,,0.0000000000000000,0.0000000000000000,
