#Time(sec),Dtime(sec),,x(m),y(m),z(m),qx,qy,qz,qw,roll_x_G(deg),pitch_y_G(deg),yaw_z_G(deg),vx(m/s),vy(m/s),vz(m/s),wx(rad/s),wy(rad/s),wz(rad/s),,gt_x(m),gt_y(m),gt_z(m),gt_qx,gt_qy,gt_qz,gt_qw,gt_groll_x_G(deg),gt_pitch_y_G(deg),gt_yaw_z_G(deg),gt_vx(m/s),gt_vy(m/s),gt_vz(m/s),gt_wx(rad/s),gt_wy(rad/s),gt_wz(rad/s),,Sr,Sr_avg,
1559013412.7541408538818359,0.0000000000000000,,0.0000000000000002,0.0000000000000001,-0.0000000000000001,0.0000000000000000,-0.0000000000000001,0.0000000000000000,1.0000000000000000,-0.0755855138669150,0.2459037397968158,0.0004794994091153,0.0000000000000000,0.0000000000000000,0.0000000000000000,0.0000000000000000,0.0000000000000000,0.0000000000000000,,0.0000000000000000,0.0000000000000000,0.0000000000000000,0.0000000000000000,0.0000000000000000,0.0000000000000000,1.0000000000000000,-0.0755855138669150,0.2459037397968215,0.0004794994091152,-0.0098102642223239,-0.0059528849087656,-0.0021041124127805,0.0008114594966173,-0.0000641869410174,-0.0007574954070151,,0.0000000000000000,0.0000000000000000,
1559013412.7874608039855957,0.0333199501037598,,0.0000000000000002,0.0000000000000001,-0.0000000000000001,0.0000000000000000,-0.0000000000000001,0.0000000000000000,1.0000000000000000,-0.0755855138669150,0.2459037397968158,0.0004794994091153,0.0000000000000000,0.0000000000000000,0.0000000000000000,0.0000000000000000,0.0000000000000000,0.0000000000000000,,0.0000000000000000,0.0000000000000000,0.0000000000000000,0.0000000000000000,0.0000000000000000,0.0000000000000000,1.0000000000000000,-0.0755855138669150,0.2459037397968215,0.0004794994091152,-0.0098102642223239,-0.0059528849087656,-0.0021041124127805,0.0008114594966173,-0.0000641869410174,-0.0007574954070151,,0.0000000000000000,0.0000000000000000,
1559013412.8207807540893555,0.0666399002075195,,0.0000219726581638,-0.0000260111889973,-0.0000459141663904,-0.0000208610050351,-0.0000137221306289,-0.0000034844792411,0.9999999996821901,-0.0779777081630646,0.2443307657790641,0.0000823114382821,0.0005549145090711,-0.0009140744155948,-0.0007645881653806,-0.0006713226546122,-0.0001088443910840,-0.0002176123651700,,0.0000000000000000,0.0000000000000000,0.0000000000000000,0.0000000000000000,0.0000000000000000,0.0000000000000000,1.0000000000000000,-0.0755855138669150,0.2459037397968215,0.0004794994091152,-0.0098102642223239,-0.0059528849087656,-0.0021041124127805,0.0008114594966173,-0.0000641869410174,-0.0007574954070151,,0.0000000000000000,0.0000000000000000,
1559013412.8541007041931152,0.0999598503112793,,0.0000608926743231,-0.0000640802948601,-0.0001140602429562,-0.0000373096937066,-0.0000189844924195,-0.0000087132854731,0.9999999990858274,-0.0798651435414091,0.2437269247291102,-0.0005160265755550,0.0011061855532015,-0.0033799717536283,-0.0017536299372295,-0.0014824384616985,0.0004133351236126,0.0008436244272202,,0.0026245542083911,0.0026448552001494,-0.0084863851899029,-0.0000333937179824,0.0001718520074773,-0.0000101301488424,0.9999999846245635,-0.0794174526191618,0.2655949411350161,-0.0007079784706163,0.0011400097282603,-0.0002242026966996,-0.0186141021549702,-0.0007273238734342,-0.0001038627669914,-0.0002373664610786,,0.0000000000000000,0.0000000000000000,
1559013412.8874206542968750,0.1332798004150391,,0.0001262903034411,-0.0001468154741993,-0.0002142065874932,-0.0000378024141703,-0.0000235806923088,-0.0000050935236011,0.9999999989944923,-0.0799198270708824,0.2432008019201591,-0.0001005132246582,0.0021184657892204,-0.0024107857097970,-0.0026184181863062,0.0001285783637746,-0.0003722209284548,-0.0002117934720251,,0.0026245542083911,0.0026448552001494,-0.0084863851899029,-0.0000333937179824,0.0001718520074773,-0.0000101301488424,0.9999999846245635,-0.0794174526191618,0.2655949411350161,-0.0007079784706163,0.0011400097282603,-0.0002242026966996,-0.0186141021549702,-0.0007273238734342,-0.0001038627669914,-0.0002373664610786,,0.0000000000000000,0.0000000000000000,
1559013412.9207408428192139,0.1665999889373779,,0.0001876071963411,-0.0002485065635448,-0.0002723575101359,-0.0000332340376668,-0.0000278667317498,-0.0000049033733097,0.9999999990474505,-0.0793962315090670,0.2427096905476230,-0.0000780715043153,0.0016332172232536,-0.0030002443095807,-0.0000183282768429,0.0009260591413560,0.0006978172556181,-0.0004629382745979,,0.0013044971720459,0.0006642558835833,-0.0097306379038952,-0.0000438730574526,0.0002087906767953,-0.0000009822662857,0.9999999772403214,-0.0806136494002281,0.2698292134783979,0.0003343256994272,-0.0023964915890247,-0.0079505480825901,-0.0198433436453342,0.0003404117596801,-0.0015395777300000,-0.0001423610374331,,0.0000000000000000,0.0000000000000000,
1559013412.9540607929229736,0.1999199390411377,,0.0002510355284044,-0.0003552317527220,-0.0002739830334416,-0.0000129934686530,-0.0000142844809747,-0.0000089746469803,0.9999999997732896,-0.0770788454877928,0.2442654901962383,-0.0005467471256826,0.0015572095440772,-0.0016274100853720,0.0003069651755764,0.0011929260021615,0.0012332859105604,-0.0007229402316692,,0.0013044971720459,0.0006642558835833,-0.0097306379038952,-0.0000438730574526,0.0002087906767953,-0.0000009822662857,0.9999999772403214,-0.0806136494002281,0.2698292134783979,0.0003343256994272,-0.0023964915890247,-0.0079505480825901,-0.0198433436453342,0.0003404117596801,-0.0015395777300000,-0.0001423610374331,,0.0000000000000000,0.0000000000000000,
1559013412.9873807430267334,0.2332398891448975,,0.0003049992330981,-0.0004089312959995,-0.0003164140705479,-0.0000144173017045,-0.0000098617901226,-0.0000141313640163,0.9999999997475956,-0.0772445424394733,0.2447715032002950,-0.0011383418386656,0.0011389741805766,-0.0019570558982999,-0.0014499054642399,-0.0004121206084769,0.0004209957160276,0.0003212774096721,,0.0018767528659337,-0.0015868478416372,-0.0062711862608355,-0.0000291626588616,0.0002160709066437,-0.0000033503031968,0.9999999762258388,-0.0789291896576434,0.2706631018623400,0.0000621929295683,-0.0001832428679336,-0.0139995729550719,-0.0103720519691706,-0.0000324573375110,0.0006396181997843,0.0005033669876866,,0.0000000000000000,0.0000000000000000,
1559013413.0207006931304932,0.2665598392486572,,0.0003431363790865,-0.0004716913804853,-0.0004165912864769,-0.0000362799963632,-0.0000178833168929,-0.0000100745123364,0.9999999991312265,-0.0797478174257171,0.2438528996089663,-0.0006721862495950,0.0008971832518353,-0.0020463925252434,-0.0023451758404527,-0.0009427345252527,-0.0001135738131031,0.0003124202551737,,0.0003195640245647,0.0012565451760955,0.0004369553676586,-0.0000203842576571,0.0002228644697758,0.0000059252942832,0.9999999749404003,-0.0779184667913354,0.2714430136939749,0.0011242835076430,-0.0063411630690098,-0.0023399125784636,0.0026414536405355,0.0006563157658093,0.0000575598314754,0.0000708336956450,,0.0000000000000000,0.0000000000000000,
1559013413.0540206432342529,0.2998797893524170,,0.0003903418709308,-0.0005530731092706,-0.0004847153840386,-0.0000454537236579,-0.0000198192877273,-0.0000091906053814,0.9999999987283439,-0.0807986128321173,0.2436311815676687,-0.0005705755700852,0.0017486898863368,-0.0027608805572256,-0.0017974615562203,0.0003923254197449,-0.0003731200542663,0.0000570656395446,,0.0001864124072654,0.0012166738894161,0.0004830618136631,-0.0000185716344986,0.0002542559187380,0.0000077107003256,0.9999999674747831,-0.0777098268087173,0.2750404781751465,0.0013241122817303,-0.0062631070613861,-0.0018153276760131,0.0017081610858440,-0.0014693180564791,-0.0002084249572363,0.0000913238181965,,0.0000000000000000,0.0000000000000000,
1559013413.0873408317565918,0.3331999778747559,,0.0004235805217483,-0.0005969591863206,-0.0004865765686916,-0.0000408711557790,-0.0000194033401040,-0.0000116517711634,0.9999999989086478,-0.0802746949378678,0.2436784668134418,-0.0008526819296698,0.0017243123554987,-0.0031884382962492,-0.0011787547710033,0.0001260234255512,-0.0003740971110650,0.0000545037719461,,-0.0012296630497877,0.0025351477552150,0.0010995718084875,-0.0000417926695341,0.0002369557506546,0.0000081066828663,0.9999999710198130,-0.0803705614379537,0.2730581080783792,0.0013715104470487,-0.0104640517383814,0.0027693663723767,0.0022680787369609,-0.0004222550487611,-0.0009954593842849,-0.0014647236093879,,0.0000000000000000,0.0000000000000000,
1559013413.1206507682800293,0.3665099143981934,,0.0004876499556543,-0.0007135064649670,-0.0005479705087831,-0.0000410329520148,-0.0000277650693321,-0.0000041846089770,0.9999999987639435,-0.0802895700743010,0.2427214478826163,0.0000043025472827,0.0027634225644386,-0.0047815110682504,-0.0033741182555889,0.0001177937451057,-0.0009142172565883,0.0011159593237942,,-0.0012296630497877,0.0025351477552150,0.0010995718084875,-0.0000417926695341,0.0002369557506546,0.0000081066828663,0.9999999710198130,-0.0803705614379537,0.2730581080783792,0.0013715104470487,-0.0104640517383814,0.0027693663723767,0.0022680787369609,-0.0004222550487611,-0.0009954593842849,-0.0014647236093879,,0.0000000000000000,0.0000000000000000,
1559013413.1539707183837891,0.3998298645019531,,0.0005992486235675,-0.0008562171516205,-0.0007333343242589,-0.0000265381135399,-0.0000211865986119,-0.0000015463263021,0.9999999994222327,-0.0786273004630080,0.2434756981664455,0.0003055692857674,0.0026078956092759,-0.0025288830450301,-0.0020233304476022,0.0006597571479988,0.0006968401992704,-0.0004655001469314,,0.0030802988584500,0.0012210024314830,-0.0004229099459523,-0.0000380366311522,0.0002537059910602,0.0000099031762481,0.9999999670442055,-0.0799392118169074,0.2749778185721677,0.0015748725432740,0.0080886157229543,-0.0046372590586543,0.0003316676011309,0.0006035095429979,0.0012304764240980,0.0005028592422605,,0.0000000000000000,0.0000000000000000,
1559013413.1872906684875488,0.4331498146057129,,0.0006705498679558,-0.0009369791186954,-0.0007892456618240,-0.0000239243110200,-0.0000153890658458,-0.0000099972075129,0.9999999995454298,-0.0783319269185047,0.2441387455960678,-0.0006637369610347,0.0014396130392781,-0.0019539338523504,0.0001409835588296,0.0001302729644687,0.0012312538768848,-0.0009994849525951,,0.0032453695944055,0.0011196545295340,-0.0004223351860165,-0.0000312984294318,0.0002538822486879,0.0000161588989184,0.9999999671515505,-0.0791638111367561,0.2749989768490645,0.0022919017707144,0.0086654815822840,-0.0050508026033640,-0.0003003584279213,0.0014034562045708,-0.0017996052047238,-0.0003075636050198,,0.0000000000000000,0.0000000000000000,
1559013413.2206108570098877,0.4664700031280518,,0.0007282138575253,-0.0008889161461142,-0.0007317909099426,-0.0000182413040701,-0.0000186755323931,-0.0000192788488628,0.9999999994734028,-0.0776852413246065,0.2437607284551872,-0.0017268496937342,0.0022545667052726,-0.0001493149687741,-0.0023624046179790,0.0012059961659131,-0.0008934233754439,-0.0012704684033774,,0.0032453695944055,0.0011196545295340,-0.0004223351860165,-0.0000312984294318,0.0002538822486879,0.0000161588989184,0.9999999671515505,-0.0791638111367561,0.2749989768490645,0.0022919017707144,0.0086654815822840,-0.0050508026033640,-0.0003003584279213,0.0014034562045708,-0.0017996052047238,-0.0003075636050198,,0.0000000000000000,0.0000000000000000,
1559013413.2539308071136475,0.4997899532318115,,0.0008169975739893,-0.0010122407781648,-0.0008238005894019,-0.0000074805896168,-0.0000191323455686,-0.0000098932174834,0.9999999997400592,-0.0764475577442757,0.2437098323238263,-0.0006512803815818,0.0023066113247803,-0.0030408928327529,-0.0029499090386173,-0.0001473785159837,0.0001537888844342,0.0005882698131941,,-0.0003187015053108,0.0000959066590073,-0.0209231593457670,-0.0000160718343075,0.0002776230263452,0.0000108136414350,0.9999999612751075,-0.0774217422934056,0.2777186218234659,0.0016761845038021,-0.0058840299025178,-0.0058508231304586,-0.0372426919639111,0.0013397382572293,0.0005982400616631,-0.0003023762255907,,0.0000000000000000,0.0000000000000000,
1559013413.2872507572174072,0.5331099033355713,,0.0008926503744004,-0.0010948729056887,-0.0009066868536158,-0.0000056884445645,-0.0000201550407915,0.0000003032463860,0.9999999997806621,-0.0762372000875092,0.2435941903169082,0.0005173091918135,0.0028393120379975,-0.0024774956399181,-0.0030084007277171,0.0006566373430442,0.0001604724200506,0.0000633609280475,,-0.0005509754171336,-0.0001456836824130,-0.0224293881837500,-0.0000085451778506,0.0002747311364235,0.0000002491187608,0.9999999622248595,-0.0765647796794137,0.2773856195816288,0.0004662457421669,-0.0052228411659598,-0.0065887318924069,-0.0385861136019230,-0.0007309849024750,-0.0003088524681516,-0.0003365832380950,,0.0000000000000000,0.0000000000000000,
1559013413.3205707073211670,0.5664298534393311,,0.0009942661294056,-0.0012121408604285,-0.0010008233190558,-0.0000014850061033,-0.0000206999312624,0.0000006540773844,0.9999999997844401,-0.0757553495206655,0.2435318034588702,0.0005575845477425,0.0028818712626437,-0.0036764577075368,-0.0020661458463948,0.0001275833293920,-0.0001059132195770,-0.0002099267708692,,-0.0005509754171336,-0.0001456836824130,-0.0224293881837500,-0.0000085451778506,0.0002747311364235,0.0000002491187608,0.9999999622248595,-0.0765647796794137,0.2773856195816288,0.0004662457421669,-0.0052228411659598,-0.0065887318924069,-0.0385861136019230,-0.0007309849024750,-0.0003088524681516,-0.0003365832380950,,0.0000000000000000,0.0000000000000000,
1559013413.3538906574249268,0.5997498035430908,,0.0010982879828210,-0.0014200122180236,-0.0010359260536807,0.0000043933998658,-0.0000162812177805,0.0000009096635170,0.9999999998573963,-0.0750816111539925,0.2440381883374238,0.0005861930983806,0.0023081715002255,-0.0042657484565599,-0.0012313825694769,0.0006530873697211,0.0004249039443332,0.0003315248715714,,0.0032448892448287,0.0011686060850249,-0.0088127838804373,-0.0000146503900680,0.0003385993683422,0.0000034395524150,0.9999999425620001,-0.0772627395804454,0.2847048612551494,0.0008218920959599,0.0091201923787594,-0.0014337738975883,-0.0116917202249169,0.0016286274185404,-0.0022791337687522,0.0006528442027047,,0.0000000000000000,0.0000000000000000,
1559013413.3872108459472656,0.6330699920654297,,0.0011828170171901,-0.0015657765563050,-0.0011051226958511,0.0000078473773707,-0.0000121963189267,0.0000079799404963,0.9999999998629945,-0.0746823493444206,0.2445073449264610,0.0013957735504899,0.0025624047834822,-0.0044236488793171,-0.0033215326958173,-0.0001479433812612,-0.0003807027097335,0.0008508336234097,,0.0034269625326508,0.0011286720590091,-0.0090409392735334,-0.0000107213567495,0.0003332832900764,0.0000064883889218,0.9999999443825994,-0.0768108869699027,0.2840961473448347,0.0011722296041699,0.0091384267434478,-0.0020928373560309,-0.0114530222490430,0.0010196233633906,0.0007099295035005,-0.0002983235754073,,0.0000000000000000,0.0000000000000000,
1559013413.4205307960510254,0.6663899421691895,,0.0012622611093687,-0.0016660305818092,-0.0011308724421597,-0.0000012825902872,-0.0000167954155049,0.0000061572252896,0.9999999998391789,-0.0757294606822273,0.2439800603075409,0.0011876127070561,0.0025357749594062,-0.0042107841002326,-0.0041802321042948,-0.0001469483454555,-0.0006470104175002,0.0008489669137591,,0.0040371625405149,0.0010407715328566,-0.0011724512895224,0.0000182179897012,0.0003403120708404,-0.0000080441169780,0.9999999418955441,-0.0735023907927335,0.2848993990187070,-0.0004930345491329,0.0076945354230702,-0.0024773650802672,0.0028743059374392,0.0014570327475667,-0.0012100221356377,0.0000713423796697,,0.0000000000000000,0.0000000000000000,
1559013413.4538507461547852,0.6997098922729492,,0.0013457456979546,-0.0017626305698811,-0.0012522010773841,-0.0000100271413369,-0.0000277925534921,0.0000034954892201,0.9999999995574061,-0.0767328135885705,0.2427194830028540,0.0008842896085156,0.0031082411837027,-0.0022315153469677,-0.0040973723511817,0.0001356783143215,-0.0009010839795873,-0.0007481214006044,,0.0028244609372718,-0.0020864745447010,-0.0040981470072898,0.0000272535559166,0.0003338402301539,-0.0000050454464155,0.9999999438912424,-0.0724653892738492,0.2841582340357628,-0.0001480977271716,0.0034915832802653,-0.0125113883987069,-0.0027146551292390,0.0007540810620412,0.0003361692652106,-0.0002933166106232,,0.0000000000000000,0.0000000000000000,
1559013413.4871706962585449,0.7330298423767090,,0.0014510713225098,-0.0017451104148068,-0.0013575197813879,0.0000029372573993,-0.0000222057457441,-0.0000060440303758,0.9999999997308735,-0.0752518717908771,0.2433582393113873,-0.0002097516811544,0.0034316836705323,-0.0046340315619462,-0.0026998824746641,0.0001189234799814,0.0001547659384284,0.0005908316578539,,0.0009705727291415,0.0016289898501757,-0.0079331041607371,0.0000413433631328,0.0003589990839138,-0.0000095545487231,0.9999999346595452,-0.0708532497001342,0.2870405726501778,-0.0006679541082759,-0.0035913039464504,0.0022433528210968,-0.0086488155648112,-0.0000468759790238,-0.0001395221770508,-0.0007117160712369,,0.0000000000000000,0.0000000000000000,
1559013413.5204906463623047,0.7663497924804688,,0.0015791018393321,-0.0019000643946552,-0.0014617863116823,0.0000037036382639,-0.0000214920665511,0.0000036416956221,0.9999999997555562,-0.0751593122932360,0.2434414814814293,0.0009000502783058,0.0038164714635666,-0.0054506527640958,-0.0033777522614559,0.0003785556952252,-0.0001161932511660,0.0013904185548920,,0.0009049911250469,0.0016716632260573,-0.0081049924384131,0.0000501230371511,0.0003626649995588,-0.0000170555534951,0.9999999328354414,-0.0698511788821507,0.2874595744438982,-0.0015276880078354,-0.0032216487452388,0.0018814789364114,-0.0086492393165827,0.0019662324339151,0.0004521511436906,-0.0012100221356377,,0.0000000000000000,0.0000000000000000,
1559013413.5538108348846436,0.7996699810028076,,0.0016799713352611,-0.0020651450716624,-0.0015646128734231,0.0000041225368273,-0.0000292370911812,0.0000197867339897,0.9999999993683413,-0.0751034220834287,0.2425564004736444,0.0027513164889607,0.0034990309692879,-0.0056111495704854,-0.0038648080402224,0.0006458527252247,-0.0003815239021341,0.0013911137128398,,0.0008416231557927,0.0017042349993819,-0.0082787919112038,0.0000540832522323,0.0003709936414145,-0.0000274513881228,0.9999999293425681,-0.0694029478739007,0.2884124663842267,-0.0027200200000634,-0.0031365249305964,0.0013117705238983,-0.0091546773910522,-0.0008535996312276,-0.0001344025076833,-0.0015033677918836,,0.0000000000000000,0.0000000000000000,
1559013413.5871307849884033,0.8329899311065674,,0.0017901977641590,-0.0022072361712871,-0.0016670835149779,0.0000116321820231,-0.0000291246379523,0.0000235139737574,0.9999999992317705,-0.0742410593774547,0.2425698279962082,0.0031783881820470,0.0025142228541488,-0.0034507901195875,-0.0014070234522317,0.0011872512626017,0.0006950419600710,0.0000722180543343,,0.0008416231557927,0.0017042349993819,-0.0082787919112038,0.0000540832522323,0.0003709936414145,-0.0000274513881228,0.9999999293425681,-0.0694029478739007,0.2884124663842267,-0.0027200200000634,-0.0031365249305964,0.0013117705238983,-0.0091546773910522,-0.0008535996312276,-0.0001344025076833,-0.0015033677918836,,0.0000000000000000,0.0000000000000000,
1559013413.6204507350921631,0.8663098812103271,,0.0018288335860728,-0.0021760369235616,-0.0016549398492557,0.0000124716399515,-0.0000297110545655,0.0000258382901066,0.9999999991470471,-0.0741437305792890,0.2425029753851233,0.0034448223741997,0.0029254025409924,-0.0034069514198334,-0.0023017149087815,0.0001240333574384,0.0001585183173431,0.0000582371646389,,0.0030406504889629,0.0022882742342330,-0.0062925504181727,0.0000611729674452,0.0003626874159403,-0.0000190422897520,0.9999999321765465,-0.0685860076404653,0.2874618788989146,-0.0017548979202029,0.0040563573129475,0.0002654088311829,-0.0037910772953182,0.0001189401809825,-0.0001427652314305,-0.0001788293011487,,0.0000000000000000,0.0000000000000000,
1559013413.6537706851959229,0.8996298313140869,,0.0019296424856468,-0.0022813472195151,-0.0017497768100901,0.0000123439636295,-0.0000333564265324,0.0000279906792032,0.9999999989757486,-0.0741573193346479,0.2420855695406850,0.0036920162527628,0.0032892341992256,-0.0041748576328946,-0.0029034680245981,-0.0004136805087265,0.0001528118255864,0.0005857079184504,,0.0036291435458029,0.0025966150466021,-0.0043469637549630,0.0000571760738891,0.0003901364780748,-0.0000200743580797,0.9999999220607196,-0.0690446522828446,0.2906071492304136,-0.0018773020674637,0.0051087369211018,0.0014169181231409,0.0000617773694103,-0.0004234086372890,-0.0003483407199383,-0.0010793746914715,,0.0000000000000000,0.0000000000000000,
1559013413.6870906352996826,0.9329497814178467,,0.0020084120309889,-0.0021733550125965,-0.0018742829821388,0.0000004454730970,-0.0000293060894768,0.0000322385088199,0.9999999990508166,-0.0755187004199929,0.2425503836052548,0.0041782190585181,0.0030557454528580,-0.0043635962406825,-0.0028526327640891,-0.0012110265888900,0.0004180645455673,0.0003135917813344,,0.0029954825554080,0.0032025419981495,0.0006789376870445,0.0000544467831987,0.0004025603575399,-0.0000166703444748,0.9999999173513996,-0.0693556131155782,0.2920313069036726,-0.0014891490537248,0.0025517339818180,0.0034124318044633,0.0093907183036208,0.0006610900745727,-0.0005176760023460,0.0005640679155476,,0.0000000000000000,0.0000000000000000,
1559013413.7204108238220215,0.9662699699401855,,0.0020888893350610,-0.0022740261854647,-0.0019504271951398,-0.0000086926494721,-0.0000273561932721,0.0000328662801961,0.9999999990479421,-0.0765655392714775,0.2427739543596100,0.0042498909337300,0.0038314105988085,-0.0050144129086846,-0.0045143172385867,-0.0004097003673221,-0.0009124190018887,0.0005782410886133,,0.0029954825554080,0.0032025419981495,0.0006789376870445,0.0000544467831987,0.0004025603575399,-0.0000166703444748,0.9999999173513996,-0.0693556131155782,0.2920313069036726,-0.0014891490537248,0.0025517339818180,0.0034124318044633,0.0093907183036208,0.0006610900745727,-0.0005176760023460,0.0005640679155476,,0.0000000000000000,0.0000000000000000,
1559013413.7537307739257812,0.9995899200439453,,0.0021633891772754,-0.0023531656854804,-0.0020128594210558,-0.0000038575249402,-0.0000286000494127,0.0000372260452739,0.9999999988906892,-0.0760093488300582,0.2426320616870791,0.0047496606671388,0.0036072782353539,-0.0048347907213568,-0.0027212421755143,0.0001189234778421,0.0001547659427753,0.0005908316624130,,0.0029821578802633,0.0023954715740928,-0.0033581745908973,0.0000636555501370,0.0004000566115030,-0.0000217090852176,0.9999999177156937,-0.0683030665391002,0.2917436920126553,-0.0020657681279611,0.0022860211320221,-0.0006600108463317,0.0015310561284423,-0.0004109627625439,-0.0006739070522599,-0.0001190709881485,,0.0000000000000000,0.0000000000000000,
1559013413.7870507240295410,1.0329098701477051,,0.0022546222876290,-0.0024575455391184,-0.0020883793920019,0.0000003391210302,-0.0000279657954691,0.0000419838833092,0.9999999987275765,-0.0755261216226573,0.2427054427291813,0.0052947635988156,0.0034219555414280,-0.0027509846984117,-0.0025153420407787,0.0001281481948617,0.0004285783765306,-0.0004724906064646,,0.0029821578802633,0.0023954715740928,-0.0033581745908973,0.0000636555501370,0.0004000566115030,-0.0000217090852176,0.9999999177156937,-0.0683030665391002,0.2917436920126553,-0.0020657681279611,0.0022860211320221,-0.0006600108463317,0.0015310561284423,-0.0004109627625439,-0.0006739070522599,-0.0001190709881485,,0.0000000000000000,0.0000000000000000,
1559013413.8203706741333008,1.0662298202514648,,0.0023493573976492,-0.0024968665212605,-0.0021827097133136,-0.0000041873052105,-0.0000285717748446,0.0000462585252327,0.9999999985131346,-0.0760427259536161,0.2426366725322558,0.0057847117952075,0.0038003409035109,-0.0040987252830022,-0.0039784364681031,-0.0004126854748077,-0.0001134958830410,0.0005838412149214,,0.0028483643782737,0.0054159764026453,-0.0048358352553247,0.0000756474026680,0.0004063720092715,-0.0000323465478623,0.9999999140464770,-0.0669346459473181,0.2924658971404100,-0.0032850968095539,0.0015071481466293,0.0085062691941857,-0.0014686621725559,-0.0004123515100218,-0.0004598114755936,-0.0001185764558613,,0.0000000000000000,0.0000000000000000,
1559013413.8536908626556396,1.0995500087738037,,0.0023493573976492,-0.0024968665212605,-0.0021827097133136,-0.0000041873052105,-0.0000285717748446,0.0000462585252327,0.9999999985131346,-0.0760427259536161,0.2426366725322558,0.0057847117952075,0.0038003409035109,-0.0040987252830022,-0.0039784364681031,-0.0004126854748077,-0.0001134958830410,0.0005838412149214,,0.0052727955121410,0.0028594060605301,-0.0016091656637851,0.0000741511501028,0.0004075664680992,-0.0000336539987448,0.9999999136292910,-0.0671068135670647,0.2926025797277269,-0.0034351616037410,0.0104847270995378,-0.0010913329897448,0.0042982785962522,0.0000560693915759,0.0001306207850575,-0.0007089182618074,,0.0000000000000000,0.0000000000000000,
1559013413.8870108127593994,1.1328699588775635,,0.0024630616973722,-0.0025832624284914,-0.0023102604661249,-0.0000056233730539,-0.0000328716910545,0.0000457197767815,0.9999999983987659,-0.0762075701589301,0.2421438647151264,0.0057236325703100,0.0038392922679207,-0.0010338978194400,-0.0045327667171268,0.0006698422020285,-0.0006309459763503,-0.0010074281999120,,0.0052727955121410,0.0028594060605301,-0.0016091656637851,0.0000741511501028,0.0004075664680992,-0.0000336539987448,0.9999999136292910,-0.0671068135670647,0.2926025797277269,-0.0034351616037410,0.0104847270995378,-0.0010913329897448,0.0042982785962522,0.0000560693915759,0.0001306207850575,-0.0007089182618074,,0.0000000000000000,0.0000000000000000,
1559013413.9203307628631592,1.1661899089813232,,0.0025874971932680,-0.0026713514263245,-0.0024344815539941,-0.0000120069276460,-0.0000380693305631,0.0000365768928556,0.9999999985343454,-0.0769435522047311,0.2415468987547439,0.0046767435256765,0.0039435941323478,-0.0021298957042692,-0.0044042758350571,0.0004004204029995,-0.0011682908139028,-0.0004811289988701,,0.0054303640759792,0.0028405871846140,-0.0015512931906976,0.0000727297327581,0.0004122941432348,-0.0000389757507913,0.9999999116024042,-0.0672725866643876,0.2931435651078277,-0.0040457387794924,0.0105438055470586,-0.0008907766314223,0.0042810388840735,0.0001138636871474,-0.0001375615538564,-0.0004429370164871,,0.0000000000000000,0.0000000000000000,
1559013413.9536507129669189,1.1995098590850830,,0.0027815980345240,-0.0024692546823562,-0.0026779070289000,-0.0000323214030716,-0.0000407446335151,0.0000394044792604,0.9999999978712445,-0.0792700512413269,0.2412408549797599,0.0050012663886776,0.0034185655293186,-0.0032568220566717,-0.0025672444427399,0.0011785914080174,0.0009557211055755,0.0008729765009864,,0.0042457708010142,0.0032688893773403,-0.0056604679087909,0.0000648888487885,0.0004357793942480,-0.0000388127972930,0.9999999021896570,-0.0681711214985140,0.2958347627029305,-0.0040308126094763,0.0040785656310618,0.0004996526986361,-0.0031115380115807,-0.0004219063557684,-0.0014084292342886,-0.0011841928353533,,0.0000000000000000,0.0000000000000000,
1559013413.9869606494903564,1.2328197956085205,,0.0029623148450439,-0.0026577172701791,-0.0028686597827225,-0.0000323796874273,-0.0000297753483893,0.0000530596410125,0.9999999976248295,-0.0792700184271862,0.2424999558909914,0.0065643469889029,0.0032173231853145,-0.0039043596708276,-0.0047012986440885,-0.0004122553128898,-0.0009142951829972,0.0008445383510828,,0.0016163225134831,0.0018428269025782,0.0076378858718637,0.0000685984619212,0.0004543867289951,-0.0000311516418720,0.9999998939282577,-0.0677419600665057,0.2979681196768502,-0.0031553800325751,-0.0052592363208532,-0.0075239953584969,0.0202106647193432,0.0005249262321740,0.0007250083726831,-0.0012422207510099,,0.0000000000000000,0.0000000000000000,
1559013414.0202808380126953,1.2661399841308594,,0.0029353942290147,-0.0030384101134218,-0.0019231557713801,-0.0000297442096655,-0.0000317090193575,0.0000546509178355,0.9999999975615488,-0.0789672486033378,0.2422786035800561,0.0067469851833173,0.0026405696091928,-0.0034101134694094,-0.0029597583773337,0.0001209135421095,-0.0003778494712564,0.0005870982616101,,0.0016163225134831,0.0018428269025782,0.0076378858718637,0.0000685984619212,0.0004543867289951,-0.0000311516418720,0.9999998939282577,-0.0677419600665057,0.2979681196768502,-0.0031553800325751,-0.0052592363208532,-0.0075239953584969,0.0202106647193432,0.0005249262321740,0.0007250083726831,-0.0012422207510099,,0.0000000000000000,0.0000000000000000,
1559013414.0536007881164551,1.2994599342346191,,0.0030989216510418,-0.0031683296525382,-0.0020873838710864,-0.0000303133821565,-0.0000320292371254,0.0000561878296213,0.9999999974490773,-0.0790317225000793,0.2422421505191190,0.0069231552816585,0.0043022989740632,-0.0026871107948376,-0.0050527324494585,0.0001254585637162,-0.0009085887715518,0.0003170675589765,,-0.0001918267742289,0.0014583252582462,-0.0051793105503548,0.0000672918954053,0.0004469704203664,-0.0000485581158316,0.9999998966656715,-0.0679011019789145,0.2971157712807340,-0.0051490438799222,-0.0097791878506541,-0.0069832173176110,-0.0047325701452792,0.0013753385283053,0.0003016986011062,-0.0014640276785940,,0.0000000000000000,0.0000000000000000,
1559013414.0869207382202148,1.3327798843383789,,0.0031799299712330,-0.0028507728286373,-0.0021248679541054,-0.0000268216856701,-0.0000305775086806,0.0000585557990752,0.9999999974584158,-0.0786304388749698,0.2424088488081056,0.0071942701473018,0.0040431797315459,-0.0019318443836058,-0.0030186066222407,-0.0001387186614480,-0.0001068903398299,-0.0002124886676122,,-0.0003862388438266,0.0013193463922199,-0.0052756966752279,0.0000762091679498,0.0004512275026457,-0.0000531757478453,0.9999998938791161,-0.0668817920699509,0.2976029888637595,-0.0056783421457382,-0.0093114748597145,-0.0073452508077025,-0.0049650780856609,0.0013335975818336,0.0000820299610496,-0.0005578060518019,,0.0000000000000000,0.0000000000000000,
1559013414.1202406883239746,1.3660998344421387,,0.0032986482573940,-0.0029272019372143,-0.0022079874498153,-0.0000329348216742,-0.0000355612839892,0.0000579689625837,0.9999999971451461,-0.0793312689794024,0.2418377009021322,0.0071278164001737,0.0038687329765434,-0.0017976816797531,-0.0032244069385147,-0.0006632276747852,-0.0009040152043089,-0.0007558070140123,,-0.0005695107067441,0.0011753494670631,-0.0053720416089590,0.0000732402329876,0.0004666305450950,-0.0000575712412892,0.9999998867886710,-0.0672245097017332,0.2993674002054934,-0.0061843887103450,-0.0087402760982513,-0.0075568733736873,-0.0051086759194732,-0.0005755241727456,0.0005565957981162,0.0000478677466162,,0.0000000000000000,0.0000000000000000,
1559013414.1535606384277344,1.3994197845458984,,0.0034804095729566,-0.0032182239734790,-0.0022279657856107,-0.0000333233446649,-0.0000280190844066,0.0000469674788808,0.9999999979492707,-0.0793811207598375,0.2427002705540917,0.0058659621045943,0.0033132244318958,-0.0028748849761938,-0.0023050420065230,-0.0004060157002614,0.0001584403183361,-0.0002131838198688,,0.0054194410451250,0.0039221283223847,-0.0059444888312575,0.0000707223501789,0.0004701856227759,-0.0000471678987493,0.9999998858495028,-0.0675073877342590,0.2997762539914523,-0.0049928816865142,0.0113711925223470,0.0025506995152682,-0.0051999506540596,-0.0004708282649517,0.0001321081072092,-0.0002189685619669,,0.0000000000000000,0.0000000000000000,
1559013414.1868808269500732,1.4327399730682373,,0.0035787280151847,-0.0032953482097626,-0.0023139043511946,-0.0000314308910784,-0.0000236029428338,0.0000445165747625,0.9999999982366374,-0.0791654394922664,0.2432059332235846,0.0055844175418377,0.0030886016990399,-0.0019889512892602,-0.0026995956863566,-0.0006691978847290,0.0006938310449591,-0.0007446067584589,,0.0017337937437958,0.0027914976925686,-0.0073980466569868,0.0000657147087486,0.0004684735527028,-0.0000318904734004,0.9999998875985463,-0.0680728783992629,0.2995822330364225,-0.0032422190918197,-0.0032952094916254,-0.0025957324542105,-0.0077453418634832,-0.0003198916092515,-0.0001808123633964,-0.0010700231650844,,0.0000000000000000,0.0000000000000000,
1559013414.2202007770538330,1.4660599231719971,,0.0036614413710649,-0.0031289238838035,-0.0023757568913494,-0.0000346643330863,-0.0000202093987084,0.0000508491153915,0.9999999979021659,-0.0795328497060766,0.2435958030396279,0.0063095615202036,0.0028593511702580,-0.0024659404234918,-0.0038469051323678,-0.0004055855261766,-0.0006423589849064,0.0000475132927996,,0.0002987987401741,0.0013703470549558,-0.0050418977993937,0.0000542421005806,0.0004873639966526,-0.0000263471795140,0.9999998794199705,-0.0693845930889136,0.3017476779729769,-0.0026103510301210,-0.0070480327121913,-0.0073105720803142,-0.0040192874148488,-0.0008900916436687,-0.0017317757010460,-0.0002116747200489,,0.0000000000000000,0.0000000000000000,
1559013414.2535207271575928,1.4993798732757568,,0.0037411628290804,-0.0032135882692161,-0.0024642829262609,-0.0000474993024176,-0.0000265918940906,0.0000555257518109,0.9999999969767892,-0.0810013758314981,0.2428652306375091,0.0068464977957078,0.0027342668604265,-0.0033217188822436,-0.0021935797013976,-0.0009478444083213,-0.0001173262340109,0.0008450147216942,,0.0002987987401741,0.0013703470549558,-0.0050418977993937,0.0000542421005806,0.0004873639966526,-0.0000263471795140,0.9999998794199705,-0.0693845930889136,0.3017476779729769,-0.0026103510301210,-0.0070480327121913,-0.0073105720803142,-0.0040192874148488,-0.0008900916436687,-0.0017317757010460,-0.0002116747200489,,0.0000000000000000,0.0000000000000000,
1559013414.2868406772613525,1.5326998233795166,,0.0038305260214111,-0.0032657583005742,-0.0024209495054177,-0.0000617213805856,-0.0000236304351544,0.0000609279683214,0.9999999959599283,-0.0826284465683416,0.2432055336197949,0.0074651259334404,0.0032554669153650,-0.0016154925266759,-0.0029302199455120,-0.0006774275734866,0.0001537108957749,0.0003168488110011,,0.0001515348646201,0.0012294817827928,-0.0051123345942179,0.0000495634790215,0.0004787440758719,-0.0000295359639095,0.9999998837375924,-0.0699224355375030,0.3007594300014954,-0.0029747703706644,-0.0074289659969509,-0.0072463871911168,-0.0031776153482497,0.0000637078628642,-0.0005068728933111,-0.0000599529594183,,0.0000000000000000,0.0000000000000000,
1559013414.3201606273651123,1.5660197734832764,,0.0039452239731126,-0.0033003471771185,-0.0025849243056012,-0.0000715537105464,-0.0000295888359228,0.0000631115501424,0.9999999950107498,-0.0837541195075876,0.2425231683973270,0.0077163237557112,0.0030337909658378,-0.0014743730400500,-0.0056251844847685,-0.0006779924391624,-0.0003807807082787,0.0005794126313767,,0.0000028817418052,0.0010918397830906,-0.0051684678384338,0.0000500533688933,0.0004737014950638,-0.0000311960040012,0.9999998860641751,-0.0698671837824446,0.3001813534159015,-0.0031642389618452,-0.0071128201670945,-0.0069704242050648,-0.0023966880980879,-0.0008921859553084,0.0000764483556850,0.0002165858604712,,0.0000000000000000,0.0000000000000000,
1559013414.3534808158874512,1.5993399620056152,,0.0040191070017068,-0.0032959759403476,-0.0026960227052277,-0.0000910757947645,-0.0000299534123637,0.0000644376496566,0.9999999933278910,-0.0859905400200954,0.2424817465580545,0.0078684096680192,0.0023174357296582,-0.0006504827927638,-0.0028719374458345,-0.0006691978912685,0.0006938310358392,-0.0007446067498762,,0.0034192999153591,0.0010579430106152,0.0064953994279523,0.0000345271351897,0.0005111463805106,-0.0000263829984575,0.9999998684205874,-0.0716438772364495,0.3044728703048402,-0.0026190585096938,0.0061334241181612,-0.0059950468130410,0.0181544125080109,-0.0012176220770925,0.0004556177300401,-0.0002580562722869,,0.0000000000000000,0.0000000000000000,
1559013414.3868007659912109,1.6326599121093750,,0.0041194856463103,-0.0033940315752480,-0.0028080543592595,-0.0000992443920494,-0.0000328166474643,0.0000641251699190,0.9999999924807905,-0.0869267638890952,0.2421536538990834,0.0078330950216830,0.0021493369769122,-0.0028537050712211,-0.0001996220895227,-0.0004080057772762,0.0006910557348048,-0.0002094503869172,,0.0057367386720548,0.0016183337584161,0.0098573301577264,0.0000261658727469,0.0004975904176237,-0.0000332114235218,0.9999998753080546,-0.0726057057987067,0.3029184345740711,-0.0034000292129137,0.0127253644168377,-0.0035268568899482,0.0208079684525728,-0.0005384065443650,-0.0007062302902341,-0.0015981659526005,,0.0000000000000000,0.0000000000000000,
1559013414.4201207160949707,1.6659798622131348,,0.0041541207224007,-0.0034156224225342,-0.0025824503021740,-0.0000970087242380,-0.0000320122093324,0.0000597805660862,0.9999999929954050,-0.0866726907702169,0.2422451143759081,0.0073350972583701,0.0019959913547130,-0.0034095936164084,-0.0016746786968724,-0.0006789874787227,-0.0001144729931246,0.0005812793484456,,0.0021895927776940,0.0029798482027788,-0.0017919951850399,0.0000030791525065,0.0005051542388313,-0.0000423319240284,0.9999998715088527,-0.0752563039453160,0.3037837185136449,-0.0044476326101652,-0.0012074953410774,0.0004014892037958,0.0003388677432667,0.0008526051533408,0.0004610072937794,-0.0004364303313196,,0.0000000000000000,0.0000000000000000,
1559013414.4534406661987305,1.6992998123168945,,0.0042334696257254,-0.0035305702094224,-0.0027063765058883,-0.0001049380746130,-0.0000413854516299,0.0000739822283003,0.9999999909009374,-0.0875744675693152,0.2411733921013546,0.0089640587976232,0.0029555630876392,-0.0035308534249187,-0.0067784093630295,-0.0004108301116711,-0.0019814022745252,0.0011033687290668,,-0.0014186147277336,0.0028985353920135,-0.0137229153900472,-0.0000057996978002,0.0005104819711338,-0.0000229059692081,0.9999998694249101,-0.0762630878852232,0.3043971376825290,-0.0022228761208905,-0.0113122472539544,-0.0013487567193806,-0.0224984772503376,0.0019746769685298,0.0005661716568284,0.0000881503365235,,0.0000000000000000,0.0000000000000000,
1559013414.4867608547210693,1.7326200008392334,,0.0042840532852835,-0.0033832643602460,-0.0028613797239996,-0.0001037796392413,-0.0000504097363050,0.0000821221565631,0.9999999899722982,-0.0874378345335158,0.2401406031716947,0.0098982985340035,0.0023293099570451,-0.0032985799411067,-0.0043278331238968,0.0003872155325221,-0.0003768724923087,0.0005896601018241,,-0.0014186147277336,0.0028985353920135,-0.0137229153900472,-0.0000057996978002,0.0005104819711338,-0.0000229059692081,0.9999998694249101,-0.0762630878852232,0.3043971376825290,-0.0022228761208905,-0.0113122472539544,-0.0013487567193806,-0.0224984772503376,0.0019746769685298,0.0005661716568284,0.0000881503365235,,0.0000000000000000,0.0000000000000000,
1559013414.5200808048248291,1.7659399509429932,,0.0043894182758981,-0.0034908859479184,-0.0029747093757848,-0.0001008706147797,-0.0000536098037362,0.0000790996830928,0.9999999903471740,-0.0871059808824203,0.2397733838182544,0.0095524496342452,0.0039809239391930,-0.0029580250534272,-0.0018635404098021,0.0001291432098721,0.0001622706042841,-0.0004743573251618,,0.0021569559694145,0.0008463975722888,0.0017737355212673,0.0000397605860765,0.0004972441031336,-0.0000275520140034,0.9999998752041344,-0.0710447551230397,0.3028796325554119,-0.0027506743039883,0.0050291824154556,-0.0075368159450591,0.0100390929728746,0.0008411775343120,0.0002563290181570,-0.0013905941741541,,0.0000000000000000,0.0000000000000000,
1559013414.5534007549285889,1.7992599010467529,,0.0045298335329591,-0.0034859994294987,-0.0028099213511340,-0.0000976141552357,-0.0000384426449346,0.0000693756889071,0.9999999920903269,-0.0867374307885078,0.2415098028510277,0.0084356718831226,0.0047206435617245,-0.0040881687630317,-0.0003466746493347,-0.0004166656388263,0.0009517348835460,0.0005913080444776,,0.0021569559694145,0.0008463975722888,0.0017737355212673,0.0000397605860765,0.0004972441031336,-0.0000275520140034,0.9999998752041344,-0.0710447551230397,0.3028796325554119,-0.0027506743039883,0.0050291824154556,-0.0075368159450591,0.0100390929728746,0.0008411775343120,0.0002563290181570,-0.0013905941741541,,0.0000000000000000,0.0000000000000000,
1559013414.5867207050323486,1.8325798511505127,,0.0047069601199385,-0.0035966811687165,-0.0028400375063988,-0.0001082129536521,-0.0000203446441651,0.0000723875883906,0.9999999913180447,-0.0879503577449344,0.2435842556352875,0.0087779003632251,0.0055063353982898,-0.0037447430752637,-0.0024483354054224,-0.0004146755682131,0.0004191194654563,0.0005875746170211,,0.0047568128774480,0.0037095875125719,0.0024648328165501,0.0000356404946868,0.0005075731344468,-0.0000260096516513,0.9999998702113747,-0.0715160763899768,0.3040634651266995,-0.0025756846490801,0.0136421741917729,0.0022794245742261,0.0105858491733670,0.0010575925698504,0.0012645954266191,-0.0008035744540393,,0.0000000000000000,0.0000000000000000,
1559013414.6200406551361084,1.8658998012542725,,0.0049368728520813,-0.0036647119999018,-0.0025786916316695,-0.0001067882723128,-0.0000109284484205,0.0000794701520654,0.9999999910806645,-0.0877835551717189,0.2446644160836717,0.0095879676208173,0.0045595620873907,-0.0042981448462174,-0.0034759439539753,-0.0001499334764370,0.0001519126318781,0.0008545670189401,,0.0050295467112770,0.0037456691426175,0.0026653708937446,0.0000378362631380,0.0005064495079158,-0.0000271930095341,0.9999998706689184,-0.0712651056492512,0.3039345400159836,-0.0027109965208810,0.0137063823640347,0.0019974603783339,0.0095194336026907,0.0005897801602259,0.0018424878362566,0.0002677952870727,,0.0000000000000000,0.0000000000000000,
1559013414.6533608436584473,1.8992199897766113,,0.0050630115510091,-0.0037703584701925,-0.0026792731410937,-0.0001049245196058,-0.0000125653965916,0.0000823245247401,0.9999999910278143,-0.0875685988487511,0.2444772844464380,0.0099153219889007,0.0037313901241727,-0.0031653653666264,-0.0032559565165210,0.0001285783403959,-0.0003722210156283,-0.0002117935025049,,0.0048156837642820,0.0062237242223286,0.0038197723035811,0.0000351297156098,0.0005140273588113,-0.0000062339267155,0.9999998672514491,-0.0715637410734696,0.3048059729383173,-0.0003105032281870,0.0113962255418301,0.0109010646119714,0.0102634755894542,0.0009090397506952,-0.0008152950322255,-0.0005353579181246,,0.0000000000000000,0.0000000000000000,
1559013414.6866807937622070,1.9325399398803711,,0.0052161131249471,-0.0042795879970958,-0.0025880466337048,-0.0000979188396483,-0.0000183920897358,0.0000746235508949,0.9999999922524788,-0.0867696294145520,0.2438082791828718,0.0090337840348894,0.0042552123051902,-0.0042552081509630,-0.0027948394534636,0.0001209135257257,-0.0003778495634589,0.0005870982294084,,0.0048156837642820,0.0062237242223286,0.0038197723035811,0.0000351297156098,0.0005140273588113,-0.0000062339267155,0.9999998672514491,-0.0715637410734696,0.3048059729383173,-0.0003105032281870,0.0113962255418301,0.0109010646119714,0.0102634755894542,0.0009090397506952,-0.0008152950322255,-0.0005353579181246,,0.0000000000000000,0.0000000000000000,
1559013414.7200007438659668,1.9658598899841309,,0.0053815015897296,-0.0043977121763466,-0.0026714388531066,-0.0000997668266820,-0.0000136282229899,0.0000769545591728,0.9999999919694239,-0.0869802128461814,0.2443545722141570,0.0093001296610708,0.0052202442398067,-0.0043186334956508,-0.0023070537373820,-0.0004182255187580,0.0006835509632927,0.0008557385477173,,0.0052291259185608,0.0066394057520543,0.0041492087002540,0.0000389100275542,0.0005036717400379,-0.0000269764555915,0.9999998720365213,-0.0711419311843265,0.3036162666879023,-0.0026857110020908,0.0098902173340321,0.0114108640700579,0.0103509873151779,0.0004561709356494,0.0000499343514093,-0.0024497949052602,,0.0000000000000000,0.0000000000000000,
1559013414.7533206939697266,1.9991798400878906,,0.0056122730550563,-0.0043559418843104,-0.0027273581497806,-0.0001067138132350,-0.0000086710028602,0.0000884740695737,0.9999999903546574,-0.0877705842998988,0.2449245698404286,0.0106193801629952,0.0061635593308951,-0.0045564961698228,-0.0036231864253194,-0.0009452894615046,-0.0001154500909944,0.0005787174395971,,0.0048463070129249,-0.0018530932854782,-0.0043371194688543,0.0000496536779303,0.0005462905973898,-0.0000412375629876,0.9999998487002679,-0.0699188675543722,0.3084979834910337,-0.0043255173052810,0.0092678898945451,-0.0197609998285770,-0.0056686224415898,0.0003229734138586,0.0009426797041669,0.0000063279644564,,0.0000000000000000,0.0000000000000000,
1559013414.7866406440734863,2.0324997901916504,,0.0058013029970512,-0.0044473314801066,-0.0028101090374828,-0.0000970948368954,0.0000015784124978,0.0000775873577625,0.9999999922751517,-0.0866735905012852,0.2460972016159669,0.0093701726265291,0.0051979173326633,-0.0020368911047828,-0.0022339300812767,0.0006684169901144,0.0004361609462536,-0.0012662586219958,,0.0017678621869116,0.0015124191525959,-0.0011558191354735,0.0000500246131654,0.0005711314993747,-0.0000341708840095,0.9999998350693360,-0.0698725603466937,0.3113455691600101,-0.0035193152565481,-0.0028836037963629,-0.0044308807700872,0.0001653605722822,-0.0004792680847459,0.0003601763455663,-0.0004656376258936,,0.0000000000000000,0.0000000000000000,
1559013414.8199608325958252,2.0658199787139893,,0.0058981895472878,-0.0041109910664940,-0.0025230458934541,-0.0000784381100499,0.0000047759841994,0.0000652775311240,0.9999999947817484,-0.0845417219466511,0.2464614794461898,0.0079590504493946,0.0054834994053910,-0.0024611096699942,-0.0030397994553660,0.0009310343128611,-0.0006337213758452,-0.0004722718610866,,0.0017678621869116,0.0015124191525959,-0.0011558191354735,0.0000500246131654,0.0005711314993747,-0.0000341708840095,0.9999998350693360,-0.0698725603466937,0.3113455691600101,-0.0035193152565481,-0.0028836037963629,-0.0044308807700872,0.0001653605722822,-0.0004792680847459,0.0003601763455663,-0.0004656376258936,,0.0000000000000000,0.0000000000000000,
1559013414.8532807826995850,2.0991399288177490,,0.0060831091476590,-0.0042140636194649,-0.0026011613194017,-0.0000742492853927,0.0000042141411106,0.0000676377779347,0.9999999949472078,-0.0840605598236745,0.2463974424313121,0.0082296090659601,0.0052332521554961,-0.0028626497399389,-0.0025271005160638,0.0001199184785841,-0.0001115418898458,0.0005889649506986,,0.0037245920093585,0.0014593189274381,0.0018194195298815,0.0000452053608667,0.0005873934933458,-0.0000412583801236,0.9999998256115376,-0.0704288468814915,0.3132080009324146,-0.0043341840155431,0.0031235220376402,-0.0038933986797929,0.0055238688364625,0.0007684917072766,-0.0006610307609662,0.0011769605334848,,0.0000000000000000,0.0000000000000000,
1559013414.8865907192230225,2.1324498653411865,,0.0061934867041933,-0.0043435591644059,-0.0027024867311102,-0.0000751464212340,0.0000078640223233,0.0000778522840745,0.9999999941150973,-0.0841583052077653,0.2468173259193860,0.0093995315850487,0.0038585387427819,-0.0033168687741139,-0.0021471519720520,0.0001128185305258,0.0004173211604671,0.0011252928579421,,0.0037245920093585,0.0014593189274381,0.0018194195298815,0.0000452053608667,0.0005873934933458,-0.0000412583801236,0.9999998256115376,-0.0704288468814915,0.3132080009324146,-0.0043341840155431,0.0031235220376402,-0.0038933986797929,0.0055238688364625,0.0007684917072766,-0.0006610307609662,0.0011769605334848,,0.0000000000000000,0.0000000000000000,
1559013414.9199106693267822,2.1657698154449463,,0.0063150865831321,-0.0044385202044557,-0.0027792432130741,-0.0000953474552296,0.0000101486232487,0.0000811929738381,0.9999999921067847,-0.0864715075292964,0.2470798430849202,0.0097819609991428,0.0041073533163788,-0.0023260642382056,-0.0024150240126507,-0.0014661138286738,0.0001582843922785,-0.0007560257709685,,0.0045404922881018,0.0010672725907045,0.0060357796653052,0.0000506259437657,0.0005752212636053,-0.0000184199946330,0.9999998331090938,-0.0697948873717366,0.3118165138721259,-0.0017149266609181,0.0057761906646192,-0.0050965617410839,0.0126369763165712,0.0013868110254407,-0.0000644646570436,-0.0002140401920769,,0.0000000000000000,0.0000000000000000,
1559013414.9532308578491211,2.1990900039672852,,0.0064257945421677,-0.0045066092599304,-0.0025602156202823,-0.0000981684672059,0.0000091534129479,0.0000840066625830,0.9999999916110239,-0.0867933934426946,0.2469662835131307,0.0101045468980244,0.0041143299672914,-0.0037539880700787,-0.0017441312103823,0.0001214783835948,0.0001566420026294,0.0003245344105072,,0.0018623154410093,0.0027256348443475,0.0001956494993356,0.0000609717752342,0.0005685389954785,-0.0000005049907428,0.9999998365227858,-0.0685993416432927,0.3110533887813620,0.0003396554353508,-0.0041805850341916,0.0011643896577880,0.0006084713968448,-0.0011163554154336,-0.0002244176284876,-0.0005613433313556,,0.0000000000000000,0.0000000000000000,
1559013414.9865508079528809,2.2324099540710449,,0.0065939463538438,-0.0046174701602695,-0.0026388040063775,-0.0000966041172220,0.0000079535580732,0.0000809849230621,0.9999999920229140,-0.0866156317975984,0.2468282853491592,0.0097584744179688,0.0049337736254248,-0.0027998786691061,-0.0020137426255656,0.0001255932243618,0.0004267020532623,-0.0002061933699746,,0.0018623154410093,0.0027256348443475,0.0001956494993356,0.0000609717752342,0.0005685389954785,-0.0000005049907428,0.9999998365227858,-0.0685993416432927,0.3110533887813620,0.0003396554353508,-0.0041805850341916,0.0011643896577880,0.0006084713968448,-0.0011163554154336,-0.0002244176284876,-0.0005613433313556,,0.0000000000000000,0.0000000000000000,
1559013415.0198707580566406,2.2657299041748047,,0.0067672685117948,-0.0044027409612339,-0.0028729848571148,-0.0000922053530219,0.0000144574563018,0.0000875480683397,0.9999999918122454,-0.0861082758445488,0.2475745965854262,0.0105095143992619,0.0060630711838600,-0.0026437033860502,-0.0034749046536988,0.0006550774079139,-0.0001077116138943,0.0003277914338633,,0.0017819703080484,0.0027485697378166,0.0002144086046948,0.0000582800221329,0.0005613600279983,-0.0000004010503061,0.9999998407390859,-0.0689077309125702,0.3102307548704150,0.0003524282589109,-0.0039354576729238,0.0009255666518584,0.0008877887739800,-0.0007359915180132,0.0003025436890312,0.0002885470166802,,0.0000000000000000,0.0000000000000000,
1559013415.0531907081604004,2.2990498542785645,,0.0069672747681737,-0.0045352644313868,-0.0029802652599552,-0.0000974389709307,0.0000144903759913,0.0000958344372201,0.9999999905557183,-0.0867039146939665,0.2475797658259038,0.0114590561588354,0.0051908054057950,-0.0030678572536959,-0.0023239452830533,0.0001265882345667,0.0001603943635471,-0.0002080600666870,,0.0028302361133023,0.0011308112806345,-0.0055005617195409,0.0000614221750839,0.0005673859537669,0.0000062026473458,0.9999998371309983,-0.0685439934837356,0.3109222268541514,0.0011085002659068,0.0022205500863492,-0.0049788719043136,-0.0089428108185530,-0.0010673586511984,-0.0010183617705479,-0.0010928818956017,,0.0000000000000000,0.0000000000000000,
1559013415.0865106582641602,2.3323698043823242,,0.0071244295509849,-0.0045350232789983,-0.0029883667037273,-0.0000931281150308,0.0000153777679667,0.0000834822838658,0.9999999920606933,-0.0862160148662970,0.2476794080087701,0.0100434555178485,0.0048924604424606,-0.0018765375099802,-0.0025787720890330,-0.0003963608675389,-0.0003685466177529,-0.0010158089530987,,0.0029519888838059,0.0008384119710609,-0.0059934795015772,0.0000581090590179,0.0005500910080263,-0.0000013667004831,0.9999998470106645,-0.0689278484126669,0.3089392815590514,0.0002433889468124,0.0020987750031054,-0.0055223274976015,-0.0086310729384422,-0.0007987834396772,0.0002558300329838,-0.0004012739227619,,0.0000000000000000,0.0000000000000000,
1559013415.1198308467864990,2.3656899929046631,,0.0072676738045507,-0.0046296874185742,-0.0030605794329863,-0.0001026003592933,0.0000150582091414,0.0000828947052218,0.9999999911874423,-0.0873017470161659,0.2476427842081687,0.0099761586229344,0.0048510385416891,-0.0019782629910694,-0.0024318293210310,-0.0001371588263261,0.0001612934942496,-0.0004769191953054,,0.0051925544355761,0.0023813793912971,-0.0010522355678721,0.0000469439347328,0.0005700122294068,-0.0000046649478309,0.9999998364302685,-0.0702091373472664,0.3112216003752460,-0.0001381758148190,0.0089325234293938,0.0004224320291542,0.0012637828476727,-0.0005778026534244,-0.0005969690391794,-0.0000826702453196,,0.0000000000000000,0.0000000000000000,
1559013415.1531507968902588,2.3990099430084229,,0.0074502754299064,-0.0045227427781252,-0.0031274282877739,-0.0001038460263786,0.0000204694758908,0.0000892484362612,0.9999999904158602,-0.0874413024710274,0.2482639164708829,0.0107033645188133,0.0047448159135533,-0.0020376979227419,-0.0030303288322040,0.0001240332914208,0.0001585181858278,0.0000582371602354,,0.0045112719021584,0.0024116991237641,-0.0023282875840601,0.0000437592867711,0.0005660070270210,0.0000077071153321,0.9999998388308723,-0.0705671796930517,0.3107644445694721,0.0012799550679791,0.0062053748406470,0.0001340691669611,-0.0019715272355825,-0.0001328795624431,-0.0017238758737221,0.0011393750319257,,0.0000000000000000,0.0000000000000000,
1559013415.1864707469940186,2.4323298931121826,,0.0076265523058954,-0.0046109672974212,-0.0032483079982402,-0.0001129884408963,0.0000125191682878,0.0000900855429333,0.9999999894807389,-0.0884886088438126,0.2473531100453995,0.0108005731980524,0.0046521228469167,-0.0006232027319259,-0.0026886386675860,0.0001362430984762,-0.0003665924964994,-0.0010106852349602,,0.0046368757536828,0.0024083626879825,-0.0023725760559474,0.0000458798311537,0.0005587346913442,0.0000202892320099,0.9999998426494540,-0.0703171895108751,0.3099329308591345,0.0027229777647251,0.0063844979740679,-0.0001243474544026,-0.0025399073492736,-0.0001940629445016,0.0010972442105412,0.0014111992204562,,0.0000000000000000,0.0000000000000000,
1559013415.2197906970977783,2.4656498432159424,,0.0076863368050049,-0.0045450967969306,-0.0031327826202480,-0.0001204650407679,0.0000122093984678,0.0000888463990507,0.9999999887227109,-0.0893459782977416,0.2473174859225749,0.0106586168328168,0.0042383702302429,-0.0029317147891015,-0.0009426749978364,-0.0001442587918342,0.0006901565473278,0.0000594087119283,,0.0046368757536828,0.0024083626879825,-0.0023725760559474,0.0000458798311537,0.0005587346913442,0.0000202892320099,0.9999998426494540,-0.0703171895108751,0.3099329308591345,0.0027229777647251,0.0063844979740679,-0.0001243474544026,-0.0025399073492736,-0.0001940629445016,0.0010972442105412,0.0014111992204562,,0.0000000000000000,0.0000000000000000,
1559013415.2531106472015381,2.4989697933197021,,0.0078618191319948,-0.0046391956361690,-0.0032040377149981,-0.0001156303094405,0.0000196839286932,0.0000899272473292,0.9999999890776323,-0.0887913540400676,0.2481741315163870,0.0107812524658854,0.0054340074573766,-0.0028993646999796,-0.0031862943625790,0.0001214783224775,0.0001566420008910,0.0003245344033178,,0.0036304880783306,0.0051519430538680,-0.0003610028637882,0.0000409396240160,0.0005788687692688,0.0000372948730190,0.9999998309219795,-0.0708737745339409,0.3122426262887678,0.0046684425669311,0.0018805343424901,0.0090315490961075,0.0019654412753880,-0.0017144266748801,0.0002639917656779,-0.0012922289315611,,0.0000000000000000,0.0000000000000000,
1559013415.2864308357238770,2.5322899818420410,,0.0080639350934928,-0.0045902257133618,-0.0031312025792983,-0.0001149914076389,0.0000181247866313,0.0000800752266915,0.9999999900182132,-0.0887230222868035,0.2479938422644389,0.0096525421983259,0.0066321110656401,-0.0013035936877828,-0.0049267572590039,-0.0003979208055989,-0.0006367305055654,-0.0007513784367157,,0.0036304880783306,0.0051519430538680,-0.0003610028637882,0.0000409396240160,0.0005788687692688,0.0000372948730190,0.9999998309219795,-0.0708737745339409,0.3122426262887678,0.0046684425669311,0.0018805343424901,0.0090315490961075,0.0019654412753880,-0.0017144266748801,0.0002639917656779,-0.0012922289315611,,0.0000000000000000,0.0000000000000000,
1559013415.3197507858276367,2.5656099319458008,,0.0082621873616582,-0.0046825807210719,-0.0032426211072192,-0.0001128568665858,0.0000282530523228,0.0000831580091108,0.9999999897749191,-0.0884768099501387,0.2491549408947780,0.0100041491878492,0.0054095422054192,-0.0021838739240372,-0.0030518210149558,0.0003918951458515,0.0004276791112185,-0.0002036315012846,,-0.0004187368762987,0.0000351582624904,-0.0101975856681350,0.0000339133369935,0.0005851228979050,0.0000428547801781,0.9999998273222590,-0.0716758011117047,0.3129601442598663,0.0053041828621122,-0.0091990232467651,-0.0111310230568051,-0.0174473952502012,-0.0002537416294217,0.0002517852990422,0.0007231563213281,,0.0000000000000000,0.0000000000000000,
1559013415.3530707359313965,2.5989298820495605,,0.0083415393670374,-0.0047666611227616,-0.0029479082575765,-0.0000972649294704,0.0000264077253475,0.0000815941012678,0.9999999915922841,-0.0866908955456508,0.2489430799842387,0.0098252871071451,0.0049745476888220,-0.0020712646845701,-0.0020777991756447,0.0006581971400452,0.0004286561680172,-0.0002010696336861,,-0.0009817813704339,-0.0000302048205232,-0.0113073154465510,0.0000366397794939,0.0005790403470259,0.0000539893675716,0.9999998302274612,-0.0713571827692653,0.3122647584925159,0.0065812067841531,-0.0103610353544354,-0.0106029035523534,-0.0180826224386692,0.0003542889317032,0.0002166567428503,-0.0017341335769743,,0.0000000000000000,0.0000000000000000,
1559013415.3863906860351562,2.6322498321533203,,0.0085152816511929,-0.0048547551483978,-0.0030727926527347,-0.0001007189495294,0.0000153879400768,0.0000850007777595,0.9999999911968862,-0.0870851108665442,0.2476808931951801,0.0102174484182184,0.0053927207304961,-0.0020287876135744,-0.0029397797878087,-0.0004070108345066,0.0004247478990651,-0.0002113171194828,,-0.0011975343005169,-0.0002381331457557,-0.0116585177331550,0.0000383786624462,0.0005816846829044,0.0000424769116023,0.9999998291828455,-0.0711643361308447,0.3125660771103843,0.0052616856179353,-0.0107396440580487,-0.0107621066272259,-0.0173117518424988,-0.0005886165308766,0.0007920654607005,-0.0003913546097465,,0.0000000000000000,0.0000000000000000,
1559013415.4197106361389160,2.6655697822570801,,0.0085721559445155,-0.0048310858142376,-0.0032800436890706,-0.0001068768153587,0.0000224480795662,0.0000831534167567,0.9999999905794699,-0.0877915999387367,0.2484896829867934,0.0100045905487915,0.0054259320300708,-0.0012734266811453,-0.0038021436925959,-0.0006682029522535,0.0004275232074869,-0.0007464734750236,,-0.0014185691403290,-0.0004501569395737,-0.0120030723032950,0.0000434684384757,0.0005856383472689,0.0000345169022151,0.9999998269733873,-0.0705855220237378,0.3130179456839972,0.0043492845201148,-0.0107360417023301,-0.0110346311703324,-0.0169592592865229,-0.0017026001587510,0.0004706384497695,-0.0002738574403338,,0.0000000000000000,0.0000000000000000,
1559013415.4530308246612549,2.6988899707794189,,0.0087887147454611,-0.0049147568411689,-0.0034270132636550,-0.0001063405597300,0.0000256612177245,0.0000789559680899,0.9999999908995711,-0.0877321980225032,0.2488571906690957,0.0095230710710363,0.0049456998158495,-0.0035981369435096,-0.0025323726502573,-0.0001483736661876,0.0004200964252621,0.0005901364720892,,0.0003574812231935,0.0003619826310008,-0.0030307031033011,0.0000280967192277,0.0006463813474378,0.0000294119631035,0.9999997902683102,-0.0723496947302187,0.3199778806545092,0.0037542767039110,-0.0030758511275053,-0.0073704370297492,-0.0008689275127836,-0.0003743243869394,0.0005830600857735,-0.0002860996755771,,0.0000000000000000,0.0000000000000000,
1559013415.4863507747650146,2.7322099208831787,,0.0088680294629730,-0.0045595707193537,-0.0031174369831288,-0.0001061192970537,0.0000189581091107,0.0000769497007814,0.9999999912290143,-0.0877078901948602,0.2480887422512197,0.0092942628169098,0.0063546953775704,-0.0016366617900425,-0.0044890683279795,0.0003978653517047,-0.0011701671599101,-0.0002148317825310,,0.0003574812231935,0.0003619826310008,-0.0030307031033011,0.0000280967192277,0.0006463813474378,0.0000294119631035,0.9999997902683102,-0.0723496947302187,0.3199778806545092,0.0037542767039110,-0.0030758511275053,-0.0073704370297492,-0.0008689275127836,-0.0003743243869394,0.0005830600857735,-0.0002860996755771,,0.0000000000000000,0.0000000000000000,
