#Time(sec),Dtime(sec),,x(m),y(m),z(m),qx,qy,qz,qw,roll_x_G(deg),pitch_y_G(deg),yaw_z_G(deg),vx(m/s),vy(m/s),vz(m/s),wx(rad/s),wy(rad/s),wz(rad/s),,gt_x(m),gt_y(m),gt_z(m),gt_qx,gt_qy,gt_qz,gt_qw,gt_groll_x_G(deg),gt_pitch_y_G(deg),gt_yaw_z_G(deg),gt_vx(m/s),gt_vy(m/s),gt_vz(m/s),gt_wx(rad/s),gt_wy(rad/s),gt_wz(rad/s),,Sr,Sr_avg,
1559013412.7541408538818359,0.0000000000000000,,0.0000000000000002,0.0000000000000001,-0.0000000000000001,0.0000000000000000,-0.0000000000000001,0.0000000000000000,1.0000000000000000,-0.0755855138669150,0.2459037397968158,0.0004794994091153,0.0000000000000000,0.0000000000000000,0.0000000000000000,0.0000000000000000,0.0000000000000000,0.0000000000000000,,0.0000000000000000,0.0000000000000000,0.0000000000000000,0.0000000000000000,0.0000000000000000,0.0000000000000000,1.0000000000000000,-0.0755855138669150,0.2459037397968215,0.0004794994091152,-0.0098102642223239,-0.0059528849087656,-0.0021041124127805,0.0008114594966173,-0.0000641869410174,-0.0007574954070151,,0.0000000000000000,0.0000000000000000,
1559013412.7874608039855957,0.0333199501037598,,0.0000000000000002,0.0000000000000001,-0.0000000000000001,0.0000000000000000,-0.0000000000000001,0.0000000000000000,1.0000000000000000,-0.0755855138669150,0.2459037397968158,0.0004794994091153,0.0000000000000000,0.0000000000000000,0.0000000000000000,0.0000000000000000,0.0000000000000000,0.0000000000000000,,0.0000000000000000,0.0000000000000000,0.0000000000000000,0.0000000000000000,0.0000000000000000,0.0000000000000000,1.0000000000000000,-0.0755855138669150,0.2459037397968215,0.0004794994091152,-0.0098102642223239,-0.0059528849087656,-0.0021041124127805,0.0008114594966173,-0.0000641869410174,-0.0007574954070151,,0.0000000000000000,0.0000000000000000,
1559013412.8207807540893555,0.0666399002075195,,0.0000219726581638,-0.0000260111889973,-0.0000459141663904,-0.0000208610050351,-0.0000137221306289,-0.0000034844792411,0.9999999996821901,-0.0779777081630646,0.2443307657790641,0.0000823114382821,0.0005549145090711,-0.0009140744155948,-0.0007645881653806,-0.0006713226546122,-0.0001088443910840,-0.0002176123651700,,0.0000000000000000,0.0000000000000000,0.0000000000000000,0.0000000000000000,0.0000000000000000,0.0000000000000000,1.0000000000000000,-0.0755855138669150,0.2459037397968215,0.0004794994091152,-0.0098102642223239,-0.0059528849087656,-0.0021041124127805,0.0008114594966173,-0.0000641869410174,-0.0007574954070151,,0.0000000000000000,0.0000000000000000,
1559013412.8541007041931152,0.0999598503112793,,0.0000608926743231,-0.0000640802948601,-0.0001140602429562,-0.0000373096937066,-0.0000189844924195,-0.0000087132854731,0.9999999990858274,-0.0798651435414091,0.2437269247291102,-0.0005160265755550,0.0011061855532015,-0.0033799717536283,-0.0017536299372295,-0.0014824384616985,0.0004133351236126,0.0008436244272202,,0.0026245542083911,0.0026448552001494,-0.0084863851899029,-0.0000333937179824,0.0001718520074773,-0.0000101301488424,0.9999999846245635,-0.0794174526191618,0.2655949411350161,-0.0007079784706163,0.0011400097282603,-0.0002242026966996,-0.0186141021549702,-0.0007273238734342,-0.0001038627669914,-0.0002373664610786,,0.0000000000000000,0.0000000000000000,
1559013412.8874206542968750,0.1332798004150391,,0.0001262903034411,-0.0001468154741993,-0.0002142065874932,-0.0000378024141703,-0.0000235806923088,-0.0000050935236011,0.9999999989944923,-0.0799198270708824,0.2432008019201591,-0.0001005132246582,0.0021184657892204,-0.0024107857097970,-0.0026184181863062,0.0001285783637746,-0.0003722209284548,-0.0002117934720251,,0.0026245542083911,0.0026448552001494,-0.0084863851899029,-0.0000333937179824,0.0001718520074773,-0.0000101301488424,0.9999999846245635,-0.0794174526191618,0.2655949411350161,-0.0007079784706163,0.0011400097282603,-0.0002242026966996,-0.0186141021549702,-0.0007273238734342,-0.0001038627669914,-0.0002373664610786,,0.0000000000000000,0.0000000000000000,
1559013412.9207408428192139,0.1665999889373779,,0.0001876071963411,-0.0002485065635448,-0.0002723575101359,-0.0000332340376668,-0.0000278667317498,-0.0000049033733097,0.9999999990474505,-0.0793962315090670,0.2427096905476230,-0.0000780715043153,0.0016332172232536,-0.0030002443095807,-0.0000183282768429,0.0009260591413560,0.0006978172556181,-0.0004629382745979,,0.0013044971720459,0.0006642558835833,-0.0097306379038952,-0.0000438730574526,0.0002087906767953,-0.0000009822662857,0.9999999772403214,-0.0806136494002281,0.2698292134783979,0.0003343256994272,-0.0023964915890247,-0.0079505480825901,-0.0198433436453342,0.0003404117596801,-0.0015395777300000,-0.0001423610374331,,0.0000000000000000,0.0000000000000000,
1559013412.9540607929229736,0.1999199390411377,,0.0002510355284044,-0.0003552317527220,-0.0002739830334416,-0.0000129934686530,-0.0000142844809747,-0.0000089746469803,0.9999999997732896,-0.0770788454877928,0.2442654901962383,-0.0005467471256826,0.0015572095440772,-0.0016274100853720,0.0003069651755764,0.0011929260021615,0.0012332859105604,-0.0007229402316692,,0.0013044971720459,0.0006642558835833,-0.0097306379038952,-0.0000438730574526,0.0002087906767953,-0.0000009822662857,0.9999999772403214,-0.0806136494002281,0.2698292134783979,0.0003343256994272,-0.0023964915890247,-0.0079505480825901,-0.0198433436453342,0.0003404117596801,-0.0015395777300000,-0.0001423610374331,,0.0000000000000000,0.0000000000000000,
1559013412.9873807430267334,0.2332398891448975,,0.0003049992330981,-0.0004089312959995,-0.0003164140705479,-0.0000144173017045,-0.0000098617901226,-0.0000141313640163,0.9999999997475956,-0.0772445424394733,0.2447715032002950,-0.0011383418386656,0.0011389741805766,-0.0019570558982999,-0.0014499054642399,-0.0004121206084769,0.0004209957160276,0.0003212774096721,,0.0018767528659337,-0.0015868478416372,-0.0062711862608355,-0.0000291626588616,0.0002160709066437,-0.0000033503031968,0.9999999762258388,-0.0789291896576434,0.2706631018623400,0.0000621929295683,-0.0001832428679336,-0.0139995729550719,-0.0103720519691706,-0.0000324573375110,0.0006396181997843,0.0005033669876866,,0.0000000000000000,0.0000000000000000,
1559013413.0207006931304932,0.2665598392486572,,0.0003431363790865,-0.0004716913804853,-0.0004165912864769,-0.0000362799963632,-0.0000178833168929,-0.0000100745123364,0.9999999991312265,-0.0797478174257171,0.2438528996089663,-0.0006721862495950,0.0008971832518353,-0.0020463925252434,-0.0023451758404527,-0.0009427345252527,-0.0001135738131031,0.0003124202551737,,0.0001864124072654,0.0012166738894161,0.0004830618136631,-0.0000185716344986,0.0002542559187380,0.0000077107003256,0.9999999674747831,-0.0777098268087173,0.2750404781751465,0.0013241122817303,-0.0062631070613861,-0.0018153276760131,0.0017081610858440,-0.0014693180564791,-0.0002084249572363,0.0000913238181965,,0.0000000000000000,0.0000000000000000,
1559013413.0540206432342529,0.2998797893524170,,0.0003815858253422,-0.0005398933346406,-0.0004752779818722,-0.0000464384767907,-0.0000188827274353,-0.0000093339062641,0.9999999986998944,-0.0809115289954058,0.2437384799107219,-0.0005871411112993,0.0017386236449794,-0.0019730277478822,-0.0019602735416681,-0.0001351686921957,-0.0003713218026432,-0.0004806525835947,,0.0001864124072654,0.0012166738894161,0.0004830618136631,-0.0000185716344986,0.0002542559187380,0.0000077107003256,0.9999999674747831,-0.0777098268087173,0.2750404781751465,0.0013241122817303,-0.0062631070613861,-0.0018153276760131,0.0017081610858440,-0.0014693180564791,-0.0002084249572363,0.0000913238181965,,0.0000000000000000,0.0000000000000000,
1559013413.0873408317565918,0.3331999778747559,,0.0004267541832155,-0.0006088297298920,-0.0004818914534174,-0.0000408712716474,-0.0000194053790905,-0.0000116510858713,0.9999999989086114,-0.0802747078758290,0.2436782332696689,-0.0008526030822684,0.0017350487666557,-0.0032286192394855,-0.0011628766044322,0.0001260234255512,-0.0003740971110650,0.0000545037719461,,-0.0012296630497877,0.0025351477552150,0.0010995718084875,-0.0000417926695341,0.0002369557506546,0.0000081066828663,0.9999999710198130,-0.0803705614379537,0.2730581080783792,0.0013715104470487,-0.0104640517383814,0.0027693663723767,0.0022680787369609,-0.0004222550487611,-0.0009954593842849,-0.0014647236093879,,0.0000000000000000,0.0000000000000000,
1559013413.1206507682800293,0.3665099143981934,,0.0004911469323872,-0.0007265872219707,-0.0005428070333602,-0.0000410330678938,-0.0000277671083359,-0.0000041839236779,0.9999999987638850,-0.0802895830158817,0.2427212143369732,0.0000043813956105,0.0027741574474168,-0.0048216921258127,-0.0033582403023803,0.0001177937450307,-0.0009142172578075,0.0011159593242127,,-0.0012296630497877,0.0025351477552150,0.0010995718084875,-0.0000417926695341,0.0002369557506546,0.0000081066828663,0.9999999710198130,-0.0803705614379537,0.2730581080783792,0.0013715104470487,-0.0104640517383814,0.0027693663723767,0.0022680787369609,-0.0004222550487611,-0.0009954593842849,-0.0014647236093879,,0.0000000000000000,0.0000000000000000,
1559013413.1539707183837891,0.3998298645019531,,0.0005608907720145,-0.0008232511961334,-0.0006961484359018,-0.0000341465302551,-0.0000257473995822,-0.0000020690251192,0.9999999990834025,-0.0794994124336058,0.2429529869650184,0.0002463977233640,0.0034510544688193,-0.0033502987918450,-0.0041524009503805,0.0009233695064762,-0.0006393498318142,0.0003266199047456,,0.0030802988584500,0.0012210024314830,-0.0004229099459523,-0.0000380366311522,0.0002537059910602,0.0000099031762481,0.9999999670442055,-0.0799392118169074,0.2749778185721677,0.0015748725432740,0.0080886157229543,-0.0046372590586543,0.0003316676011309,0.0006035095429979,0.0012304764240980,0.0005028592422605,,0.0000000000000000,0.0000000000000000,
1559013413.1872906684875488,0.4331498146057129,,0.0006665224185103,-0.0009411511404317,-0.0007860969082616,-0.0000242514949895,-0.0000184811550735,-0.0000074875962756,0.9999999995071240,-0.0783681849376831,0.2437848045926659,-0.0003756777141562,0.0020800947990923,-0.0024546745712984,-0.0012718764272186,0.0001307031335763,0.0004304545699230,-0.0007387878370318,,0.0013329283684650,-0.0002645851969253,-0.0013593500048340,-0.0000230157938096,0.0002529160120719,0.0000307535759244,0.9999999672789903,-0.0782070900445297,0.2748904838150207,0.0039647358401133,0.0011904048733413,-0.0095880255103111,-0.0023563199210912,0.0018597589805722,0.0016142132226378,-0.0009464622708037,,0.0000000000000000,0.0000000000000000,
1559013413.2206108570098877,0.4664700031280518,,0.0007359596319689,-0.0008974352122071,-0.0006454023858660,-0.0000182417642777,-0.0000186880074359,-0.0000192802730009,0.9999999994731338,-0.0776852947221677,0.2437592987025458,-0.0017270109760793,0.0022729301451496,-0.0001695720206835,-0.0021570515635598,0.0012059961658268,-0.0008934233764954,-0.0012704684028332,,0.0013329283684650,-0.0002645851969253,-0.0013593500048340,-0.0000230157938096,0.0002529160120719,0.0000307535759244,0.9999999672789903,-0.0782070900445297,0.2748904838150207,0.0039647358401133,0.0011904048733413,-0.0095880255103111,-0.0023563199210912,0.0018597589805722,0.0016142132226378,-0.0009464622708037,,0.0000000000000000,0.0000000000000000,
1559013413.2539308071136475,0.4997899532318115,,0.0008255723839699,-0.0010216747438313,-0.0007281341334765,-0.0000074810499490,-0.0000191448208043,-0.0000098946415106,0.9999999997398029,-0.0764476111694657,0.2437084025513429,-0.0006514416666658,0.0023249636750262,-0.0030611453903442,-0.0027445556767650,-0.0001473785162842,0.0001537888763874,0.0005882698121511,,-0.0003187015053108,0.0000959066590073,-0.0209231593457670,-0.0000160718343075,0.0002776230263452,0.0000108136414350,0.9999999612751075,-0.0774217422934056,0.2777186218234659,0.0016761845038021,-0.0058840299025178,-0.0058508231304586,-0.0372426919639111,0.0013397382572293,0.0005982400616631,-0.0003023762255907,,0.0000000000000000,0.0000000000000000,
1559013413.2872507572174072,0.5331099033355713,,0.0009010386282280,-0.0011048637721867,-0.0008160503924196,-0.0000056889358331,-0.0000201667522399,0.0000003019667700,0.9999999997804234,-0.0762372570019536,0.2435928480906998,0.0005171643366391,0.0028561692742580,-0.0024976398786741,-0.0028256528786670,0.0006566373427437,0.0001604724120037,0.0000633609270045,,-0.0005509754171336,-0.0001456836824130,-0.0224293881837500,-0.0000085451778506,0.0002747311364235,0.0000002491187608,0.9999999622248595,-0.0765647796794137,0.2773856195816288,0.0004662457421669,-0.0052228411659598,-0.0065887318924069,-0.0385861136019230,-0.0007309849024750,-0.0003088524681516,-0.0003365832380950,,0.0000000000000000,0.0000000000000000,
1559013413.3205707073211670,0.5664298534393311,,0.0010032463505918,-0.0012228395171239,-0.0009037650585582,-0.0000014854973824,-0.0000207116428482,0.0000006527978013,0.9999999997841975,-0.0757554064367095,0.2435304612175506,0.0005574396907478,0.0028987207231296,-0.0036966000779811,-0.0018833979270287,0.0001275833290700,-0.0001059132270839,-0.0002099267718122,,-0.0005509754171336,-0.0001456836824130,-0.0224293881837500,-0.0000085451778506,0.0002747311364235,0.0000002491187608,0.9999999622248595,-0.0765647796794137,0.2773856195816288,0.0004662457421669,-0.0052228411659598,-0.0065887318924069,-0.0385861136019230,-0.0007309849024750,-0.0003088524681516,-0.0003365832380950,,0.0000000000000000,0.0000000000000000,
1559013413.3538906574249268,0.5997498035430908,,0.0011071556913596,-0.0014300492284324,-0.0009395893676459,0.0000043928924947,-0.0000162925840816,0.0000009084900293,0.9999999998572145,-0.0750816698632748,0.2440368856796364,0.0005860603389716,0.0023239089893161,-0.0042836286939084,-0.0010597265692032,0.0006530873693990,0.0004249039368263,0.0003315248706284,,0.0032448892448287,0.0011686060850249,-0.0088127838804373,-0.0000146503900680,0.0003385993683422,0.0000034395524150,0.9999999425620001,-0.0772627395804454,0.2847048612551494,0.0008218920959599,0.0091201923787594,-0.0014337738975883,-0.0116917202249169,0.0016286274185404,-0.0022791337687522,0.0006528442027047,,0.0000000000000000,0.0000000000000000,
1559013413.3872108459472656,0.6330699920654297,,0.0011922372542794,-0.0015764417459012,-0.0010027557173303,0.0000078468699181,-0.0000122076853559,0.0000079787670305,0.9999999998628691,-0.0746824080727893,0.2445060422548777,0.0013956407887935,0.0025781328922704,-0.0044415277987731,-0.0031498765277564,-0.0001479433815941,-0.0003807027169794,0.0008508336225413,,0.0034269625326508,0.0011286720590091,-0.0090409392735334,-0.0000107213567495,0.0003332832900764,0.0000064883889218,0.9999999443825994,-0.0768108869699027,0.2840961473448347,0.0011722296041699,0.0091384267434478,-0.0020928373560309,-0.0114530222490430,0.0010196233633906,0.0007099295035005,-0.0002983235754073,,0.0000000000000000,0.0000000000000000,
1559013413.4205307960510254,0.6663899421691895,,0.0012708830917987,-0.0016763344637820,-0.0010303232879700,-0.0000012831372481,-0.0000168063985392,0.0000061559920352,0.9999999998390012,-0.0757295239641481,0.2439788015593864,0.0011874730482891,0.0025493590712880,-0.0042270989971695,-0.0040210057501358,-0.0001469483457883,-0.0006470104247460,0.0008489669128906,,0.0040371625405149,0.0010407715328566,-0.0011724512895224,0.0000182179897012,0.0003403120708404,-0.0000080441169780,0.9999999418955441,-0.0735023907927335,0.2848993990187070,-0.0004930345491329,0.0076945354230702,-0.0024773650802672,0.0028743059374392,0.0014570327475667,-0.0012100221356377,0.0000713423796697,,0.0000000000000000,0.0000000000000000,
1559013413.4538507461547852,0.6997098922729492,,0.0013547765865389,-0.0017734258367827,-0.0011468559882063,-0.0000100276882876,-0.0000278035366217,0.0000034942558620,0.9999999995570996,-0.0767328768644500,0.2427182242423732,0.0008841499496129,0.0031218224840632,-0.0022478326274399,-0.0039381466571397,0.0001356783139611,-0.0009010839865316,-0.0007481214015153,,0.0040371625405149,0.0010407715328566,-0.0011724512895224,0.0000182179897012,0.0003403120708404,-0.0000080441169780,0.9999999418955441,-0.0735023907927335,0.2848993990187070,-0.0004930345491329,0.0076945354230702,-0.0024773650802672,0.0028743059374392,0.0014570327475667,-0.0012100221356377,0.0000713423796697,,0.0000000000000000,0.0000000000000000,
1559013413.4871706962585449,0.7330298423767090,,0.0014604433838863,-0.0017582217748955,-0.0012512713895945,0.0000029366937815,-0.0000222164904765,-0.0000060454072813,0.9999999997306284,-0.0752519370360515,0.2433570078487342,-0.0002099078420018,0.0034450613918856,-0.0046528456841627,-0.0025473879310024,0.0001189234796209,0.0001547659314840,0.0005908316569429,,0.0028244609372718,-0.0020864745447010,-0.0040981470072898,0.0000272535559166,0.0003338402301539,-0.0000050454464155,0.9999999438912424,-0.0724653892738492,0.2841582340357628,-0.0001480977271716,0.0034915832802653,-0.0125113883987069,-0.0027146551292390,0.0007540810620412,0.0003361692652106,-0.0002933166106232,,0.0000000000000000,0.0000000000000000,
1559013413.5204906463623047,0.7663497924804688,,0.0015889436217316,-0.0019138369143742,-0.0013501792376043,0.0000037030745364,-0.0000215028113975,0.0000036403187065,0.9999999997553323,-0.0751593775630302,0.2434402500064748,0.0008998941152353,0.0038298412991722,-0.0054694665158102,-0.0032252577625855,0.0003785556948496,-0.0001161932579050,0.0013904185538759,,0.0028910345138242,-0.0023383199389853,-0.0041449240337843,0.0000373961634486,0.0003340290623401,-0.0000106710419311,0.9999999434561191,-0.0713061125007729,0.2841790525900197,-0.0007923905845583,0.0037497158627957,-0.0126193119212985,-0.0020666199270636,0.0008638525614515,0.0007067462429404,0.0000795015148469,,0.0000000000000000,0.0000000000000000,
1559013413.5538108348846436,0.7996699810028076,,0.0016888970566271,-0.0020750248903729,-0.0014545256318736,0.0000041219037973,-0.0000292475983885,0.0000197856705338,0.9999999993680575,-0.0751034951599052,0.2425551962786169,0.0027511962102582,0.0035106661176510,-0.0056241102575717,-0.0037203339104826,0.0006458527248490,-0.0003815239088730,0.0013911137118237,,0.0008416231557927,0.0017042349993819,-0.0082787919112038,0.0000540832522323,0.0003709936414145,-0.0000274513881228,0.9999999293425681,-0.0694029478739007,0.2884124663842267,-0.0027200200000634,-0.0031365249305964,0.0013117705238983,-0.0091546773910522,-0.0008535996312276,-0.0001344025076833,-0.0015033677918836,,0.0000000000000000,0.0000000000000000,
1559013413.5871307849884033,0.8329899311065674,,0.0017995319424049,-0.0022175714472620,-0.0015519194261767,0.0000116315489467,-0.0000291351452797,0.0000235129103673,0.9999999992314968,-0.0742411324637506,0.2425686237886024,0.0031782679018097,0.0025258507265811,-0.0034637482782420,-0.0012625492241992,0.0011872512621861,0.0006950419535504,0.0000722180535910,,0.0030406504889629,0.0022882742342330,-0.0062925504181727,0.0000611729674452,0.0003626874159403,-0.0000190422897520,0.9999999321765465,-0.0685860076404653,0.2874618788989146,-0.0017548979202029,0.0040563573129475,0.0002654088311829,-0.0037910772953182,0.0001189401809825,-0.0001427652314305,-0.0001788293011487,,0.0000000000000000,0.0000000000000000,
1559013413.6204507350921631,0.8663098812103271,,0.0018369359073784,-0.0021873219072363,-0.0015418945017974,0.0000124709460952,-0.0000297213173050,0.0000258371971050,0.9999999991467792,-0.0741438106470710,0.2425017992012253,0.0034446986633133,0.0029350525118272,-0.0034205021492617,-0.0021658862085822,0.0001240333570228,0.0001585183108225,0.0000582371638955,,0.0036291435458029,0.0025966150466021,-0.0043469637549630,0.0000571760738891,0.0003901364780748,-0.0000200743580797,0.9999999220607196,-0.0690446522828446,0.2906071492304136,-0.0018773020674637,0.0051087369211018,0.0014169181231409,0.0000617773694103,-0.0004234086372890,-0.0003483407199383,-0.0010793746914715,,0.0000000000000000,0.0000000000000000,
1559013413.6537706851959229,0.8996298313140869,,0.0019380351525562,-0.0022930404308156,-0.0016326403083814,0.0000123432697402,-0.0000333666893648,0.0000279895861917,0.9999999989754456,-0.0741573994082970,0.2420843933462876,0.0036918925411724,0.0032988791171029,-0.0041884080189659,-0.0027676394891339,-0.0004136805091846,0.0001528118192953,0.0005857079177095,,0.0036291435458029,0.0025966150466021,-0.0043469637549630,0.0000571760738891,0.0003901364780748,-0.0000200743580797,0.9999999220607196,-0.0690446522828446,0.2906071492304136,-0.0018773020674637,0.0051087369211018,0.0014169181231409,0.0000617773694103,-0.0004234086372890,-0.0003483407199383,-0.0010793746914715,,0.0000000000000000,0.0000000000000000,
1559013413.6870906352996826,0.9329497814178467,,0.0020023426105071,-0.0021692164596790,-0.0017426086817827,0.0000034844641662,-0.0000303654287306,0.0000314502448902,0.9999999990383407,-0.0751708459173846,0.2424288623101542,0.0040880394310468,0.0033367862494625,-0.0039362640629132,-0.0035275354746228,-0.0006764325293491,-0.0001125967626598,0.0003149820964892,,0.0036291435458029,0.0025966150466021,-0.0043469637549630,0.0000571760738891,0.0003901364780748,-0.0000200743580797,0.9999999220607196,-0.0690446522828446,0.2906071492304136,-0.0018773020674637,0.0051087369211018,0.0014169181231409,0.0000617773694103,-0.0004234086372890,-0.0003483407199383,-0.0010793746914715,,0.0000000000000000,0.0000000000000000,
1559013413.7204108238220215,0.9662699699401855,,0.0020984168645686,-0.0022919891043812,-0.0018291384612953,-0.0000086933334316,-0.0000273663091661,0.0000328650277283,0.9999999990477005,-0.0765656182910963,0.2427727949766040,0.0042497489514691,0.0038416420297378,-0.0050338786551966,-0.0043828578316834,-0.0004097003677832,-0.0009124190080277,0.0005782410877522,,0.0029954825554080,0.0032025419981495,0.0006789376870445,0.0000544467831987,0.0004025603575399,-0.0000166703444748,0.9999999173513996,-0.0693556131155782,0.2920313069036726,-0.0014891490537248,0.0025517339818180,0.0034124318044633,0.0093907183036208,0.0006610900745727,-0.0005176760023460,0.0005640679155476,,0.0000000000000000,0.0000000000000000,
1559013413.7537307739257812,0.9995899200439453,,0.0021619263199946,-0.0023524808325912,-0.0018432207951530,-0.0000038580310009,-0.0000286135713769,0.0000372228068580,0.9999999988904209,-0.0760094084514515,0.2426305116967751,0.0047492916202937,0.0036056564229813,-0.0048340733131069,-0.0025441136540936,0.0001189234773811,0.0001547659366364,0.0005908316615519,,0.0029954825554080,0.0032025419981495,0.0006789376870445,0.0000544467831987,0.0004025603575399,-0.0000166703444748,0.9999999173513996,-0.0693556131155782,0.2920313069036726,-0.0014891490537248,0.0025517339818180,0.0034124318044633,0.0093907183036208,0.0006610900745727,-0.0005176760023460,0.0005640679155476,,0.0000000000000000,0.0000000000000000,
1559013413.7870507240295410,1.0329098701477051,,0.0022531183861028,-0.0024568426448785,-0.0019142948422068,0.0000003386149053,-0.0000279793175631,0.0000419806449177,0.9999999987273344,-0.0755261812590295,0.2427038927258414,0.0052943945481770,0.0034203269465823,-0.0027502654864738,-0.0023382135864603,0.0001281481947104,0.0004285783670966,-0.0004724906090182,,0.0029821578802633,0.0023954715740928,-0.0033581745908973,0.0000636555501370,0.0004000566115030,-0.0000217090852176,0.9999999177156937,-0.0683030665391002,0.2917436920126553,-0.0020657681279611,0.0022860211320221,-0.0006600108463317,0.0015310561284423,-0.0004109627625439,-0.0006739070522599,-0.0001190709881485,,0.0000000000000000,0.0000000000000000,
1559013413.8203706741333008,1.0662298202514648,,0.0023472906728301,-0.0025003884042592,-0.0020064220776548,-0.0000041877462043,-0.0000285852405058,0.0000462551611064,0.9999999985129034,-0.0760427781940588,0.2426351289748133,0.0057843283345326,0.0037982061208732,-0.0041021828112372,-0.0038052583116361,-0.0004126854749590,-0.0001134958924750,0.0005838412123678,,0.0028483643782737,0.0054159764026453,-0.0048358352553247,0.0000756474026680,0.0004063720092715,-0.0000323465478623,0.9999999140464770,-0.0669346459473181,0.2924658971404100,-0.0032850968095539,0.0015071481466293,0.0085062691941857,-0.0014686621725559,-0.0004123515100218,-0.0004598114755936,-0.0001185764558613,,0.0000000000000000,0.0000000000000000,
1559013413.8536908626556396,1.0995500087738037,,0.0024609302691625,-0.0025868884166815,-0.0021287567230366,-0.0000056238139951,-0.0000328851568393,0.0000457164131456,0.9999999983984744,-0.0762076223906152,0.2421423211430199,0.0057232491683235,0.0038371511317021,-0.0010373555351794,-0.0043595886215025,0.0006698422019160,-0.0006309459857100,-0.0010074282025868,,0.0052727955121410,0.0028594060605301,-0.0016091656637851,0.0000741511501028,0.0004075664680992,-0.0000336539987448,0.9999999136292910,-0.0671068135670647,0.2926025797277269,-0.0034351616037410,0.0104847270995378,-0.0010913329897448,0.0042982785962522,0.0000560693915759,0.0001306207850575,-0.0007089182618074,,0.0000000000000000,0.0000000000000000,
1559013413.8870108127593994,1.1328699588775635,,0.0026167997055289,-0.0026997758814884,-0.0021883231739187,-0.0000120059679762,-0.0000380740387869,0.0000365723356332,0.9999999985343444,-0.0769434444728586,0.2415463585334623,0.0046762220161599,0.0039705695195624,-0.0021561522907993,-0.0041770540433873,0.0004004204028871,-0.0011682908232625,-0.0004811290015444,,0.0052727955121410,0.0028594060605301,-0.0016091656637851,0.0000741511501028,0.0004075664680992,-0.0000336539987448,0.9999999136292910,-0.0671068135670647,0.2926025797277269,-0.0034351616037410,0.0104847270995378,-0.0010913329897448,0.0042982785962522,0.0000560693915759,0.0001306207850575,-0.0007089182618074,,0.0000000000000000,0.0000000000000000,
1559013413.9203307628631592,1.1661899089813232,,0.0026167997055289,-0.0026997758814884,-0.0021883231739187,-0.0000120059679762,-0.0000380740387869,0.0000365723356332,0.9999999985343444,-0.0769434444728586,0.2415463585334623,0.0046762220161599,0.0039705695195624,-0.0021561522907993,-0.0041770540433873,0.0004004204028871,-0.0011682908232625,-0.0004811290015444,,0.0054303640759792,0.0028405871846140,-0.0015512931906976,0.0000727297327581,0.0004122941432348,-0.0000389757507913,0.9999999116024042,-0.0672725866643876,0.2931435651078277,-0.0040457387794924,0.0105438055470586,-0.0008907766314223,0.0042810388840735,0.0001138636871474,-0.0001375615538564,-0.0004429370164871,,0.0000000000000000,0.0000000000000000,
1559013413.9536507129669189,1.1995098590850830,,0.0028425463329962,-0.0029073002286479,-0.0023616404365633,-0.0000323099158969,-0.0000407552433291,0.0000393790590848,0.9999999978721847,-0.0792687473327647,0.2412396351978709,0.0049983550171893,0.0034717749862990,-0.0036401297089334,-0.0022906859396655,0.0011785914090302,0.0009557211041305,0.0008729764969799,,0.0042457708010142,0.0032688893773403,-0.0056604679087909,0.0000648888487885,0.0004357793942480,-0.0000388127972930,0.9999999021896570,-0.0681711214985140,0.2958347627029305,-0.0040308126094763,0.0040785656310618,0.0004996526986361,-0.0031115380115807,-0.0004219063557684,-0.0014084292342886,-0.0011841928353533,,0.0000000000000000,0.0000000000000000,
1559013413.9869606494903564,1.2328197956085205,,0.0030262020156471,-0.0031169320055501,-0.0025371172718289,-0.0000323681999143,-0.0000297859585805,0.0000530342202098,0.9999999976262339,-0.0792687145287354,0.2424987360480019,0.0065614355597368,0.0032705053238852,-0.0042876818323605,-0.0044247385578695,-0.0004122553054915,-0.0009142951910281,0.0008445383238341,,0.0016163225134831,0.0018428269025782,0.0076378858718637,0.0000685984619212,0.0004543867289951,-0.0000311516418720,0.9999998939282577,-0.0677419600665057,0.2979681196768502,-0.0031553800325751,-0.0052592363208532,-0.0075239953584969,0.0202106647193432,0.0005249262321740,0.0007250083726831,-0.0012422207510099,,0.0000000000000000,0.0000000000000000,
1559013414.0202808380126953,1.2661399841308594,,0.0030400684188430,-0.0035016746291072,-0.0016813964250102,-0.0000317934121470,-0.0000334661871436,0.0000524824667518,0.9999999975573920,-0.0792031379191800,0.2420769244178395,0.0064987763737462,0.0020900066874620,-0.0021069052136269,-0.0009751841525027,0.0001236031851490,0.0009593176073769,-0.0002024599492986,,0.0016163225134831,0.0018428269025782,0.0076378858718637,0.0000685984619212,0.0004543867289951,-0.0000311516418720,0.9999998939282577,-0.0677419600665057,0.2979681196768502,-0.0031553800325751,-0.0052592363208532,-0.0075239953584969,0.0202106647193432,0.0005249262321740,0.0007250083726831,-0.0012422207510099,,0.0000000000000000,0.0000000000000000,
1559013414.0536007881164551,1.2994599342346191,,0.0031539543427133,-0.0035995236188029,-0.0017817332326654,-0.0000303034432934,-0.0000320390208711,0.0000561636252454,0.9999999974504250,-0.0790305954625193,0.2422410255797003,0.0069203831182904,0.0043457167774084,-0.0030284632130138,-0.0048109327116030,0.0001254585700964,-0.0009085887785870,0.0003170675332793,,0.0000121213038593,0.0015928919038833,-0.0050828893196578,0.0000748137299263,0.0004453782290903,-0.0000428664643663,0.9999998971017973,-0.0670360616612345,0.2969341739491855,-0.0044962081267990,-0.0103412009775639,-0.0070697003975511,-0.0045804427936673,-0.0004666797758546,-0.0001374986022711,0.0000456533380202,,0.0000000000000000,0.0000000000000000,
1559013414.0869207382202148,1.3327798843383789,,0.0032580644751030,-0.0035433129596006,-0.0018702346808229,-0.0000268033924185,-0.0000305912070763,0.0000585256760126,0.9999999974602508,-0.0786283574157762,0.2424072743216559,0.0071908203190067,0.0041031606160793,-0.0024652973036102,-0.0028226210655540,-0.0001387186550678,-0.0001068903468652,-0.0002124886933094,,-0.0001918267742289,0.0014583252582462,-0.0051793105503548,0.0000672918954053,0.0004469704203664,-0.0000485581158316,0.9999998966656715,-0.0679011019789145,0.2971157712807340,-0.0051490438799222,-0.0097791878506541,-0.0069832173176110,-0.0047325701452792,0.0013753385283053,0.0003016986011062,-0.0014640276785940,,0.0000000000000000,0.0000000000000000,
1559013414.1202406883239746,1.3660998344421387,,0.0033785913827968,-0.0036358146040202,-0.0019474481750736,-0.0000329165283872,-0.0000355749823569,0.0000579388388346,0.9999999971470070,-0.0793291874983773,0.2418361263988819,0.0071243664925251,0.0039287088184390,-0.0023311483389911,-0.0030284283836840,-0.0006632276630028,-0.0009040152153782,-0.0007558070479790,,-0.0005695107067441,0.0011753494670631,-0.0053720416089590,0.0000732402329876,0.0004666305450950,-0.0000575712412892,0.9999998867886710,-0.0672245097017332,0.2993674002054934,-0.0061843887103450,-0.0087402760982513,-0.0075568733736873,-0.0051086759194732,-0.0005755241727456,0.0005565957981162,0.0000478677466162,,0.0000000000000000,0.0000000000000000,
1559013414.1535606384277344,1.3994197845458984,,0.0035599794741163,-0.0039333653115396,-0.0019670333762338,-0.0000333054897232,-0.0000280327349774,0.0000469376038165,0.9999999979508858,-0.0793790893963018,0.2426987015902677,0.0058625407046777,0.0033713787475727,-0.0033994017872747,-0.0021138237494012,-0.0004060156884790,0.0001584403072667,-0.0002131838538356,,0.0054194410451250,0.0039221283223847,-0.0059444888312575,0.0000707223501789,0.0004701856227759,-0.0000471678987493,0.9999998858495028,-0.0675073877342590,0.2997762539914523,-0.0049928816865142,0.0113711925223470,0.0025506995152682,-0.0051999506540596,-0.0004708282649517,0.0001321081072092,-0.0002189685619669,,0.0000000000000000,0.0000000000000000,
1559013414.1868808269500732,1.4327399730682373,,0.0036600505616842,-0.0040262875621763,-0.0020472113156800,-0.0000314130357985,-0.0000236165935820,0.0000444866992966,0.9999999982382056,-0.0791634081013930,0.2432043642508040,0.0055809961018832,0.0031467492964286,-0.0025134782422990,-0.0025083748220202,-0.0006691978732567,0.0006938310340326,-0.0007446067920822,,0.0054194410451250,0.0039221283223847,-0.0059444888312575,0.0000707223501789,0.0004701856227759,-0.0000471678987493,0.9999998858495028,-0.0675073877342590,0.2997762539914523,-0.0049928816865142,0.0113711925223470,0.0025506995152682,-0.0051999506540596,-0.0004708282649517,0.0001321081072092,-0.0002189685619669,,0.0000000000000000,0.0000000000000000,
1559013414.2202007770538330,1.4660599231719971,,0.0037403869888619,-0.0038457759902312,-0.0021078305924855,-0.0000346479216596,-0.0000202231450607,0.0000508199908203,0.9999999979039373,-0.0795309834230198,0.2435942232124840,0.0063062261571597,0.0029143868309129,-0.0029677089064601,-0.0036595250396906,-0.0004055855147043,-0.0006423589958328,0.0000475132591764,,0.0002987987401741,0.0013703470549558,-0.0050418977993937,0.0000542421005806,0.0004873639966526,-0.0000263471795140,0.9999998794199705,-0.0693845930889136,0.3017476779729769,-0.0026103510301210,-0.0070480327121913,-0.0073105720803142,-0.0040192874148488,-0.0008900916436687,-0.0017317757010460,-0.0002116747200489,,0.0000000000000000,0.0000000000000000,
1559013414.2535207271575928,1.4993798732757568,,0.0038217662152042,-0.0039455432573228,-0.0021907153522593,-0.0000474828910832,-0.0000266056403096,0.0000554966264707,0.9999999969788198,-0.0809995095454960,0.2428636507740353,0.0068431623529212,0.0027892925516829,-0.0038235029283901,-0.0020062131097636,-0.0009478443978325,-0.0001173262449065,0.0008450146892763,,0.0002987987401741,0.0013703470549558,-0.0050418977993937,0.0000542421005806,0.0004873639966526,-0.0000263471795140,0.9999998794199705,-0.0693845930889136,0.3017476779729769,-0.0026103510301210,-0.0070480327121913,-0.0073105720803142,-0.0040192874148488,-0.0008900916436687,-0.0017317757010460,-0.0002116747200489,,0.0000000000000000,0.0000000000000000,
1559013414.2868406772613525,1.5326998233795166,,0.0039113324102673,-0.0039927869976147,-0.0021439656487372,-0.0000617059020585,-0.0000236441865568,0.0000608992478394,0.9999999959623078,-0.0826266869944831,0.2432039531754743,0.0074618369155943,0.0033095001615112,-0.0021038210101510,-0.0027443634801243,-0.0006774275629978,0.0001537108848793,0.0003168487785832,,0.0034192999153591,0.0010579430106152,0.0064953994279523,0.0000345271351897,0.0005111463805106,-0.0000263829984575,0.9999998684205874,-0.0716438772364495,0.3044728703048402,-0.0026190585096938,0.0061334241181612,-0.0059950468130410,0.0181544125080109,-0.0012176220770925,0.0004556177300401,-0.0002580562722869,,0.0000000000000000,0.0000000000000000,
1559013414.3201606273651123,1.5660197734832764,,0.0040279307183895,-0.0040445349174221,-0.0023014072347508,-0.0000715382320475,-0.0000296025872663,0.0000630828288754,0.9999999950132624,-0.0837523599212048,0.2425215879234510,0.0077130346530195,0.0030878153290237,-0.0019627166822755,-0.0054393381869478,-0.0006779924293213,-0.0003807807191160,0.0005794125996434,,0.0034192999153591,0.0010579430106152,0.0064953994279523,0.0000345271351897,0.0005111463805106,-0.0000263829984575,0.9999998684205874,-0.0716438772364495,0.3044728703048402,-0.0026190585096938,0.0061334241181612,-0.0059950468130410,0.0181544125080109,-0.0012176220770925,0.0004556177300401,-0.0002580562722869,,0.0000000000000000,0.0000000000000000,
1559013414.3534808158874512,1.5993399620056152,,0.0041003504675898,-0.0040313003960751,-0.0024145495156419,-0.0000910614975461,-0.0000299671948638,0.0000644095491636,0.9999999933305905,-0.0859889154962855,0.2424801625563932,0.0078651917406353,0.0023694594198663,-0.0011236624303828,-0.0026910246020688,-0.0006691978814275,0.0006938310250019,-0.0007446067816095,,0.0057367386720548,0.0016183337584161,0.0098573301577264,0.0000261658727469,0.0004975904176237,-0.0000332114235218,0.9999998753080546,-0.0726057057987067,0.3029184345740711,-0.0034000292129137,0.0127253644168377,-0.0035268568899482,0.0208079684525728,-0.0005384065443650,-0.0007062302902341,-0.0015981659526005,,0.0000000000000000,0.0000000000000000,
1559013414.3868007659912109,1.6326599121093750,,0.0042028201962085,-0.0041483576585026,-0.0025193120904150,-0.0000992300947265,-0.0000328304299453,0.0000640970686555,0.9999999924835585,-0.0869251393439370,0.2421520698736930,0.0078298770143300,0.0022013517101162,-0.0033268995254025,-0.0000187172230136,-0.0004080057682760,0.0006910557240984,-0.0002094504176455,,0.0021895927776940,0.0029798482027788,-0.0017919951850399,0.0000030791525065,0.0005051542388313,-0.0000423319240284,0.9999998715088527,-0.0752563039453160,0.3037837185136449,-0.0044476326101652,-0.0012074953410774,0.0004014892037958,0.0003388677432667,0.0008526051533408,0.0004610072937794,-0.0004364303313196,,0.0000000000000000,0.0000000000000000,
1559013414.4201207160949707,1.6659798622131348,,0.0042354081266942,-0.0041515699483759,-0.0022910631378512,-0.0000969962937834,-0.0000320261654276,0.0000597531665459,0.9999999929978015,-0.0866712798065931,0.2422435105966333,0.0073319596960201,0.0020456184652613,-0.0038612900153661,-0.0014960481047339,-0.0006789874697225,-0.0001144730038309,0.0005812793177173,,0.0021895927776940,0.0029798482027788,-0.0017919951850399,0.0000030791525065,0.0005051542388313,-0.0000423319240284,0.9999998715088527,-0.0752563039453160,0.3037837185136449,-0.0044476326101652,-0.0012074953410774,0.0004014892037958,0.0003388677432667,0.0008526051533408,0.0004610072937794,-0.0004364303313196,,0.0000000000000000,0.0000000000000000,
1559013414.4534406661987305,1.6992998123168945,,0.0043165017624809,-0.0042823845746373,-0.0024087108552131,-0.0001049256444790,-0.0000413994078729,0.0000739548280155,0.9999999909036908,-0.0875730566362542,0.2411717882602810,0.0089609211494222,0.0030051715799777,-0.0039825631083480,-0.0065997868577482,-0.0004108301040220,-0.0019814022852530,0.0011033686996061,,-0.0014186147277336,0.0028985353920135,-0.0137229153900472,-0.0000057996978002,0.0005104819711338,-0.0000229059692081,0.9999998694249101,-0.0762630878852232,0.3043971376825290,-0.0022228761208905,-0.0113122472539544,-0.0013487567193806,-0.0224984772503376,0.0019746769685298,0.0005661716568284,0.0000881503365235,,0.0000000000000000,0.0000000000000000,
1559013414.4867608547210693,1.7326200008392334,,0.0043643685587429,-0.0041119516727475,-0.0025679142962771,-0.0001037691661534,-0.0000504238090778,0.0000820954394266,0.9999999899748693,-0.0874366475151935,0.2401389860993033,0.0098952391851594,0.0023764172155359,-0.0037285948212343,-0.0041548602657614,0.0003872155401712,-0.0003768725030366,0.0005896600723634,,-0.0014186147277336,0.0028985353920135,-0.0137229153900472,-0.0000057996978002,0.0005104819711338,-0.0000229059692081,0.9999998694249101,-0.0762630878852232,0.3043971376825290,-0.0022228761208905,-0.0113122472539544,-0.0013487567193806,-0.0224984772503376,0.0019746769685298,0.0005661716568284,0.0000881503365235,,0.0000000000000000,0.0000000000000000,
1559013414.5200808048248291,1.7659399509429932,,0.0044713906030607,-0.0042346826028207,-0.0026751623724389,-0.0001008601416252,-0.0000536238767417,0.0000790729654687,0.9999999903495890,-0.0871047938420504,0.2397717667315635,0.0095493902211365,0.0040280256636679,-0.0033880462581805,-0.0016905653948720,0.0001291432161083,0.0001622705936684,-0.0004743573533384,,-0.0014186147277336,0.0028985353920135,-0.0137229153900472,-0.0000057996978002,0.0005104819711338,-0.0000229059692081,0.9999998694249101,-0.0762630878852232,0.3043971376825290,-0.0022228761208905,-0.0113122472539544,-0.0013487567193806,-0.0224984772503376,0.0019746769685298,0.0005661716568284,0.0000881503365235,,0.0000000000000000,0.0000000000000000,
1559013414.5534007549285889,1.7992599010467529,,0.0046092001364577,-0.0042126683398741,-0.0025083309120071,-0.0000976054867888,-0.0000384570416363,0.0000693495636900,0.9999999920924314,-0.0867364502965041,0.2415081488034192,0.0084326804285139,0.0047654483068864,-0.0045010756067959,-0.0001754936338424,-0.0004166656325900,0.0009517348729302,0.0005913080163010,,0.0019871844674433,0.0011427158324406,0.0014052757964757,0.0000145126597581,0.0004981842610422,-0.0000104171448080,0.9999998757466462,-0.0739285600851628,0.3029898472145832,-0.0007887165253009,0.0037218257784843,-0.0071086878888309,0.0082138963043690,0.0013264474691823,-0.0008638858562335,-0.0011839268263429,,0.0000000000000000,0.0000000000000000,
1559013414.5867207050323486,1.8325798511505127,,0.0047879025419861,-0.0043378583675535,-0.0025324288048031,-0.0001082042846897,-0.0000203590408059,0.0000723614627029,0.9999999913205806,-0.0879493772530359,0.2435826015599849,0.0087749088896869,0.0055511219778313,-0.0041576601174635,-0.0022771616041112,-0.0004146755633181,0.0004191194546468,0.0005875745899914,,0.0020652066108007,0.0009959875257683,0.0015828023016906,0.0000327981342627,0.0004967082862369,-0.0000168803536144,0.9999998759600995,-0.0718367374209462,0.3028197834051907,-0.0015280938783045,0.0044686226174235,-0.0073079913854599,0.0093747563660145,0.0018572803819552,0.0001997409417527,-0.0008685792563483,,0.0000000000000000,0.0000000000000000,
1559013414.6200406551361084,1.8658998012542725,,0.0050169926714816,-0.0043984109123878,-0.0022613344582814,-0.0001067810161151,-0.0000109431236902,0.0000794442773052,0.9999999910833348,-0.0877827364898249,0.2446627301311604,0.0095850049556062,0.0046030153859005,-0.0046990326798699,-0.0033027298009670,-0.0001499334715420,0.0001519126210686,0.0008545669919103,,0.0047568128774480,0.0037095875125719,0.0024648328165501,0.0000356404946868,0.0005075731344468,-0.0000260096516513,0.9999998702113747,-0.0715160763899768,0.3040634651266995,-0.0025756846490801,0.0136421741917729,0.0022794245742261,0.0105858491733670,0.0010575925698504,0.0012645954266191,-0.0008035744540393,,0.0000000000000000,0.0000000000000000,
1559013414.6533608436584473,1.8992199897766113,,0.0051444418559670,-0.0045161308330676,-0.0023566961674336,-0.0001049172634347,-0.0000125800720962,0.0000822986495978,0.9999999910305210,-0.0875677801700955,0.2444755984701622,0.0099123592754338,0.0037748334024276,-0.0035662573191471,-0.0030827411037251,0.0001285783442201,-0.0003722210266467,-0.0002117935289105,,0.0048156837642820,0.0062237242223286,0.0038197723035811,0.0000351297156098,0.0005140273588113,-0.0000062339267155,0.9999998672514491,-0.0715637410734696,0.3048059729383173,-0.0003105032281870,0.0113962255418301,0.0109010646119714,0.0102634755894542,0.0009090397506952,-0.0008152950322255,-0.0005353579181246,,0.0000000000000000,0.0000000000000000,
1559013414.6866807937622070,1.9325399398803711,,0.0052989647773323,-0.0050400348553760,-0.0022592472426580,-0.0000979121627960,-0.0000184068810602,0.0000745976999748,0.9999999922547892,-0.0867688770797905,0.2438065799704899,0.0090308241007293,0.0042985931900555,-0.0046564036393468,-0.0026215495978706,0.0001209135295499,-0.0003778495744773,0.0005870982030028,,0.0052291259185608,0.0066394057520543,0.0041492087002540,0.0000389100275542,0.0005036717400379,-0.0000269764555915,0.9999998720365213,-0.0711419311843265,0.3036162666879023,-0.0026857110020908,0.0098902173340321,0.0114108640700579,0.0103509873151779,0.0004561709356494,0.0000499343514093,-0.0024497949052602,,0.0000000000000000,0.0000000000000000,
1559013414.7200007438659668,1.9658598899841309,,0.0054658793518600,-0.0051722557315783,-0.0023365472321419,-0.0000997601496831,-0.0000136430144761,0.0000769287077962,0.9999999919718773,-0.0869794605128638,0.2443528729759633,0.0092971696812551,0.0052636118373762,-0.0047198346793882,-0.0021337650756811,-0.0004182255154546,0.0006835509522291,0.0008557385214784,,0.0052291259185608,0.0066394057520543,0.0041492087002540,0.0000389100275542,0.0005036717400379,-0.0000269764555915,0.9999998720365213,-0.0711419311843265,0.3036162666879023,-0.0026857110020908,0.0098902173340321,0.0114108640700579,0.0103509873151779,0.0004561709356494,0.0000499343514093,-0.0024497949052602,,0.0000000000000000,0.0000000000000000,
1559013414.7533206939697266,1.9991798400878906,,0.0056934431721278,-0.0051144289248765,-0.0023946697869193,-0.0001067090297100,-0.0000086859909119,0.0000884486563115,0.9999999903572860,-0.0877700487637276,0.2449228481391679,0.0106164704370687,0.0062045981836326,-0.0049433185573398,-0.0034536882004647,-0.0009452894582013,-0.0001154501020580,0.0005787174133582,,0.0048463070129249,-0.0018530932854782,-0.0043371194688543,0.0000496536779303,0.0005462905973898,-0.0000412375629876,0.9999998487002679,-0.0699188675543722,0.3084979834910337,-0.0043255173052810,0.0092678898945451,-0.0197609998285770,-0.0056686224415898,0.0003229734138586,0.0009426797041669,0.0000063279644564,,0.0000000000000000,0.0000000000000000,
1559013414.7866406440734863,2.0324997901916504,,0.0058839173454395,-0.0052194100171056,-0.0024714615730470,-0.0000970900529145,0.0000015634240604,0.0000775619442496,0.9999999922776110,-0.0866730549240629,0.2460954799041534,0.0093672628608941,0.0052389512131142,-0.0024237128156072,-0.0020644237497115,0.0006684169919438,0.0004361609352378,-0.0012662586472582,,0.0048463070129249,-0.0018530932854782,-0.0043371194688543,0.0000496536779303,0.0005462905973898,-0.0000412375629876,0.9999998487002679,-0.0699188675543722,0.3084979834910337,-0.0043255173052810,0.0092678898945451,-0.0197609998285770,-0.0056686224415898,0.0003229734138586,0.0009426797041669,0.0000063279644564,,0.0000000000000000,0.0000000000000000,
1559013414.8199608325958252,2.0658199787139893,,0.0059777704140720,-0.0048539402603920,-0.0021788728581238,-0.0000784358576445,0.0000047606239248,0.0000652525616630,0.9999999947836280,-0.0845414762386775,0.2464597152757670,0.0079561915966205,0.0055224160905589,-0.0028277558556967,-0.0028700708649799,0.0009310343146904,-0.0006337213868610,-0.0004722718863490,,0.0018265234022796,0.0015953799455236,-0.0011554579264682,0.0000444837004642,0.0005729476672168,-0.0000262091427368,0.9999998345326123,-0.0705030742439686,0.3115548276295116,-0.0026075822996182,-0.0026890477165580,-0.0041862255893648,-0.0000044877328946,0.0005216741119511,0.0008985064923763,-0.0011142032453790,,0.0000000000000000,0.0000000000000000,
1559013414.8532807826995850,2.0991399288177490,,0.0061371976704638,-0.0049532919328468,-0.0022392969078426,-0.0000745480620468,0.0000044786284826,0.0000661344449312,0.9999999950243817,-0.0840955353956026,0.2464275127339501,0.0080572959942926,0.0051346863032361,-0.0028780057839474,-0.0015124467429536,-0.0004095657050940,0.0004228717661289,0.0000549801227059,,0.0035853931829597,0.0016109033633505,0.0015901379357438,0.0000526102442627,0.0005726425298447,-0.0000379765869908,0.9999998339352233,-0.0695783964641965,0.3115181782101862,-0.0039554728880048,0.0037116021849215,-0.0034948575776070,0.0057091480121017,0.0006449705688283,0.0007822083425708,0.0002719526237343,,0.0000000000000000,0.0000000000000000,
1559013414.8865907192230225,2.1324498653411865,,0.0063000171906846,-0.0050827658937311,-0.0023639415179458,-0.0000781836899450,0.0000095704138454,0.0000779536036842,0.9999999938594768,-0.0845062865869077,0.2470129071017323,0.0094108661625850,0.0037104037305894,-0.0028160769172227,-0.0015557889157482,-0.0012094667234808,0.0006862483034997,0.0000491612295609,,0.0045404922881018,0.0010672725907045,0.0060357796653052,0.0000506259437657,0.0005752212636053,-0.0000184199946330,0.9999998331090938,-0.0697948873717366,0.3118165138721259,-0.0017149266609181,0.0057761906646192,-0.0050965617410839,0.0126369763165712,0.0013868110254407,-0.0000644646570436,-0.0002140401920769,,0.0000000000000000,0.0000000000000000,
1559013414.9199106693267822,2.1657698154449463,,0.0064242681385271,-0.0051932373772138,-0.0024369283186574,-0.0000963854320050,0.0000111915713026,0.0000819789148940,0.9999999919320275,-0.0865900543757942,0.2471994930930537,0.0098718536368741,0.0039986090605091,-0.0038915345270279,-0.0017554242599833,-0.0004121206437833,0.0004209955850887,0.0003212773658901,,0.0018623154410093,0.0027256348443475,0.0001956494993356,0.0000609717752342,0.0005685389954785,-0.0000005049907428,0.9999998365227858,-0.0685993416432927,0.3110533887813620,0.0003396554353508,-0.0041805850341916,0.0011643896577880,0.0006084713968448,-0.0011163554154336,-0.0002244176284876,-0.0005613433313556,,0.0000000000000000,0.0000000000000000,
1559013414.9532308578491211,2.1990900039672852,,0.0065128532957694,-0.0052501329955607,-0.0022187807772150,-0.0000981702301479,0.0000091382747483,0.0000839841259535,0.9999999916128823,-0.0867936067040411,0.2469645451634105,0.0101019668247530,0.0041543809094856,-0.0040994478395372,-0.0015855974311918,0.0001214783804099,0.0001566419909193,0.0003245343914365,,0.0018623154410093,0.0027256348443475,0.0001956494993356,0.0000609717752342,0.0005685389954785,-0.0000005049907428,0.9999998365227858,-0.0685993416432927,0.3110533887813620,0.0003396554353508,-0.0041805850341916,0.0011643896577880,0.0006084713968448,-0.0011163554154336,-0.0002244176284876,-0.0005613433313556,,0.0000000000000000,0.0000000000000000,
1559013414.9865508079528809,2.2324099540710449,,0.0067313507057392,-0.0054068774101208,-0.0023062371376741,-0.0000959960533741,0.0000120764890897,0.0000812777297800,0.9999999920164234,-0.0865457730134514,0.2473007797872127,0.0097913601397246,0.0048008295602613,-0.0027825673601420,-0.0009477075092624,0.0001226081134011,0.0012256251664248,-0.0002005932609127,,0.0017819703080484,0.0027485697378166,0.0002144086046948,0.0000582800221329,0.0005613600279983,-0.0000004010503061,0.9999998407390859,-0.0689077309125702,0.3102307548704150,0.0003524282589109,-0.0039354576729238,0.0009255666518584,0.0008877887739800,-0.0007359915180132,0.0003025436890312,0.0002885470166802,,0.0000000000000000,0.0000000000000000,
1559013415.0198707580566406,2.2657299041748047,,0.0068146856530407,-0.0049811518581659,-0.0023798747531451,-0.0000922241509717,0.0000144341123161,0.0000875272337121,0.9999999918126730,-0.0861104404306452,0.2475719183849482,0.0105071306491239,0.0060839740883737,-0.0029029675958500,-0.0032535655404687,0.0006550774043706,-0.0001077116240317,0.0003277914139732,,0.0017819703080484,0.0027485697378166,0.0002144086046948,0.0000582800221329,0.0005613600279983,-0.0000004010503061,0.9999998407390859,-0.0689077309125702,0.3102307548704150,0.0003524282589109,-0.0039354576729238,0.0009255666518584,0.0008877887739800,-0.0007359915180132,0.0003025436890312,0.0002885470166802,,0.0000000000000000,0.0000000000000000,
1559013415.0531907081604004,2.2990498542785645,,0.0070154279799763,-0.0051227840925252,-0.0024793756197767,-0.0000974577693783,0.0000144670318542,0.0000958136022236,0.9999999905562209,-0.0867060793595349,0.2475770876135645,0.0114566723801731,0.0052116882263161,-0.0033271105207090,-0.0021026089685813,0.0001265882172009,0.0001603943398580,-0.0002080600806978,,0.0028302361133023,0.0011308112806345,-0.0055005617195409,0.0000614221750839,0.0005673859537669,0.0000062026473458,0.9999998371309983,-0.0685439934837356,0.3109222268541514,0.0011085002659068,0.0022205500863492,-0.0049788719043136,-0.0089428108185530,-0.0010673586511984,-0.0010183617705479,-0.0010928818956017,,0.0000000000000000,0.0000000000000000,
1559013415.0865106582641602,2.3323698043823242,,0.0071721953137565,-0.0051210826264490,-0.0024905835409298,-0.0000931477783568,0.0000153543186811,0.0000834617332981,0.9999999920609376,-0.0862182784692214,0.2476767177850091,0.0100411043349294,0.0049128348303742,-0.0021311555210152,-0.0023621744691347,-0.0003963608849047,-0.0003685466414420,-0.0010158089671095,,0.0029519888838059,0.0008384119710609,-0.0059934795015772,0.0000581090590179,0.0005500910080263,-0.0000013667004831,0.9999998470106645,-0.0689278484126669,0.3089392815590514,0.0002433889468124,0.0020987750031054,-0.0055223274976015,-0.0086310729384422,-0.0007987834396772,0.0002558300329838,-0.0004012739227619,,0.0000000000000000,0.0000000000000000,
1559013415.1198308467864990,2.3656899929046631,,0.0073160545168571,-0.0052234143408556,-0.0025562709539489,-0.0001026200228846,0.0000150347596851,0.0000828741542362,0.9999999911874808,-0.0873040106472579,0.2476400939411687,0.0099738074183776,0.0048713997697408,-0.0022328728715269,-0.0022152366485355,-0.0001371588444252,0.0001612934707672,-0.0004769192087257,,0.0051925544355761,0.0023813793912971,-0.0010522355678721,0.0000469439347328,0.0005700122294068,-0.0000046649478309,0.9999998364302685,-0.0702091373472664,0.3112216003752460,-0.0001381758148190,0.0089325234293938,0.0004224320291542,0.0012637828476727,-0.0005778026534244,-0.0005969690391794,-0.0000826702453196,,0.0000000000000000,0.0000000000000000,
1559013415.1531507968902588,2.3990099430084229,,0.0074974140824622,-0.0051100293724427,-0.0026236554089261,-0.0001038667900486,0.0000204459023215,0.0000892280909577,0.9999999904160014,-0.0874436920912573,0.2482612120378647,0.0107010368923906,0.0047643183845028,-0.0022857566172859,-0.0028171876248764,0.0001240332733217,0.0001585181623453,0.0000582371468150,,0.0045112719021584,0.0024116991237641,-0.0023282875840601,0.0000437592867711,0.0005660070270210,0.0000077071153321,0.9999998388308723,-0.0705671796930517,0.3107644445694721,0.0012799550679791,0.0062053748406470,0.0001340691669611,-0.0019715272355825,-0.0001328795624431,-0.0017238758737221,0.0011393750319257,,0.0000000000000000,0.0000000000000000,
1559013415.1864707469940186,2.4323298931121826,,0.0076743776637296,-0.0052069662696835,-0.0027370456729161,-0.0001130092050818,0.0000124955945115,0.0000900651973524,0.9999999894805200,-0.0884909985068627,0.2473504055693770,0.0107982455836671,0.0046716123368894,-0.0008712503182129,-0.0024755024883722,0.0001362430794560,-0.0003665925198516,-0.0010106852478791,,0.0046368757536828,0.0024083626879825,-0.0023725760559474,0.0000458798311537,0.0005587346913442,0.0000202892320099,0.9999998426494540,-0.0703171895108751,0.3099329308591345,0.0027229777647251,0.0063844979740679,-0.0001243474544026,-0.0025399073492736,-0.0001940629445016,0.0010972442105412,0.0014111992204562,,0.0000000000000000,0.0000000000000000,
1559013415.2197906970977783,2.4656498432159424,,0.0077315906404467,-0.0051343311092291,-0.0026237147483641,-0.0001204870384507,0.0000121856004059,0.0000888262500082,0.9999999887221409,-0.0893485092101907,0.2473147557699255,0.0106563117964950,0.0042565307402489,-0.0031738608072967,-0.0007330954377614,-0.0001442588108544,0.0006901565239756,0.0000594086990094,,0.0046368757536828,0.0024083626879825,-0.0023725760559474,0.0000458798311537,0.0005587346913442,0.0000202892320099,0.9999998426494540,-0.0703171895108751,0.3099329308591345,0.0027229777647251,0.0063844979740679,-0.0001243474544026,-0.0025399073492736,-0.0001940629445016,0.0010972442105412,0.0014111992204562,,0.0000000000000000,0.0000000000000000,
1559013415.2531106472015381,2.4989697933197021,,0.0079077125356017,-0.0052369368105121,-0.0026876031669142,-0.0001156523073516,0.0000196601301500,0.0000899070980195,0.9999999890773684,-0.0887938849991121,0.2481714013224132,0.0107789473668000,0.0054521481821161,-0.0031414927970335,-0.0029767124457077,0.0001214783023719,0.0001566419776996,0.0003245343909159,,0.0036304880783306,0.0051519430538680,-0.0003610028637882,0.0000409396240160,0.0005788687692688,0.0000372948730190,0.9999998309219795,-0.0708737745339409,0.3122426262887678,0.0046684425669311,0.0018805343424901,0.0090315490961075,0.0019654412753880,-0.0017144266748801,0.0002639917656779,-0.0012922289315611,,0.0000000000000000,0.0000000000000000,
1559013415.2864308357238770,2.5322899818420410,,0.0081078781554191,-0.0051832363269112,-0.0026167713634149,-0.0001150146103998,0.0000181008056261,0.0000800552354472,0.9999999900175798,-0.0887256912044310,0.2479910911753395,0.0096502552422979,0.0066492260617638,-0.0015408572681008,-0.0047205155515987,-0.0003979208257046,-0.0006367305287569,-0.0007513784491176,,0.0036304880783306,0.0051519430538680,-0.0003610028637882,0.0000409396240160,0.0005788687692688,0.0000372948730190,0.9999998309219795,-0.0708737745339409,0.3122426262887678,0.0046684425669311,0.0018805343424901,0.0090315490961075,0.0019654412753880,-0.0017144266748801,0.0002639917656779,-0.0012922289315611,,0.0000000000000000,0.0000000000000000,
1559013415.3197507858276367,2.5656099319458008,,0.0083067331581284,-0.0052839267399289,-0.0027209406462441,-0.0001128800695904,0.0000282290709432,0.0000831380174729,0.9999999897746398,-0.0884794789276282,0.2491521897758126,0.0100018621536865,0.0054266352921816,-0.0024211199255969,-0.0028455782808062,0.0003918951246725,0.0004276790882702,-0.0002036315132274,,0.0024622045541892,0.0033692700341506,0.0010831382365003,0.0000311932746903,0.0005793344129262,0.0000361975982775,0.9999998310441615,-0.0719912381284506,0.3122958639970193,0.0045419871211058,-0.0010414639255032,0.0009290307061747,0.0048048202879727,0.0009482172317803,0.0003190914285369,-0.0010488524567336,,0.0000000000000000,0.0000000000000000,
1559013415.3530707359313965,2.5989298820495605,,0.0083822551243156,-0.0053602629520536,-0.0024227883483248,-0.0000972901335454,0.0000263831262750,0.0000815742570821,0.9999999915921006,-0.0866937937529687,0.2489402581570568,0.0098230170261210,0.0049898749689784,-0.0023021658964380,-0.0018730412571998,0.0006581971188662,0.0004286561450688,-0.0002010696456288,,-0.0009817813704339,-0.0000302048205232,-0.0113073154465510,0.0000366397794939,0.0005790403470259,0.0000539893675716,0.9999998302274612,-0.0713571827692653,0.3122647584925159,0.0065812067841531,-0.0103610353544354,-0.0106029035523534,-0.0180826224386692,0.0003542889317032,0.0002166567428503,-0.0017341335769743,,0.0000000000000000,0.0000000000000000,
1559013415.3863906860351562,2.6322498321533203,,0.0085564603151196,-0.0054553102553245,-0.0025415040712781,-0.0001007441542533,0.0000153633408091,0.0000849809335957,0.9999999911964120,-0.0870880091326756,0.2476780713477390,0.0102151783814381,0.0054080366267562,-0.0022596747049510,-0.0027350241673761,-0.0004070108575057,0.0004247478758203,-0.0002113171308283,,-0.0014185691403290,-0.0004501569395737,-0.0120030723032950,0.0000434684384757,0.0005856383472689,0.0000345169022151,0.9999998269733873,-0.0705855220237378,0.3130179456839972,0.0043492845201148,-0.0107360417023301,-0.0110346311703324,-0.0169592592865229,-0.0017026001587510,0.0004706384497695,-0.0002738574403338,,0.0000000000000000,0.0000000000000000,
1559013415.4197106361389160,2.6655697822570801,,0.0086115046265081,-0.0054333802616403,-0.0027520750897936,-0.0001069024534688,0.0000224233845051,0.0000831336694183,0.9999999905789252,-0.0877945478310548,0.2484868501628206,0.0100023316189036,0.0054403506654130,-0.0015023026220069,-0.0036010100824628,-0.0006682029752526,0.0004275231842421,-0.0007464734863691,,0.0003574812231935,0.0003619826310008,-0.0030307031033011,0.0000280967192277,0.0006463813474378,0.0000294119631035,0.9999997902683102,-0.0723496947302187,0.3199778806545092,0.0037542767039110,-0.0030758511275053,-0.0073704370297492,-0.0008689275127836,-0.0003743243869394,0.0005830600857735,-0.0002860996755771,,0.0000000000000000,0.0000000000000000,
1559013415.4530308246612549,2.6988899707794189,,0.0088036052097453,-0.0055070199630840,-0.0028787407260007,-0.0001059937244195,0.0000245819222169,0.0000774550387856,0.9999999910808883,-0.0876932050557882,0.2487332644919987,0.0093512530041602,0.0050080583354193,-0.0015414962831358,-0.0025230381239670,0.0003970049899065,0.0004314314287846,-0.0007362260236912,,0.0032467484218093,0.0019975254871323,0.0013584030478750,0.0000208630925172,0.0006477631435398,0.0000398047980743,0.9999997891915874,-0.0731727237161890,0.3201377922878259,0.0049444838312599,0.0078006898984313,-0.0011601021979004,0.0067432597279549,-0.0003846271429211,-0.0008461753022857,-0.0015661191428080,,0.0000000000000000,0.0000000000000000,
1559013415.4863507747650146,2.7322099208831787,,0.0089279178175992,-0.0051934072165904,-0.0026828491039831,-0.0001061414765309,0.0000189372877147,0.0000769315848018,0.9999999912284487,-0.0877104408941908,0.2480863535353383,0.0092921902120306,0.0063763055544145,-0.0018717671500145,-0.0043276037651897,0.0003978653282944,-0.0011701671830360,-0.0002148317936529,,0.0032467484218093,0.0019975254871323,0.0013584030478750,0.0000208630925172,0.0006477631435398,0.0000398047980743,0.9999997891915874,-0.0731727237161890,0.3201377922878259,0.0049444838312599,0.0078006898984313,-0.0011601021979004,0.0067432597279549,-0.0003846271429211,-0.0008461753022857,-0.0015661191428080,,0.0000000000000000,0.0000000000000000,
