#Time(sec),Dtime(sec),,x(m),y(m),z(m),qx,qy,qz,qw,roll_x_G(deg),pitch_y_G(deg),yaw_z_G(deg),vx(m/s),vy(m/s),vz(m/s),wx(rad/s),wy(rad/s),wz(rad/s),,gt_x(m),gt_y(m),gt_z(m),gt_qx,gt_qy,gt_qz,gt_qw,gt_groll_x_G(deg),gt_pitch_y_G(deg),gt_yaw_z_G(deg),gt_vx(m/s),gt_vy(m/s),gt_vz(m/s),gt_wx(rad/s),gt_wy(rad/s),gt_wz(rad/s),,Sr,Sr_avg,
1559013412.7541408538818359,0.0000000000000000,,0.0000000000000002,0.0000000000000001,-0.0000000000000001,0.0000000000000000,-0.0000000000000001,0.0000000000000000,1.0000000000000000,-0.0755855138669150,0.2459037397968158,0.0004794994091153,0.0000000000000000,0.0000000000000000,0.0000000000000000,0.0000000000000000,0.0000000000000000,0.0000000000000000,,0.0000000000000000,0.0000000000000000,0.0000000000000000,0.0000000000000000,0.0000000000000000,0.0000000000000000,1.0000000000000000,-0.0755855138669150,0.2459037397968215,0.0004794994091152,-0.0098102642223239,-0.0059528849087656,-0.0021041124127805,0.0008114594966173,-0.0000641869410174,-0.0007574954070151,,0.0000000000000000,0.0000000000000000,
1559013412.7874608039855957,0.0333199501037598,,0.0000000000000002,0.0000000000000001,-0.0000000000000001,0.0000000000000000,-0.0000000000000001,0.0000000000000000,1.0000000000000000,-0.0755855138669150,0.2459037397968158,0.0004794994091153,0.0000000000000000,0.0000000000000000,0.0000000000000000,0.0000000000000000,0.0000000000000000,0.0000000000000000,,0.0000000000000000,0.0000000000000000,0.0000000000000000,0.0000000000000000,0.0000000000000000,0.0000000000000000,1.0000000000000000,-0.0755855138669150,0.2459037397968215,0.0004794994091152,-0.0098102642223239,-0.0059528849087656,-0.0021041124127805,0.0008114594966173,-0.0000641869410174,-0.0007574954070151,,0.0000000000000000,0.0000000000000000,
1559013412.8207807540893555,0.0666399002075195,,0.0000219726581638,-0.0000260111889973,-0.0000459141663904,-0.0000208610050351,-0.0000137221306289,-0.0000034844792411,0.9999999996821901,-0.0779777081630646,0.2443307657790641,0.0000823114382821,0.0005549145090711,-0.0009140744155948,-0.0007645881653806,-0.0006713226546122,-0.0001088443910840,-0.0002176123651700,,0.0000000000000000,0.0000000000000000,0.0000000000000000,0.0000000000000000,0.0000000000000000,0.0000000000000000,1.0000000000000000,-0.0755855138669150,0.2459037397968215,0.0004794994091152,-0.0098102642223239,-0.0059528849087656,-0.0021041124127805,0.0008114594966173,-0.0000641869410174,-0.0007574954070151,,0.0000000000000000,0.0000000000000000,
1559013412.8541007041931152,0.0999598503112793,,0.0000608926743231,-0.0000640802948601,-0.0001140602429562,-0.0000373096937066,-0.0000189844924195,-0.0000087132854731,0.9999999990858274,-0.0798651435414091,0.2437269247291102,-0.0005160265755550,0.0011061855532015,-0.0033799717536283,-0.0017536299372295,-0.0014824384616985,0.0004133351236126,0.0008436244272202,,0.0026245542083911,0.0026448552001494,-0.0084863851899029,-0.0000333937179824,0.0001718520074773,-0.0000101301488424,0.9999999846245635,-0.0794174526191618,0.2655949411350161,-0.0007079784706163,0.0011400097282603,-0.0002242026966996,-0.0186141021549702,-0.0007273238734342,-0.0001038627669914,-0.0002373664610786,,0.0000000000000000,0.0000000000000000,
1559013412.8874206542968750,0.1332798004150391,,0.0001262903034411,-0.0001468154741993,-0.0002142065874932,-0.0000378024141703,-0.0000235806923088,-0.0000050935236011,0.9999999989944923,-0.0799198270708824,0.2432008019201591,-0.0001005132246582,0.0021184657892204,-0.0024107857097970,-0.0026184181863062,0.0001285783637746,-0.0003722209284548,-0.0002117934720251,,0.0026245542083911,0.0026448552001494,-0.0084863851899029,-0.0000333937179824,0.0001718520074773,-0.0000101301488424,0.9999999846245635,-0.0794174526191618,0.2655949411350161,-0.0007079784706163,0.0011400097282603,-0.0002242026966996,-0.0186141021549702,-0.0007273238734342,-0.0001038627669914,-0.0002373664610786,,0.0000000000000000,0.0000000000000000,
1559013412.9207408428192139,0.1665999889373779,,0.0001876071963411,-0.0002485065635448,-0.0002723575101359,-0.0000332340376668,-0.0000278667317498,-0.0000049033733097,0.9999999990474505,-0.0793962315090670,0.2427096905476230,-0.0000780715043153,0.0016332172232536,-0.0030002443095807,-0.0000183282768429,0.0009260591413560,0.0006978172556181,-0.0004629382745979,,0.0013044971720459,0.0006642558835833,-0.0097306379038952,-0.0000438730574526,0.0002087906767953,-0.0000009822662857,0.9999999772403214,-0.0806136494002281,0.2698292134783979,0.0003343256994272,-0.0023964915890247,-0.0079505480825901,-0.0198433436453342,0.0003404117596801,-0.0015395777300000,-0.0001423610374331,,0.0000000000000000,0.0000000000000000,
1559013412.9540607929229736,0.1999199390411377,,0.0002510355284044,-0.0003552317527220,-0.0002739830334416,-0.0000129934686530,-0.0000142844809747,-0.0000089746469803,0.9999999997732896,-0.0770788454877928,0.2442654901962383,-0.0005467471256826,0.0015572095440772,-0.0016274100853720,0.0003069651755764,0.0011929260021615,0.0012332859105604,-0.0007229402316692,,0.0013044971720459,0.0006642558835833,-0.0097306379038952,-0.0000438730574526,0.0002087906767953,-0.0000009822662857,0.9999999772403214,-0.0806136494002281,0.2698292134783979,0.0003343256994272,-0.0023964915890247,-0.0079505480825901,-0.0198433436453342,0.0003404117596801,-0.0015395777300000,-0.0001423610374331,,0.0000000000000000,0.0000000000000000,
1559013412.9873807430267334,0.2332398891448975,,0.0003049992330981,-0.0004089312959995,-0.0003164140705479,-0.0000144173017045,-0.0000098617901226,-0.0000141313640163,0.9999999997475956,-0.0772445424394733,0.2447715032002950,-0.0011383418386656,0.0011389741805766,-0.0019570558982999,-0.0014499054642399,-0.0004121206084769,0.0004209957160276,0.0003212774096721,,0.0018857590854552,-0.0013061177091510,-0.0060609667982342,-0.0000362485746485,0.0002088160531889,0.0000027108259949,0.9999999775372739,-0.0797380425351669,0.2698326961289798,0.0007577056763264,-0.0000950830581132,-0.0141929863020778,-0.0110827842727304,0.0008529586484656,0.0008104145526886,-0.0009446555632167,,0.0000000000000000,0.0000000000000000,
1559013413.0207006931304932,0.2665598392486572,,0.0003431363790865,-0.0004716913804853,-0.0004165912864769,-0.0000362799963632,-0.0000178833168929,-0.0000100745123364,0.9999999991312265,-0.0797478174257171,0.2438528996089663,-0.0006721862495950,0.0008971832518353,-0.0020463925252434,-0.0023451758404527,-0.0009427345252527,-0.0001135738131031,0.0003124202551737,,0.0018767528659337,-0.0015868478416372,-0.0062711862608355,-0.0000291626588616,0.0002160709066437,-0.0000033503031968,0.9999999762258388,-0.0789291896576434,0.2706631018623400,0.0000621929295683,-0.0001832428679336,-0.0139995729550719,-0.0103720519691706,-0.0000324573375110,0.0006396181997843,0.0005033669876866,,0.0000000000000000,0.0000000000000000,
1559013413.0540206432342529,0.2998797893524170,,0.0003903418709308,-0.0005530731092706,-0.0004847153840386,-0.0000454537236579,-0.0000198192877273,-0.0000091906053814,0.9999999987283439,-0.0807986128321173,0.2436311815676687,-0.0005705755700852,0.0017486898863368,-0.0027608805572256,-0.0017974615562203,0.0003923254197449,-0.0003731200542663,0.0000570656395446,,-0.0012296630497877,0.0025351477552150,0.0010995718084875,-0.0000417926695341,0.0002369557506546,0.0000081066828663,0.9999999710198130,-0.0803705614379537,0.2730581080783792,0.0013715104470487,-0.0104640517383814,0.0027693663723767,0.0022680787369609,-0.0004222550487611,-0.0009954593842849,-0.0014647236093879,,0.0000000000000000,0.0000000000000000,
1559013413.0873408317565918,0.3331999778747559,,0.0004234376276995,-0.0005968280174768,-0.0004864243126615,-0.0000408711661800,-0.0000194033377530,-0.0000116516619865,0.9999999989086485,-0.0802746960762903,0.2436784670998458,-0.0008526694191591,0.0017238286118477,-0.0031879931277754,-0.0011782392839545,0.0001260234255512,-0.0003740971110650,0.0000545037719461,,-0.0012296630497877,0.0025351477552150,0.0010995718084875,-0.0000417926695341,0.0002369557506546,0.0000081066828663,0.9999999710198130,-0.0803705614379537,0.2730581080783792,0.0013715104470487,-0.0104640517383814,0.0027693663723767,0.0022680787369609,-0.0004222550487611,-0.0009954593842849,-0.0014647236093879,,0.0000000000000000,0.0000000000000000,
1559013413.1206507682800293,0.3665099143981934,,0.0004874924910367,-0.0007133618860011,-0.0005478027279948,-0.0000410329624150,-0.0000277650669808,-0.0000041844997990,0.9999999987639435,-0.0802895712127297,0.2427214481690688,0.0000043150579248,0.0027629388363658,-0.0047810658877868,-0.0033736027602617,0.0001177937450995,-0.0009142172565869,0.0011159593238595,,0.0030802988584500,0.0012210024314830,-0.0004229099459523,-0.0000380366311522,0.0002537059910602,0.0000099031762481,0.9999999670442055,-0.0799392118169074,0.2749778185721677,0.0015748725432740,0.0080886157229543,-0.0046372590586543,0.0003316676011309,0.0006035095429979,0.0012304764240980,0.0005028592422605,,0.0000000000000000,0.0000000000000000,
1559013413.1539707183837891,0.3998298645019531,,0.0005986543950838,-0.0008540554553119,-0.0007336106993545,-0.0000265381048574,-0.0000211866132544,-0.0000015460284817,0.9999999994222332,-0.0786272993223055,0.2434756965344722,0.0003056034159835,0.0026062703454708,-0.0025229685897831,-0.0020240858076663,0.0006597571479926,0.0006968401992719,-0.0004655001468661,,0.0032453695944055,0.0011196545295340,-0.0004223351860165,-0.0000312984294318,0.0002538822486879,0.0000161588989184,0.9999999671515505,-0.0791638111367561,0.2749989768490645,0.0022919017707144,0.0086654815822840,-0.0050508026033640,-0.0003003584279213,0.0014034562045708,-0.0017996052047238,-0.0003075636050198,,0.0000000000000000,0.0000000000000000,
1559013413.1872906684875488,0.4331498146057129,,0.0006699066880858,-0.0009346392807270,-0.0007895447998202,-0.0000239243023389,-0.0000153890804876,-0.0000099969096897,0.9999999995454328,-0.0783319257777606,0.2441387439640974,-0.0006637028304877,0.0014379876726828,-0.0019480194352412,0.0001402281486666,0.0001302729644756,0.0012312538768759,-0.0009994849524108,,0.0013478617317312,-0.0004518229437852,-0.0013976802776655,-0.0000246459546194,0.0002681865419008,0.0000255574753046,0.9999999634076848,-0.0783965656774342,0.2766395617677425,0.0033669018166226,0.0007125074043870,-0.0091187050566077,-0.0018309132428840,0.0003798581601586,0.0003849489730783,-0.0005071038613096,,0.0000000000000000,0.0000000000000000,
1559013413.2206108570098877,0.4664700031280518,,0.0007273014254781,-0.0008844277687323,-0.0007325750314129,-0.0000182412992373,-0.0000186754735453,-0.0000192785454005,0.9999999994734097,-0.0776852406223879,0.2437607352451680,-0.0017268149282529,0.0022523983850853,-0.0001386480759320,-0.0023642677113803,0.0012059961659200,-0.0008934233754528,-0.0012704684031932,,0.0013478617317312,-0.0004518229437852,-0.0013976802776655,-0.0000246459546194,0.0002681865419008,0.0000255574753046,0.9999999634076848,-0.0783965656774342,0.2766395617677425,0.0033669018166226,0.0007125074043870,-0.0091187050566077,-0.0018309132428840,0.0003798581601586,0.0003849489730783,-0.0005071038613096,,0.0000000000000000,0.0000000000000000,
1559013413.2539308071136475,0.4997899532318115,,0.0008159871998989,-0.0010072704690158,-0.0008246689068360,-0.0000074805847832,-0.0000191322867171,-0.0000098929140174,0.9999999997400635,-0.0764475570419107,0.2437098391138395,-0.0006512456156109,0.0023044432497006,-0.0030302259432814,-0.0029517723595236,-0.0001473785159776,0.0001537888844744,0.0005882698133834,,-0.0003187015053108,0.0000959066590073,-0.0209231593457670,-0.0000160718343075,0.0002776230263452,0.0000108136414350,0.9999999612751075,-0.0774217422934056,0.2777186218234659,0.0016761845038021,-0.0058840299025178,-0.0058508231304586,-0.0372426919639111,0.0013397382572293,0.0005982400616631,-0.0003023762255907,,0.0000000000000000,0.0000000000000000,
1559013413.2872507572174072,0.5331099033355713,,0.0008910601210208,-0.0010864147966145,-0.0009088288028839,-0.0000056884646125,-0.0000201548901116,0.0000003036855337,0.9999999997806649,-0.0762372021699715,0.2435942076502109,0.0005173594920118,0.0028361071334895,-0.0024604451693978,-0.0030127185174676,0.0006566373430503,0.0001604724200908,0.0000633609282367,,-0.0003187015053108,0.0000959066590073,-0.0209231593457670,-0.0000160718343075,0.0002776230263452,0.0000108136414350,0.9999999612751075,-0.0774217422934056,0.2777186218234659,0.0016761845038021,-0.0058840299025178,-0.0058508231304586,-0.0372426919639111,0.0013397382572293,0.0005982400616631,-0.0003023762255907,,0.0000000000000000,0.0000000000000000,
1559013413.3205707073211670,0.5664298534393311,,0.0009925632630896,-0.0012030835986220,-0.0010031170070026,-0.0000014850261512,-0.0000206997805785,0.0000006545165365,0.9999999997844427,-0.0757553516031284,0.2435318207924206,0.0005576348485185,0.0028786664622348,-0.0036594072556937,-0.0020704637763042,0.0001275833293847,-0.0001059132194715,-0.0002099267705830,,-0.0005509754171336,-0.0001456836824130,-0.0224293881837500,-0.0000085451778506,0.0002747311364235,0.0000002491187608,0.9999999622248595,-0.0765647796794137,0.2773856195816288,0.0004662457421669,-0.0052228411659598,-0.0065887318924069,-0.0385861136019230,-0.0007309849024750,-0.0003088524681516,-0.0003365832380950,,0.0000000000000000,0.0000000000000000,
1559013413.3538906574249268,0.5997498035430908,,0.0010972593708420,-0.0014137886500399,-0.0010377282302915,0.0000043933919415,-0.0000162810719385,0.0000009099533761,0.9999999998573984,-0.0750816119201166,0.2440382050933508,0.0005862262920961,0.0023063398863523,-0.0042546614924076,-0.0012345934760252,0.0006530873697138,0.0004249039444387,0.0003315248718576,,0.0034269625326508,0.0011286720590091,-0.0090409392735334,-0.0000107213567495,0.0003332832900764,0.0000064883889218,0.9999999443825994,-0.0768108869699027,0.2840961473448347,0.0011722296041699,0.0091384267434478,-0.0020928373560309,-0.0114530222490430,0.0010196233633906,0.0007099295035005,-0.0002983235754073,,0.0000000000000000,0.0000000000000000,
1559013413.3872108459472656,0.6330699920654297,,0.0011817240652858,-0.0015591635019851,-0.0011070376703762,0.0000078473694461,-0.0000121961730822,0.0000079802303578,0.9999999998629941,-0.0746823501103144,0.2445073616825585,0.0013958067445471,0.0025605734485580,-0.0044125619060415,-0.0033247436935475,-0.0001479433812656,-0.0003807027096338,0.0008508336235823,,0.0040371625405149,0.0010407715328566,-0.0011724512895224,0.0000182179897012,0.0003403120708404,-0.0000080441169780,0.9999999418955441,-0.0735023907927335,0.2848993990187070,-0.0004930345491329,0.0076945354230702,-0.0024773650802672,0.0028743059374392,0.0014570327475667,-0.0012100221356377,0.0000713423796697,,0.0000000000000000,0.0000000000000000,
1559013413.4205307960510254,0.6663899421691895,,0.0012610328565830,-0.0016601767100312,-0.0011327677057805,-0.0000012825983419,-0.0000167952751858,0.0000061573775882,0.9999999998391802,-0.0757294615306091,0.2439800764099556,0.0011876301381186,0.0025338313134464,-0.0042015165028913,-0.0041832330211917,-0.0001469483454598,-0.0006470104174004,0.0008489669139317,,0.0028244609372718,-0.0020864745447010,-0.0040981470072898,0.0000272535559166,0.0003338402301539,-0.0000050454464155,0.9999999438912424,-0.0724653892738492,0.2841582340357628,-0.0001480977271716,0.0034915832802653,-0.0125113883987069,-0.0027146551292390,0.0007540810620412,0.0003361692652106,-0.0002933166106232,,0.0000000000000000,0.0000000000000000,
1559013413.4538507461547852,0.6997098922729492,,0.0013444589030938,-0.0017564975576783,-0.0012541867317235,-0.0000100271493904,-0.0000277924131730,0.0000034956415210,0.9999999995574093,-0.0767328144370485,0.2427194991054253,0.0008843070397099,0.0031062975026150,-0.0022222477025392,-0.0041003730628472,0.0001356783143145,-0.0009010839794919,-0.0007481214005383,,0.0028244609372718,-0.0020864745447010,-0.0040981470072898,0.0000272535559166,0.0003338402301539,-0.0000050454464155,0.9999999438912424,-0.0724653892738492,0.2841582340357628,-0.0001480977271716,0.0034915832802653,-0.0125113883987069,-0.0027146551292390,0.0007540810620412,0.0003361692652106,-0.0002933166106232,,0.0000000000000000,0.0000000000000000,
1559013413.4871706962585449,0.7330298423767090,,0.0014500507617370,-0.0017396415813179,-0.0013594295927023,0.0000029372484622,-0.0000222055475959,-0.0000060439178736,0.9999999997308786,-0.0752518727602066,0.2433582620344364,-0.0002097388191124,0.0034302201638214,-0.0046261845363761,-0.0027026235876309,0.0001189234799744,0.0001547659385237,0.0005908316579199,,0.0028244609372718,-0.0020864745447010,-0.0040981470072898,0.0000272535559166,0.0003338402301539,-0.0000050454464155,0.9999999438912424,-0.0724653892738492,0.2841582340357628,-0.0001480977271716,0.0034915832802653,-0.0125113883987069,-0.0027146551292390,0.0007540810620412,0.0003361692652106,-0.0002933166106232,,0.0000000000000000,0.0000000000000000,
1559013413.5204906463623047,0.7663497924804688,,0.0015780298608326,-0.0018943198150828,-0.0014637924464943,0.0000037036293285,-0.0000214918684006,0.0000036418081247,0.9999999997555601,-0.0751593132621465,0.2434415042047468,0.0009000631404127,0.0038150082465299,-0.0054428057089709,-0.0033804933870657,0.0003785556952145,-0.0001161932510264,0.0013904185549239,,0.0009705727291415,0.0016289898501757,-0.0079331041607371,0.0000413433631328,0.0003589990839138,-0.0000095545487231,0.9999999346595452,-0.0708532497001342,0.2870405726501778,-0.0006679541082759,-0.0035913039464504,0.0022433528210968,-0.0086488155648112,-0.0000468759790238,-0.0001395221770508,-0.0007117160712369,,0.0000000000000000,0.0000000000000000,
1559013413.5538108348846436,0.7996699810028076,,0.0016793845681413,-0.0020613671716099,-0.0015656458038464,0.0000041225582283,-0.0000292369462941,0.0000197869751545,0.9999999993683406,-0.0751034195130244,0.2425564171127575,0.0027513441027380,0.0034982625384093,-0.0056061928986782,-0.0038661636413683,0.0006458527252139,-0.0003815239019945,0.0013911137128717,,0.0009049911250469,0.0016716632260573,-0.0081049924384131,0.0000501230371511,0.0003626649995588,-0.0000170555534951,0.9999999328354414,-0.0698511788821507,0.2874595744438982,-0.0015276880078354,-0.0032216487452388,0.0018814789364114,-0.0086492393165827,0.0019662324339151,0.0004521511436906,-0.0012100221356377,,0.0000000000000000,0.0000000000000000,
1559013413.5871307849884033,0.8329899311065674,,0.0017895839919839,-0.0022032840945759,-0.0016681640814146,0.0000116322034247,-0.0000291244930619,0.0000235142149235,0.9999999992317687,-0.0742410568069134,0.2425698446354808,0.0031784157960870,0.0025134545574307,-0.0034458334825615,-0.0014083791254772,0.0011872512626075,0.0006950419601614,0.0000722180544644,,0.0008416231557927,0.0017042349993819,-0.0082787919112038,0.0000540832522323,0.0003709936414145,-0.0000274513881228,0.9999999293425681,-0.0694029478739007,0.2884124663842267,-0.0027200200000634,-0.0031365249305964,0.0013117705238983,-0.0091546773910522,-0.0008535996312276,-0.0001344025076833,-0.0015033677918836,,0.0000000000000000,0.0000000000000000,
1559013413.6204507350921631,0.8663098812103271,,0.0018275675989523,-0.0021714034912252,-0.0016555486855266,0.0000124716473646,-0.0000297109399978,0.0000258386053840,0.9999999991470422,-0.0741437295755582,0.2425029885607793,0.0034448584854464,0.0029238832538072,-0.0034013850505947,-0.0023024464801328,0.0001240333574442,0.0001585183174335,0.0000582371647689,,0.0030406504889629,0.0022882742342330,-0.0062925504181727,0.0000611729674452,0.0003626874159403,-0.0000190422897520,0.9999999321765465,-0.0685860076404653,0.2874618788989146,-0.0017548979202029,0.0040563573129475,0.0002654088311829,-0.0037910772953182,0.0001189401809825,-0.0001427652314305,-0.0001788293011487,,0.0000000000000000,0.0000000000000000,
1559013413.6537706851959229,0.8996298313140869,,0.0019283307314097,-0.0022765461306065,-0.0017504076797406,0.0000123439710439,-0.0000333563119638,0.0000279909944835,0.9999999989757435,-0.0741573183308636,0.2420855827164449,0.0036920523643381,0.0032877149947353,-0.0041692912661081,-0.0029041995810565,-0.0004136805087301,0.0001528118256511,0.0005857079186457,,0.0036291435458029,0.0025966150466021,-0.0043469637549630,0.0000571760738891,0.0003901364780748,-0.0000200743580797,0.9999999220607196,-0.0690446522828446,0.2906071492304136,-0.0018773020674637,0.0051087369211018,0.0014169181231409,0.0000617773694103,-0.0004234086372890,-0.0003483407199383,-0.0010793746914715,,0.0000000000000000,0.0000000000000000,
1559013413.6870906352996826,0.9329497814178467,,0.0020073204662809,-0.0021686173520832,-0.0018755940810102,0.0000004454755689,-0.0000293059408638,0.0000322388010210,0.9999999990508116,-0.0755186999935587,0.2425504006791708,0.0041782525200975,0.0030545311131619,-0.0043583185665867,-0.0028540935342774,-0.0012110265888936,0.0004180645456321,0.0003135917815297,,0.0036291435458029,0.0025966150466021,-0.0043469637549630,0.0000571760738891,0.0003901364780748,-0.0000200743580797,0.9999999220607196,-0.0690446522828446,0.2906071492304136,-0.0018773020674637,0.0051087369211018,0.0014169181231409,0.0000617773694103,-0.0004234086372890,-0.0003483407199383,-0.0010793746914715,,0.0000000000000000,0.0000000000000000,
1559013413.7204108238220215,0.9662699699401855,,0.0021220876929542,-0.0023096203384389,-0.0019848610681615,-0.0000100638077625,-0.0000278998137509,0.0000324618678601,0.9999999990332737,-0.0767228617210609,0.2427116036773784,0.0042036354001237,0.0032967223800107,-0.0046784959622870,-0.0028800438444082,-0.0001448235781378,0.0001556650686836,0.0003219725510170,,0.0030493702962463,0.0032644654958341,0.0008699874413255,0.0000565348685116,0.0004011745245693,-0.0000199703200367,0.9999999177319946,-0.0691181066800932,0.2918720288214725,-0.0018670061042162,0.0025712531059980,0.0029879908543080,0.0095492219552398,0.0001241849677172,-0.0003560954646673,0.0001962994283531,,0.0000000000000000,0.0000000000000000,
1559013413.7537307739257812,0.9995899200439453,,0.0021378559284928,-0.0022553084292069,-0.0019724010366156,-0.0000038590108204,-0.0000286020621179,0.0000372273523088,0.9999999988905771,-0.0760095184681160,0.2426318312527223,0.0047498107534595,0.0035806316041485,-0.0047325965411892,-0.0026789920028951,0.0001189234778325,0.0001547659428721,0.0005908316625867,,0.0030493702962463,0.0032644654958341,0.0008699874413255,0.0000565348685116,0.0004011745245693,-0.0000199703200367,0.9999999177319946,-0.0691181066800932,0.2918720288214725,-0.0018670061042162,0.0025712531059980,0.0029879908543080,0.0095492219552398,0.0001241849677172,-0.0003560954646673,0.0001962994283531,,0.0000000000000000,0.0000000000000000,
1559013413.7870507240295410,1.0329098701477051,,0.0022810476613240,-0.0024122892143657,-0.0020924855797506,-0.0000000781600956,-0.0000267885442285,0.0000437476623950,0.9999999986842550,-0.0755730715492181,0.2428406142499206,0.0054967028381488,0.0037984822298734,-0.0029060582098636,-0.0039406395067790,-0.0001377236308390,-0.0003731979881540,-0.0002143553574490,,0.0029821578802633,0.0023954715740928,-0.0033581745908973,0.0000636555501370,0.0004000566115030,-0.0000217090852176,0.9999999177156937,-0.0683030665391002,0.2917436920126553,-0.0020657681279611,0.0022860211320221,-0.0006600108463317,0.0015310561284423,-0.0004109627625439,-0.0006739070522599,-0.0001190709881485,,0.0000000000000000,0.0000000000000000,
1559013413.8203706741333008,1.0662298202514648,,0.0022953997052004,-0.0023143258141744,-0.0020337144680097,-0.0000041900186975,-0.0000285791993598,0.0000462555239353,0.9999999985130499,-0.0760430383971532,0.2426358213056157,0.0057843690035524,0.0037473683198032,-0.0039193798950669,-0.0038320497217972,-0.0004126854755086,-0.0001134958850167,0.0005838412165164,,0.0028483643782737,0.0054159764026453,-0.0048358352553247,0.0000756474026680,0.0004063720092715,-0.0000323465478623,0.9999999140464770,-0.0669346459473181,0.2924658971404100,-0.0032850968095539,0.0015071481466293,0.0085062691941857,-0.0014686621725559,-0.0004123515100218,-0.0004598114755936,-0.0001185764558613,,0.0000000000000000,0.0000000000000000,
1559013413.8536908626556396,1.0995500087738037,,0.0022953997052004,-0.0023143258141744,-0.0020337144680097,-0.0000041900186975,-0.0000285791993598,0.0000462555239353,0.9999999985130499,-0.0760430383971532,0.2426358213056157,0.0057843690035524,0.0037473683198032,-0.0039193798950669,-0.0038320497217972,-0.0004126854755086,-0.0001134958850167,0.0005838412165164,,0.0028483643782737,0.0054159764026453,-0.0048358352553247,0.0000756474026680,0.0004063720092715,-0.0000323465478623,0.9999999140464770,-0.0669346459473181,0.2924658971404100,-0.0032850968095539,0.0015071481466293,0.0085062691941857,-0.0014686621725559,-0.0004123515100218,-0.0004598114755936,-0.0001185764558613,,0.0000000000000000,0.0000000000000000,
1559013413.8870108127593994,1.1328699588775635,,0.0025300805790249,-0.0024771067560791,-0.0022759334023263,-0.0000120096411670,-0.0000380767553341,0.0000365738911242,0.9999999985341400,-0.0769438646408458,0.2415460474930029,0.0046764006940456,0.0038906113982309,-0.0019505495492644,-0.0042578850124119,0.0004004204018280,-0.0011682908214704,-0.0004811290008870,,0.0028483643782737,0.0054159764026453,-0.0048358352553247,0.0000756474026680,0.0004063720092715,-0.0000323465478623,0.9999999140464770,-0.0669346459473181,0.2924658971404100,-0.0032850968095539,0.0015071481466293,0.0085062691941857,-0.0014686621725559,-0.0004123515100218,-0.0004598114755936,-0.0001185764558613,,0.0000000000000000,0.0000000000000000,
1559013413.9203307628631592,1.1661899089813232,,0.0026960321124392,-0.0026132594167324,-0.0024127700840920,-0.0000318489940886,-0.0000445829499222,0.0000335891595798,0.9999999979348854,-0.0792187623889951,0.2408001144604144,0.0043354664692320,0.0039057937079213,-0.0042290535626453,-0.0034415645786620,-0.0004152404150933,-0.0001153720738507,0.0008501384547750,,0.0054303640759792,0.0028405871846140,-0.0015512931906976,0.0000727297327581,0.0004122941432348,-0.0000389757507913,0.9999999116024042,-0.0672725866643876,0.2931435651078277,-0.0040457387794924,0.0105438055470586,-0.0008907766314223,0.0042810388840735,0.0001138636871474,-0.0001375615538564,-0.0004429370164871,,0.0000000000000000,0.0000000000000000,
1559013413.9536507129669189,1.1995098590850830,,0.0027708533634063,-0.0023851439275033,-0.0025847179078354,-0.0000338204186116,-0.0000304997978093,0.0000440198759657,0.9999999979940961,-0.0794395323549232,0.2424155477914594,0.0055285750850076,0.0034960477170739,-0.0033556502641691,-0.0035792380453338,-0.0004121206102580,0.0004209957069031,0.0003212773861341,,0.0042457708010142,0.0032688893773403,-0.0056604679087909,0.0000648888487885,0.0004357793942480,-0.0000388127972930,0.9999999021896570,-0.0681711214985140,0.2958347627029305,-0.0040308126094763,0.0040785656310618,0.0004996526986361,-0.0031115380115807,-0.0004219063557684,-0.0014084292342886,-0.0011841928353533,,0.0000000000000000,0.0000000000000000,
1559013413.9869606494903564,1.2328197956085205,,0.0028824035111263,-0.0024989113127620,-0.0027168216225414,-0.0000323792900621,-0.0000297784961670,0.0000530434573869,0.9999999976256073,-0.0792699808138776,0.2424995926744563,0.0065624929531257,0.0031506594702593,-0.0037718858066878,-0.0045746140076891,-0.0004122553111361,-0.0009142951857763,0.0008445383361084,,0.0016163225134831,0.0018428269025782,0.0076378858718637,0.0000685984619212,0.0004543867289951,-0.0000311516418720,0.9999998939282577,-0.0677419600665057,0.2979681196768502,-0.0031553800325751,-0.0052592363208532,-0.0075239953584969,0.0202106647193432,0.0005249262321740,0.0007250083726831,-0.0012422207510099,,0.0000000000000000,0.0000000000000000,
1559013414.0202808380126953,1.2661399841308594,,0.0029296778234125,-0.0027629431929407,-0.0025512005585504,-0.0000318103375758,-0.0000334149894817,0.0000525113796079,0.9999999975570480,-0.0792050630463614,0.2420827958089564,0.0065020817106385,0.0020001978877320,-0.0015053793493781,-0.0016831488709953,0.0001236031795044,0.0009593176126287,-0.0002024599370244,,0.0016163225134831,0.0018428269025782,0.0076378858718637,0.0000685984619212,0.0004543867289951,-0.0000311516418720,0.9999998939282577,-0.0677419600665057,0.2979681196768502,-0.0031553800325751,-0.0052592363208532,-0.0075239953584969,0.0202106647193432,0.0005249262321740,0.0007250083726831,-0.0012422207510099,,0.0000000000000000,0.0000000000000000,
1559013414.0536007881164551,1.2994599342346191,,0.0030404079036956,-0.0028396562347407,-0.0026764168534901,-0.0000303203687600,-0.0000319878221210,0.0000561925385885,0.9999999974499266,-0.0790325205674293,0.2422468970976883,0.0069236885170325,0.0042559487652989,-0.0024269263863525,-0.0055189004955724,0.0001254585595701,-0.0009085887226646,0.0003170675667236,,-0.0001918267742289,0.0014583252582462,-0.0051793105503548,0.0000672918954053,0.0004469704203664,-0.0000485581158316,0.9999998966656715,-0.0679011019789145,0.2971157712807340,-0.0051490438799222,-0.0097791878506541,-0.0069832173176110,-0.0047325701452792,0.0013753385283053,0.0003016986011062,-0.0014640276785940,,0.0000000000000000,0.0000000000000000,
1559013414.0869207382202148,1.3327798843383789,,0.0031493715465629,-0.0027938072886746,-0.0027558050552486,-0.0000268191261485,-0.0000305405626277,0.0000585538460094,0.9999999974597279,-0.0786301463053734,0.2424130821917444,0.0071940406350470,0.0040196044399599,-0.0018880113471462,-0.0035044341524797,-0.0001387186655942,-0.0001068902909427,-0.0002124886598651,,-0.0003862388438266,0.0013193463922199,-0.0052756966752279,0.0000762091679498,0.0004512275026457,-0.0000531757478453,0.9999998938791161,-0.0668817920699509,0.2976029888637595,-0.0056783421457382,-0.0093114748597145,-0.0073452508077025,-0.0049650780856609,0.0013335975818336,0.0000820299610496,-0.0005578060518019,,0.0000000000000000,0.0000000000000000,
1559013414.1202406883239746,1.3660998344421387,,0.0032673805689745,-0.0028689166023066,-0.0028535626251939,-0.0000329322621530,-0.0000355243372620,0.0000579670097071,0.9999999971466568,-0.0793309764111755,0.2418419343618305,0.0071275868821312,0.0038451743351367,-0.0017538442204014,-0.0037102344463059,-0.0006632276727196,-0.0009040151604573,-0.0007558070156031,,-0.0005695107067441,0.0011753494670631,-0.0053720416089590,0.0000732402329876,0.0004666305450950,-0.0000575712412892,0.9999998867886710,-0.0672245097017332,0.2993674002054934,-0.0061843887103450,-0.0087402760982513,-0.0075568733736873,-0.0051086759194732,-0.0005755241727456,0.0005565957981162,0.0000478677466162,,0.0000000000000000,0.0000000000000000,
1559013414.1535606384277344,1.3994197845458984,,0.0034515849290448,-0.0031673772238258,-0.0028721866743677,-0.0000333202725079,-0.0000279824199599,0.0000469653425846,0.9999999979505003,-0.0793807695871897,0.2427044716388011,0.0058657116103094,0.0032921001740727,-0.0028376393226699,-0.0027773618430278,-0.0004060156981958,0.0001584403621876,-0.0002131838214597,,0.0054194410451250,0.0039221283223847,-0.0059444888312575,0.0000707223501789,0.0004701856227759,-0.0000471678987493,0.9999998858495028,-0.0675073877342590,0.2997762539914523,-0.0049928816865142,0.0113711925223470,0.0025506995152682,-0.0051999506540596,-0.0004708282649517,0.0001321081072092,-0.0002189685619669,,0.0000000000000000,0.0000000000000000,
1559013414.1868808269500732,1.4327399730682373,,0.0035492681170088,-0.0032433806600386,-0.0029723515928213,-0.0000314278189653,-0.0000235662777312,0.0000445144383815,0.9999999982376938,-0.0791650883360684,0.2432101343847706,0.0055841670471362,0.0030675028090744,-0.0019517093534263,-0.0031719165511265,-0.0006691978822975,0.0006938310882609,-0.0007446067603855,,0.0017337937437958,0.0027914976925686,-0.0073980466569868,0.0000657147087486,0.0004684735527028,-0.0000318904734004,0.9999998875985463,-0.0680728783992629,0.2995822330364225,-0.0032422190918197,-0.0032952094916254,-0.0025957324542105,-0.0077453418634832,-0.0003198916092515,-0.0001808123633964,-0.0010700231650844,,0.0000000000000000,0.0000000000000000,
1559013414.2202007770538330,1.4660599231719971,,0.0036322496217980,-0.0030676846460236,-0.0030325474447093,-0.0000346616674043,-0.0000201730400398,0.0000508470835554,0.9999999979030958,-0.0795325450481690,0.2435999691016559,0.0063093230418510,0.0028389925539775,-0.0024231196855155,-0.0043064537769181,-0.0004055855237451,-0.0006423589416045,0.0000475132908730,,0.0017337937437958,0.0027914976925686,-0.0073980466569868,0.0000657147087486,0.0004684735527028,-0.0000318904734004,0.9999998875985463,-0.0680728783992629,0.2995822330364225,-0.0032422190918197,-0.0032952094916254,-0.0025957324542105,-0.0077453418634832,-0.0003198916092515,-0.0001808123633964,-0.0010700231650844,,0.0000000000000000,0.0000000000000000,
1559013414.2535207271575928,1.4993798732757568,,0.0037113590224429,-0.0031510611673023,-0.0031349060733971,-0.0000474966365459,-0.0000265555347649,0.0000555237203989,0.9999999969779949,-0.0810010711308437,0.2428693967704218,0.0068462593106147,0.0027139239664467,-0.0032788877272198,-0.0026531276539429,-0.0009478444061565,-0.0001173261912594,0.0008450147200022,,0.0001515348646201,0.0012294817827928,-0.0051123345942179,0.0000495634790215,0.0004787440758719,-0.0000295359639095,0.9999998837375924,-0.0699224355375030,0.3007594300014954,-0.0029747703706644,-0.0074289659969509,-0.0072463871911168,-0.0031776153482497,0.0000637078628642,-0.0005068728933111,-0.0000599529594183,,0.0000000000000000,0.0000000000000000,
1559013414.2868406772613525,1.5326998233795166,,0.0038042120804140,-0.0032000477120032,-0.0030848635363927,-0.0000617187615933,-0.0000235942788943,0.0000609259781184,0.9999999959610649,-0.0826281471992466,0.2432096764849470,0.0074648921446802,0.0032379105325011,-0.0015713786164370,-0.0033759656849387,-0.0006774275713218,0.0001537109385264,0.0003168488093092,,0.0001515348646201,0.0012294817827928,-0.0051123345942179,0.0000495634790215,0.0004787440758719,-0.0000295359639095,0.9999998837375924,-0.0699224355375030,0.3007594300014954,-0.0029747703706644,-0.0074289659969509,-0.0072463871911168,-0.0031776153482497,0.0000637078628642,-0.0005068728933111,-0.0000599529594183,,0.0000000000000000,0.0000000000000000,
1559013414.3201606273651123,1.5660197734832764,,0.0039182940708715,-0.0032330884638260,-0.0032645021001377,-0.0000715510914492,-0.0000295526789065,0.0000631095602507,0.9999999950121320,-0.0837538201160279,0.2425273113462190,0.0077160899600660,0.0030162540697461,-0.0014302520843257,-0.0060709298738905,-0.0006779924370113,-0.0003807806660602,0.0005794126297512,,0.0033008006095580,0.0011785803558295,0.0061231132623880,0.0000425381149729,0.0005060812556475,-0.0000255228093975,0.9999998707104205,-0.0707253920346598,0.3038926008353187,-0.0025192764290060,0.0057506039738655,-0.0057758740149438,0.0190748348832130,-0.0001634397485759,0.0007278783014044,-0.0009080261806957,,0.0000000000000000,0.0000000000000000,
1559013414.3534808158874512,1.5993399620056152,,0.0040068974716434,-0.0032389698523631,-0.0033848918088080,-0.0000914366201453,-0.0000295267622983,0.0000652436711403,0.9999999932553892,-0.0860314910006335,0.2425307699127860,0.0079607059556842,0.0024419782631013,-0.0021272713030003,-0.0038190778993807,-0.0001448235820121,0.0001556650456807,0.0003219725402785,,0.0034192999153591,0.0010579430106152,0.0064953994279523,0.0000345271351897,0.0005111463805106,-0.0000263829984575,0.9999998684205874,-0.0716438772364495,0.3044728703048402,-0.0026190585096938,0.0061334241181612,-0.0059950468130410,0.0181544125080109,-0.0012176220770925,0.0004556177300401,-0.0002580562722869,,0.0000000000000000,0.0000000000000000,
1559013414.3868007659912109,1.6326599121093750,,0.0040939893009715,-0.0033251353717339,-0.0034943055133321,-0.0000992416505955,-0.0000327807770259,0.0000641230642277,0.9999999924823740,-0.0869264505304274,0.2421577639821128,0.0078328478867334,0.0021335253244447,-0.0028104823283797,-0.0006299061307926,-0.0004080057750142,0.0006910557763449,-0.0002094503886997,,0.0057367386720548,0.0016183337584161,0.0098573301577264,0.0000261658727469,0.0004975904176237,-0.0000332114235218,0.9999998753080546,-0.0726057057987067,0.3029184345740711,-0.0034000292129137,0.0127253644168377,-0.0035268568899482,0.0208079684525728,-0.0005384065443650,-0.0007062302902341,-0.0015981659526005,,0.0000000000000000,0.0000000000000000,
1559013414.4201207160949707,1.6659798622131348,,0.0041376837407061,-0.0033424563884368,-0.0033214207693012,-0.0000970063212275,-0.0000319740361058,0.0000597807671444,0.9999999929968473,-0.0866724150720501,0.2422494887172160,0.0073351140964846,0.0019860937240324,-0.0033646752734421,-0.0021280379710263,-0.0006789874764607,-0.0001144729515844,0.0005812793466631,,0.0057367386720548,0.0016183337584161,0.0098573301577264,0.0000261658727469,0.0004975904176237,-0.0000332114235218,0.9999998753080546,-0.0726057057987067,0.3029184345740711,-0.0034000292129137,0.0127253644168377,-0.0035268568899482,0.0208079684525728,-0.0005384065443650,-0.0007062302902341,-0.0015981659526005,,0.0000000000000000,0.0000000000000000,
1559013414.4534406661987305,1.6992998123168945,,0.0042166862166522,-0.0034558293532407,-0.0034612738427120,-0.0001049356710251,-0.0000413472776536,0.0000739824296578,0.9999999909027539,-0.0875741917429633,0.2411777665248296,0.0089640756331527,0.0029456841975828,-0.0034859292899487,-0.0072317684791803,-0.0004108301097684,-0.0019814022298062,0.0011033687301525,,0.0021895927776940,0.0029798482027788,-0.0017919951850399,0.0000030791525065,0.0005051542388313,-0.0000423319240284,0.9999998715088527,-0.0752563039453160,0.3037837185136449,-0.0044476326101652,-0.0012074953410774,0.0004014892037958,0.0003388677432667,0.0008526051533408,0.0004610072937794,-0.0004364303313196,,0.0000000000000000,0.0000000000000000,
1559013414.4867608547210693,1.7326200008392334,,0.0042676823521386,-0.0032899955007511,-0.0036068238001489,-0.0001037780407512,-0.0000503719075422,0.0000821226139104,0.9999999899743327,-0.0874376508076146,0.2401449380836850,0.0098983447678106,0.0023198753322894,-0.0032435130844647,-0.0047675558917951,0.0003872155344248,-0.0003768724475897,0.0005896601029099,,0.0021895927776940,0.0029798482027788,-0.0017919951850399,0.0000030791525065,0.0005051542388313,-0.0000423319240284,0.9999998715088527,-0.0752563039453160,0.3037837185136449,-0.0044476326101652,-0.0012074953410774,0.0004014892037958,0.0003388677432667,0.0008526051533408,0.0004610072937794,-0.0004364303313196,,0.0000000000000000,0.0000000000000000,
1559013414.5200808048248291,1.7659399509429932,,0.0043727174926123,-0.0033956853170760,-0.0037356057815151,-0.0001008690163786,-0.0000535719741946,0.0000791001403528,0.9999999903493265,-0.0871057971799285,0.2397777188199017,0.0095524958698403,0.0039715119069805,-0.0029029618956318,-0.0023032641262254,0.0001291432112380,0.0001622706482513,-0.0004743573235676,,-0.0014186147277336,0.0028985353920135,-0.0137229153900472,-0.0000057996978002,0.0005104819711338,-0.0000229059692081,0.9999998694249101,-0.0762630878852232,0.3043971376825290,-0.0022228761208905,-0.0113122472539544,-0.0013487567193806,-0.0224984772503376,0.0019746769685298,0.0005661716568284,0.0000881503365235,,0.0000000000000000,0.0000000000000000,
1559013414.5534007549285889,1.7992599010467529,,0.0045161254164148,-0.0033906110632321,-0.0035537394000662,-0.0000976123277982,-0.0000384051717580,0.0000693761184325,0.9999999920919153,-0.0867372208979780,0.2415140970116065,0.0084357150139161,0.0047131394266791,-0.0040339501936992,-0.0007691711913142,-0.0004166656374603,0.0009517349275132,0.0005913080460718,,0.0020652066108007,0.0009959875257683,0.0015828023016906,0.0000327981342627,0.0004967082862369,-0.0000168803536144,0.9999998759600995,-0.0718367374209462,0.3028197834051907,-0.0015280938783045,0.0044686226174235,-0.0073079913854599,0.0093747563660145,0.0018572803819552,0.0001997409417527,-0.0008685792563483,,0.0000000000000000,0.0000000000000000,
1559013414.5867207050323486,1.8325798511505127,,0.0046929896300745,-0.0034993905164265,-0.0035987025157461,-0.0001082111260817,-0.0000203071702424,0.0000723880183728,0.9999999913189730,-0.0879501478255252,0.2435885498812573,0.0087779435046592,0.0054988723919106,-0.0036905167517773,-0.0028708316674145,-0.0004146755666311,0.0004191195084805,0.0005875746185427,,0.0021569559694145,0.0008463975722888,0.0017737355212673,0.0000397605860765,0.0004972441031336,-0.0000275520140034,0.9999998752041344,-0.0710447551230397,0.3028796325554119,-0.0027506743039883,0.0050291824154556,-0.0075368159450591,0.0100390929728746,0.0008411775343120,0.0002563290181570,-0.0013905941741541,,0.0000000000000000,0.0000000000000000,
1559013414.6200406551361084,1.8658998012542725,,0.0049268677607182,-0.0035664599643210,-0.0033153449597868,-0.0001067862395552,-0.0000108913529870,0.0000794705729666,0.9999999910812528,-0.0877833217164343,0.2446686669531226,0.0095880097915623,0.0045544561485136,-0.0042444419556443,-0.0038783031509177,-0.0001499334748550,0.0001519126749023,0.0008545670204617,,0.0047568128774480,0.0037095875125719,0.0024648328165501,0.0000356404946868,0.0005075731344468,-0.0000260096516513,0.9999998702113747,-0.0715160763899768,0.3040634651266995,-0.0025756846490801,0.0136421741917729,0.0022794245742261,0.0105858491733670,0.0010575925698504,0.0012645954266191,-0.0008035744540393,,0.0000000000000000,0.0000000000000000,
1559013414.6533608436584473,1.8992199897766113,,0.0050528529951679,-0.0036704915392976,-0.0034280458510398,-0.0001049224867147,-0.0000125283005312,0.0000823249455911,0.9999999910284585,-0.0875683653660833,0.2444815353869760,0.0099153641614337,0.0037263048295100,-0.0031116651392569,-0.0036583163191571,0.0001285783421854,-0.0003722209736703,-0.0002117935010228,,0.0048156837642820,0.0062237242223286,0.0038197723035811,0.0000351297156098,0.0005140273588113,-0.0000062339267155,0.9999998672514491,-0.0715637410734696,0.3048059729383173,-0.0003105032281870,0.0113962255418301,0.0109010646119714,0.0102634755894542,0.0009090397506952,-0.0008152950322255,-0.0005353579181246,,0.0000000000000000,0.0000000000000000,
1559013414.6866807937622070,1.9325399398803711,,0.0052109880517870,-0.0041962058662173,-0.0033277351296309,-0.0000979159600292,-0.0000183551055547,0.0000746237654361,0.9999999922534243,-0.0867692990387467,0.2438125172637723,0.0090338026104000,0.0042529058606884,-0.0042112210778993,-0.0031849519519451,0.0001209135275152,-0.0003778495215010,0.0005870982308905,,0.0048156837642820,0.0062237242223286,0.0038197723035811,0.0000351297156098,0.0005140273588113,-0.0000062339267155,0.9999998672514491,-0.0715637410734696,0.3048059729383173,-0.0003105032281870,0.0113962255418301,0.0109010646119714,0.0102634755894542,0.0009090397506952,-0.0008152950322255,-0.0005353579181246,,0.0000000000000000,0.0000000000000000,
1559013414.7200007438659668,1.9658598899841309,,0.0053762961775226,-0.0043127870694104,-0.0034248362424407,-0.0000997639469353,-0.0000135912380893,0.0000769547738146,0.9999999919701980,-0.0869798824457881,0.2443588103767861,0.0093001482418258,0.0052179669220973,-0.0042746469790317,-0.0026971665080440,-0.0004182255163417,0.0006835510046503,0.0008557385487782,,0.0052291259185608,0.0066394057520543,0.0041492087002540,0.0000389100275542,0.0005036717400379,-0.0000269764555915,0.9999998720365213,-0.0711419311843265,0.3036162666879023,-0.0026857110020908,0.0098902173340321,0.0114108640700579,0.0103509873151779,0.0004561709356494,0.0000499343514093,-0.0024497949052602,,0.0000000000000000,0.0000000000000000,
1559013414.7533206939697266,1.9991798400878906,,0.0056099719241141,-0.0042642236130848,-0.0034692256647608,-0.0001067110431161,-0.0000086341183223,0.0000884743370081,0.9999999903552486,-0.0877702663881926,0.2449287965084061,0.0106194047824998,0.0061628374618494,-0.0045097163700292,-0.0040014231682357,-0.0009452894590884,-0.0001154500496369,0.0005787174406580,,0.0052291259185608,0.0066394057520543,0.0041492087002540,0.0000389100275542,0.0005036717400379,-0.0000269764555915,0.9999998720365213,-0.0711419311843265,0.3036162666879023,-0.0026857110020908,0.0098902173340321,0.0114108640700579,0.0103509873151779,0.0004561709356494,0.0000499343514093,-0.0024497949052602,,0.0000000000000000,0.0000000000000000,
1559013414.7866406440734863,2.0324997901916504,,0.0057989768742763,-0.0043539722393555,-0.0035652681770728,-0.0000970920671389,0.0000016152977845,0.0000775876248907,0.9999999922753409,-0.0866732726769017,0.2461014283729332,0.0093701972543438,0.0051972273453965,-0.0019901205237007,-0.0026121680710691,0.0006684169924962,0.0004361609870075,-0.0012662586208414,,0.0048463070129249,-0.0018530932854782,-0.0043371194688543,0.0000496536779303,0.0005462905973898,-0.0000412375629876,0.9999998487002679,-0.0699188675543722,0.3084979834910337,-0.0043255173052810,0.0092678898945451,-0.0197609998285770,-0.0056686224415898,0.0003229734138586,0.0009426797041669,0.0000063279644564,,0.0000000000000000,0.0000000000000000,
1559013414.8199608325958252,2.0658199787139893,,0.0058988166132512,-0.0040001425591454,-0.0032568516686067,-0.0000784358308737,0.0000048126171859,0.0000652778702389,0.9999999947817295,-0.0845414603565251,0.2464656773103701,0.0079590834458810,0.0054843130972807,-0.0024064095107020,-0.0034018772539607,0.0009310343152429,-0.0006337213350913,-0.0004722718599322,,0.0017678621869116,0.0015124191525959,-0.0011558191354735,0.0000500246131654,0.0005711314993747,-0.0000341708840095,0.9999998350693360,-0.0698725603466937,0.3113455691600101,-0.0035193152565481,-0.0028836037963629,-0.0044308807700872,0.0001653605722822,-0.0004792680847459,0.0003601763455663,-0.0004656376258936,,0.0000000000000000,0.0000000000000000,
1559013414.8532807826995850,2.0991399288177490,,0.0060570944715610,-0.0040868017589752,-0.0033333009936609,-0.0000745480351894,0.0000045306226113,0.0000661597536890,0.9999999950224756,-0.0840955194988837,0.2464334748567316,0.0080601878874789,0.0050966139151276,-0.0024566634428262,-0.0020442563941219,-0.0004095657028600,0.0004228718171953,0.0000549801482045,,0.0037245920093585,0.0014593189274381,0.0018194195298815,0.0000452053608667,0.0005873934933458,-0.0000412583801236,0.9999998256115376,-0.0704288468814915,0.3132080009324146,-0.0043341840155431,0.0031235220376402,-0.0038933986797929,0.0055238688364625,0.0007684917072766,-0.0006610307609662,0.0011769605334848,,0.0000000000000000,0.0000000000000000,
1559013414.8865907192230225,2.1324498653411865,,0.0062241540422847,-0.0042129009709862,-0.0034588164550847,-0.0000781824351342,0.0000096225906228,0.0000779786374317,0.9999999938571225,-0.0845061300260450,0.2470188901096741,0.0094137264928759,0.0036751550597623,-0.0024012157277938,-0.0020778193078440,-0.0012094667212468,0.0006862483545661,0.0000491612550596,,0.0018623154410093,0.0027256348443475,0.0001956494993356,0.0000609717752342,0.0005685389954785,-0.0000005049907428,0.9999998365227858,-0.0685993416432927,0.3110533887813620,0.0003396554353508,-0.0041805850341916,0.0011643896577880,0.0006084713968448,-0.0011163554154336,-0.0002244176284876,-0.0005613433313556,,0.0000000000000000,0.0000000000000000,
1559013414.9199106693267822,2.1657698154449463,,0.0063473418515365,-0.0043108835616100,-0.0035475235986560,-0.0000963841769758,0.0000112437483833,0.0000820039499677,0.9999999919295104,-0.0865898977609790,0.2472054761873470,0.0098747140106573,0.0039633956914997,-0.0034766547481621,-0.0022774395884296,-0.0004121206405212,0.0004209956358172,0.0003212773907605,,0.0017819703080484,0.0027485697378166,0.0002144086046948,0.0000582800221329,0.0005613600279983,-0.0000004010503061,0.9999998407390859,-0.0689077309125702,0.3102307548704150,0.0003524282589109,-0.0039354576729238,0.0009255666518584,0.0008877887739800,-0.0007359915180132,0.0003025436890312,0.0002885470166802,,0.0000000000000000,0.0000000000000000,
1559013414.9532308578491211,2.1990900039672852,,0.0064394748332326,-0.0043765607316354,-0.0033204689959602,-0.0000981671660791,0.0000091906173562,0.0000840087877015,0.9999999916106317,-0.0867932429649837,0.2469705471524552,0.0101047843823477,0.0041212700944382,-0.0036935255181864,-0.0020973771193848,0.0001214783836720,0.0001566420416478,0.0003245344163069,,0.0017819703080484,0.0027485697378166,0.0002144086046948,0.0000582800221329,0.0005613600279983,-0.0000004010503061,0.9999998407390859,-0.0689077309125702,0.3102307548704150,0.0003524282589109,-0.0039354576729238,0.0009255666518584,0.0008877887739800,-0.0007359915180132,0.0003025436890312,0.0002885470166802,,0.0000000000000000,0.0000000000000000,
1559013414.9865508079528809,2.2324099540710449,,0.0066564738163595,-0.0045149703840652,-0.0034310511956084,-0.0000959929894113,0.0000121288328958,0.0000813023919647,0.9999999920140793,-0.0865454092942611,0.2473067819085243,0.0097941777611876,0.0047677651486328,-0.0023766501709964,-0.0014594889001487,0.0001226081181893,0.0012256252167307,-0.0002005932369346,,0.0017062780141913,0.0027656684595040,0.0002331799804391,0.0000612674185654,0.0005514181504620,-0.0000028439440638,0.9999998460881075,-0.0685667471535469,0.3090911485785291,0.0000741147761850,-0.0036023485008627,0.0005956604145467,0.0011799458879977,-0.0012129178503528,-0.0015053579118103,-0.0001876538590295,,0.0000000000000000,0.0000000000000000,
1559013415.0198707580566406,2.2657299041748047,,0.0067488210599591,-0.0041095440339836,-0.0034739250789223,-0.0000922178940257,0.0000144867123172,0.0000875515580651,0.9999999918103601,-0.0861097109425769,0.2475779497644036,0.0105099095453829,0.0060554801253815,-0.0025117308636993,-0.0037446026172220,0.0006550774091588,-0.0001077115737259,0.0003277914379514,,0.0017062780141913,0.0027656684595040,0.0002331799804391,0.0000612674185654,0.0005514181504620,-0.0000028439440638,0.9999998460881075,-0.0685667471535469,0.3090911485785291,0.0000741147761850,-0.0036023485008627,0.0005956604145467,0.0011799458879977,-0.0012129178503528,-0.0015053579118103,-0.0001876538590295,,0.0000000000000000,0.0000000000000000,
1559013415.0531907081604004,2.2990498542785645,,0.0069485598243149,-0.0042374316198056,-0.0035906835284770,-0.0000974515118652,0.0000145196325414,0.0000958379272539,0.9999999905537375,-0.0867053497561677,0.2475831190801419,0.0114594513228416,0.0051832364601743,-0.0029358726066729,-0.0025936415203645,0.0001265882247216,0.0001603943891010,-0.0002080600578199,,0.0028302361133023,0.0011308112806345,-0.0055005617195409,0.0000614221750839,0.0005673859537669,0.0000062026473458,0.9999998371309983,-0.0685439934837356,0.3109222268541514,0.0011085002659068,0.0022205500863492,-0.0049788719043136,-0.0089428108185530,-0.0010673586511984,-0.0010183617705479,-0.0010928818956017,,0.0000000000000000,0.0000000000000000,
1559013415.0865106582641602,2.3323698043823242,,0.0071081308508436,-0.0042357541597938,-0.0035915806233687,-0.0000931400635652,0.0000154071126312,0.0000834857457899,0.9999999920588398,-0.0862173820985655,0.2476827713305482,0.0100438474603391,0.0048860887175261,-0.0017459525885583,-0.0028412043272770,-0.0003963608773841,-0.0003685465921990,-0.0010158089442316,,0.0029519888838059,0.0008384119710609,-0.0059934795015772,0.0000581090590179,0.0005500910080263,-0.0000013667004831,0.9999998470106645,-0.0689278484126669,0.3089392815590514,0.0002433889468124,0.0020987750031054,-0.0055223274976015,-0.0086310729384422,-0.0007987834396772,0.0002558300329838,-0.0004012739227619,,0.0000000000000000,0.0000000000000000,
1559013415.1198308467864990,2.3656899929046631,,0.0072511825427417,-0.0043264864873051,-0.0036716985114215,-0.0001026123079839,0.0000150875541459,0.0000828981675588,0.9999999911854870,-0.0873031142683667,0.2476461475718841,0.0099765505812511,0.0048446836149312,-0.0018476655935482,-0.0026942587024569,-0.0001371588356269,0.0001612935194818,-0.0004769191865933,,0.0051925544355761,0.0023813793912971,-0.0010522355678721,0.0000469439347328,0.0005700122294068,-0.0000046649478309,0.9999998364302685,-0.0702091373472664,0.3112216003752460,-0.0001381758148190,0.0089325234293938,0.0004224320291542,0.0012637828476727,-0.0005778026534244,-0.0005969690391794,-0.0000826702453196,,0.0000000000000000,0.0000000000000000,
1559013415.1531507968902588,2.3990099430084229,,0.0074355095243701,-0.0042131267365944,-0.0037379001164435,-0.0001038575956874,0.0000204989272782,0.0000892518536861,0.9999999904137502,-0.0874426262470334,0.2482672920231221,0.0107037513026899,0.0047393195196920,-0.0019063271071416,-0.0032885766858072,0.0001240332821200,0.0001585182110600,0.0000582371689475,,0.0046368757536828,0.0024083626879825,-0.0023725760559474,0.0000458798311537,0.0005587346913442,0.0000202892320099,0.9999998426494540,-0.0703171895108751,0.3099329308591345,0.0027229777647251,0.0063844979740679,-0.0001243474544026,-0.0025399073492736,-0.0001940629445016,0.0010972442105412,0.0014111992204562,,0.0000000000000000,0.0000000000000000,
1559013415.1864707469940186,2.4323298931121826,,0.0076115924619162,-0.0042967379674903,-0.0038678530304458,-0.0001130000103101,0.0000125486200940,0.0000900889608695,0.9999999894787546,-0.0884899326318982,0.2473564856503741,0.0108009600201266,0.0046466426149502,-0.0004918186940764,-0.0029468835410326,0.0001362430895476,-0.0003665924714169,-0.0010106852264120,,0.0036304880783306,0.0051519430538680,-0.0003610028637882,0.0000409396240160,0.0005788687692688,0.0000372948730190,0.9999998309219795,-0.0708737745339409,0.3122426262887678,0.0046684425669311,0.0018805343424901,0.0090315490961075,0.0019654412753880,-0.0017144266748801,0.0002639917656779,-0.0012922289315611,,0.0000000000000000,0.0000000000000000,
1559013415.2197906970977783,2.4656498432159424,,0.0076727303696402,-0.0042552303227739,-0.0037377947981347,-0.0001204730689136,0.0000122391446268,0.0000888494799231,0.9999999887211064,-0.0893468964542356,0.2473208951674901,0.0106589649615222,0.0042335495865613,-0.0028120697739639,-0.0011917234298861,-0.0001442588007628,0.0006901565724103,0.0000594087204766,,0.0036304880783306,0.0051519430538680,-0.0003610028637882,0.0000409396240160,0.0005788687692688,0.0000372948730190,0.9999998309219795,-0.0708737745339409,0.3122426262887678,0.0046684425669311,0.0018805343424901,0.0090315490961075,0.0019654412753880,-0.0017144266748801,0.0002639917656779,-0.0012922289315611,,0.0000000000000000,0.0000000000000000,
1559013415.2531106472015381,2.4989697933197021,,0.0078480426904801,-0.0043451268662588,-0.0038178024708332,-0.0001156383376794,0.0000197136753126,0.0000899303281266,0.9999999890758410,-0.0887922722009961,0.2481775408133512,0.0107816005955863,0.0054292110728927,-0.0027797161448072,-0.0034353434046962,0.0001214783166486,0.0001566420257630,0.0003245344106533,,0.0024622045541892,0.0033692700341506,0.0010831382365003,0.0000311932746903,0.0005793344129262,0.0000361975982775,0.9999998310441615,-0.0719912381284506,0.3122958639970193,0.0045419871211058,-0.0010414639255032,0.0009290307061747,0.0048048202879727,0.0009482172317803,0.0003190914285369,-0.0010488524567336,,0.0000000000000000,0.0000000000000000,
1559013415.2864308357238770,2.5322899818420410,,0.0080534963727283,-0.0043063729008664,-0.0037331143895376,-0.0001149975264799,0.0000181547645295,0.0000800782433342,0.9999999900167242,-0.0887237217106691,0.2479972780266583,0.0096528829457096,0.0066287410242244,-0.0011895297492318,-0.0051680391155071,-0.0003979208114279,-0.0006367304806934,-0.0007513784293801,,0.0024622045541892,0.0033692700341506,0.0010831382365003,0.0000311932746903,0.0005793344129262,0.0000361975982775,0.9999998310441615,-0.0719912381284506,0.3122958639970193,0.0045419871211058,-0.0010414639255032,0.0009290307061747,0.0048048202879727,0.0009482172317803,0.0003190914285369,-0.0010488524567336,,0.0000000000000000,0.0000000000000000,
1559013415.3197507858276367,2.5656099319458008,,0.0082516296210835,-0.0043947215866752,-0.0038530124864820,-0.0001128629854371,0.0000282830306793,0.0000831610257484,0.9999999897731302,-0.0884775093611831,0.2491583767109389,0.0100044899349284,0.0054061982080081,-0.0020698064366169,-0.0032931027098499,0.0003918951417476,0.0004276791358809,-0.0002036314944032,,-0.0009817813704339,-0.0000302048205232,-0.0113073154465510,0.0000366397794939,0.0005790403470259,0.0000539893675716,0.9999998302274612,-0.0713571827692653,0.3122647584925159,0.0065812067841531,-0.0103610353544354,-0.0106029035523534,-0.0180826224386692,0.0003542889317032,0.0002166567428503,-0.0017341335769743,,0.0000000000000000,0.0000000000000000,
1559013415.3530707359313965,2.5989298820495605,,0.0083329778216412,-0.0044823511549608,-0.0035456096208404,-0.0000972700650088,0.0000264376873117,0.0000815970049931,0.9999999915907561,-0.0866914823391078,0.2489465138880683,0.0098256149757823,0.0049720561332700,-0.0019601734316236,-0.0023108217649720,0.0006581971359413,0.0004286561926795,-0.0002010696268047,,-0.0011975343005169,-0.0002381331457557,-0.0116585177331550,0.0000383786624462,0.0005816846829044,0.0000424769116023,0.9999998291828455,-0.0711643361308447,0.3125660771103843,0.0052616856179353,-0.0107396440580487,-0.0107621066272259,-0.0173117518424988,-0.0005886165308766,0.0007920654607005,-0.0003913546097465,,0.0000000000000000,0.0000000000000000,
1559013415.3863906860351562,2.6322498321533203,,0.0085066443997808,-0.0045671004254508,-0.0036775133338484,-0.0001007240849822,0.0000154179024142,0.0000850036817431,0.9999999911956605,-0.0870856976419361,0.2476843271449478,0.0102177763110835,0.0053902423276928,-0.0019176914337980,-0.0031728008771369,-0.0004070108377180,0.0004247479233196,-0.0002113171129566,,-0.0014185691403290,-0.0004501569395737,-0.0120030723032950,0.0000434684384757,0.0005856383472689,0.0000345169022151,0.9999998269733873,-0.0705855220237378,0.3130179456839972,0.0043492845201148,-0.0107360417023301,-0.0110346311703324,-0.0169592592865229,-0.0017026001587510,0.0004706384497695,-0.0002738574403338,,0.0000000000000000,0.0000000000000000,
1559013415.4197106361389160,2.6655697822570801,,0.0085941316028626,-0.0045588463617222,-0.0039082547976760,-0.0001099092678054,0.0000221951485031,0.0000832658139298,0.9999999902470662,-0.0881390400906527,0.2484607465332911,0.0100175039832021,0.0056985974447833,-0.0027181641886284,-0.0047781411046427,-0.0012064816869109,-0.0001126748452200,0.0000435611089176,,0.0003574812231935,0.0003619826310008,-0.0030307031033011,0.0000280967192277,0.0006463813474378,0.0000294119631035,0.9999997902683102,-0.0723496947302187,0.3199778806545092,0.0037542767039110,-0.0030758511275053,-0.0073704370297492,-0.0008689275127836,-0.0003743243869394,0.0005830600857735,-0.0002860996755771,,0.0000000000000000,0.0000000000000000,
1559013415.4530308246612549,2.6988899707794189,,0.0087569986125997,-0.0046071509501720,-0.0040259291924104,-0.0001059722102705,0.0000246367491209,0.0000774777438559,0.9999999910800602,-0.0876907280366561,0.2487395507014740,0.0093538459464209,0.0049920018527915,-0.0012035789389246,-0.0029542598088344,0.0003970050110474,0.0004314314759609,-0.0007362260061359,,0.0003574812231935,0.0003619826310008,-0.0030307031033011,0.0000280967192277,0.0006463813474378,0.0000294119631035,0.9999997902683102,-0.0723496947302187,0.3199778806545092,0.0037542767039110,-0.0030758511275053,-0.0073704370297492,-0.0008689275127836,-0.0003743243869394,0.0005830600857735,-0.0002860996755771,,0.0000000000000000,0.0000000000000000,
1559013415.4863507747650146,2.7322099208831787,,0.0088934492420969,-0.0043736065933910,-0.0038881488238653,-0.0001061081284884,0.0000189942858718,0.0000769528964825,0.9999999912292671,-0.0877066084993142,0.2480928882217119,0.0092946231386987,0.0063649666978945,-0.0015677300468148,-0.0047756292016569,0.0003978653494353,-0.0011701671358597,-0.0002148317760976,,0.0034025515714207,0.0019694676577049,0.0014925504697577,0.0000218994381274,0.0006415251941719,0.0000333035632454,0.9999997934283349,-0.0730576655340355,0.3194220055325690,0.0042004903961273,0.0078299734741449,-0.0012851294595748,0.0068843513727188,0.0005175640108064,-0.0001538863434689,-0.0014675890561193,,0.0000000000000000,0.0000000000000000,
