#Time(sec),Dtime(sec),,x(m),y(m),z(m),qx,qy,qz,qw,roll_x_G(deg),pitch_y_G(deg),yaw_z_G(deg),vx(m/s),vy(m/s),vz(m/s),wx(rad/s),wy(rad/s),wz(rad/s),,gt_x(m),gt_y(m),gt_z(m),gt_qx,gt_qy,gt_qz,gt_qw,gt_groll_x_G(deg),gt_pitch_y_G(deg),gt_yaw_z_G(deg),gt_vx(m/s),gt_vy(m/s),gt_vz(m/s),gt_wx(rad/s),gt_wy(rad/s),gt_wz(rad/s),,Sr,Sr_avg,
1559013412.7541408538818359,0.0000000000000000,,0.0000000000000002,0.0000000000000001,-0.0000000000000001,0.0000000000000000,-0.0000000000000001,0.0000000000000000,1.0000000000000000,-0.0755855138669150,0.2459037397968158,0.0004794994091153,0.0000000000000000,0.0000000000000000,0.0000000000000000,0.0000000000000000,0.0000000000000000,0.0000000000000000,,0.0000000000000000,0.0000000000000000,0.0000000000000000,0.0000000000000000,0.0000000000000000,0.0000000000000000,1.0000000000000000,-0.0755855138669150,0.2459037397968215,0.0004794994091152,-0.0098102642223239,-0.0059528849087656,-0.0021041124127805,0.0008114594966173,-0.0000641869410174,-0.0007574954070151,,0.0000000000000000,0.0000000000000000,
1559013412.7874608039855957,0.0333199501037598,,0.0000000000000002,0.0000000000000001,-0.0000000000000001,0.0000000000000000,-0.0000000000000001,0.0000000000000000,1.0000000000000000,-0.0755855138669150,0.2459037397968158,0.0004794994091153,0.0000000000000000,0.0000000000000000,0.0000000000000000,0.0000000000000000,0.0000000000000000,0.0000000000000000,,0.0000000000000000,0.0000000000000000,0.0000000000000000,0.0000000000000000,0.0000000000000000,0.0000000000000000,1.0000000000000000,-0.0755855138669150,0.2459037397968215,0.0004794994091152,-0.0098102642223239,-0.0059528849087656,-0.0021041124127805,0.0008114594966173,-0.0000641869410174,-0.0007574954070151,,0.0000000000000000,0.0000000000000000,
1559013412.8207807540893555,0.0666399002075195,,0.0000219726581638,-0.0000260111889973,-0.0000459141663904,-0.0000208610050351,-0.0000137221306289,-0.0000034844792411,0.9999999996821901,-0.0779777081630646,0.2443307657790641,0.0000823114382821,0.0005549145090711,-0.0009140744155948,-0.0007645881653806,-0.0006713226546122,-0.0001088443910840,-0.0002176123651700,,0.0000000000000000,0.0000000000000000,0.0000000000000000,0.0000000000000000,0.0000000000000000,0.0000000000000000,1.0000000000000000,-0.0755855138669150,0.2459037397968215,0.0004794994091152,-0.0098102642223239,-0.0059528849087656,-0.0021041124127805,0.0008114594966173,-0.0000641869410174,-0.0007574954070151,,0.0000000000000000,0.0000000000000000,
1559013412.8541007041931152,0.0999598503112793,,0.0000608926743231,-0.0000640802948601,-0.0001140602429562,-0.0000373096937066,-0.0000189844924195,-0.0000087132854731,0.9999999990858274,-0.0798651435414091,0.2437269247291102,-0.0005160265755550,0.0011061855532015,-0.0033799717536283,-0.0017536299372295,-0.0014824384616985,0.0004133351236126,0.0008436244272202,,0.0026245542083911,0.0026448552001494,-0.0084863851899029,-0.0000333937179824,0.0001718520074773,-0.0000101301488424,0.9999999846245635,-0.0794174526191618,0.2655949411350161,-0.0007079784706163,0.0011400097282603,-0.0002242026966996,-0.0186141021549702,-0.0007273238734342,-0.0001038627669914,-0.0002373664610786,,0.0000000000000000,0.0000000000000000,
1559013412.8874206542968750,0.1332798004150391,,0.0001262903034411,-0.0001468154741993,-0.0002142065874932,-0.0000378024141703,-0.0000235806923088,-0.0000050935236011,0.9999999989944923,-0.0799198270708824,0.2432008019201591,-0.0001005132246582,0.0021184657892204,-0.0024107857097970,-0.0026184181863062,0.0001285783637746,-0.0003722209284548,-0.0002117934720251,,0.0013044971720459,0.0006642558835833,-0.0097306379038952,-0.0000438730574526,0.0002087906767953,-0.0000009822662857,0.9999999772403214,-0.0806136494002281,0.2698292134783979,0.0003343256994272,-0.0023964915890247,-0.0079505480825901,-0.0198433436453342,0.0003404117596801,-0.0015395777300000,-0.0001423610374331,,0.0000000000000000,0.0000000000000000,
1559013412.9207408428192139,0.1665999889373779,,0.0001876071963411,-0.0002485065635448,-0.0002723575101359,-0.0000332340376668,-0.0000278667317498,-0.0000049033733097,0.9999999990474505,-0.0793962315090670,0.2427096905476230,-0.0000780715043153,0.0016332172232536,-0.0030002443095807,-0.0000183282768429,0.0009260591413560,0.0006978172556181,-0.0004629382745979,,0.0018767528659337,-0.0015868478416372,-0.0062711862608355,-0.0000291626588616,0.0002160709066437,-0.0000033503031968,0.9999999762258388,-0.0789291896576434,0.2706631018623400,0.0000621929295683,-0.0001832428679336,-0.0139995729550719,-0.0103720519691706,-0.0000324573375110,0.0006396181997843,0.0005033669876866,,0.0000000000000000,0.0000000000000000,
1559013412.9540607929229736,0.1999199390411377,,0.0002510355284044,-0.0003552317527220,-0.0002739830334416,-0.0000129934686530,-0.0000142844809747,-0.0000089746469803,0.9999999997732896,-0.0770788454877928,0.2442654901962383,-0.0005467471256826,0.0015572095440772,-0.0016274100853720,0.0003069651755764,0.0011929260021615,0.0012332859105604,-0.0007229402316692,,0.0018767528659337,-0.0015868478416372,-0.0062711862608355,-0.0000291626588616,0.0002160709066437,-0.0000033503031968,0.9999999762258388,-0.0789291896576434,0.2706631018623400,0.0000621929295683,-0.0001832428679336,-0.0139995729550719,-0.0103720519691706,-0.0000324573375110,0.0006396181997843,0.0005033669876866,,0.0000000000000000,0.0000000000000000,
1559013412.9873807430267334,0.2332398891448975,,0.0003049992330981,-0.0004089312959995,-0.0003164140705479,-0.0000144173017045,-0.0000098617901226,-0.0000141313640163,0.9999999997475956,-0.0772445424394733,0.2447715032002950,-0.0011383418386656,0.0011389741805766,-0.0019570558982999,-0.0014499054642399,-0.0004121206084769,0.0004209957160276,0.0003212774096721,,0.0018767528659337,-0.0015868478416372,-0.0062711862608355,-0.0000291626588616,0.0002160709066437,-0.0000033503031968,0.9999999762258388,-0.0789291896576434,0.2706631018623400,0.0000621929295683,-0.0001832428679336,-0.0139995729550719,-0.0103720519691706,-0.0000324573375110,0.0006396181997843,0.0005033669876866,,0.0000000000000000,0.0000000000000000,
1559013413.0207006931304932,0.2665598392486572,,0.0003431363790865,-0.0004716913804853,-0.0004165912864769,-0.0000362799963632,-0.0000178833168929,-0.0000100745123364,0.9999999991312265,-0.0797478174257171,0.2438528996089663,-0.0006721862495950,0.0008971832518353,-0.0020463925252434,-0.0023451758404527,-0.0009427345252527,-0.0001135738131031,0.0003124202551737,,0.0003195640245647,0.0012565451760955,0.0004369553676586,-0.0000203842576571,0.0002228644697758,0.0000059252942832,0.9999999749404003,-0.0779184667913354,0.2714430136939749,0.0011242835076430,-0.0063411630690098,-0.0023399125784636,0.0026414536405355,0.0006563157658093,0.0000575598314754,0.0000708336956450,,0.0000000000000000,0.0000000000000000,
1559013413.0540206432342529,0.2998797893524170,,0.0003903418709308,-0.0005530731092706,-0.0004847153840386,-0.0000454537236579,-0.0000198192877273,-0.0000091906053814,0.9999999987283439,-0.0807986128321173,0.2436311815676687,-0.0005705755700852,0.0017486898863368,-0.0027608805572256,-0.0017974615562203,0.0003923254197449,-0.0003731200542663,0.0000570656395446,,0.0001864124072654,0.0012166738894161,0.0004830618136631,-0.0000185716344986,0.0002542559187380,0.0000077107003256,0.9999999674747831,-0.0777098268087173,0.2750404781751465,0.0013241122817303,-0.0062631070613861,-0.0018153276760131,0.0017081610858440,-0.0014693180564791,-0.0002084249572363,0.0000913238181965,,0.0000000000000000,0.0000000000000000,
1559013413.0873408317565918,0.3331999778747559,,0.0004237583013686,-0.0005978983414816,-0.0004859553960289,-0.0000408711543758,-0.0000194034072755,-0.0000116517915087,0.9999999989086461,-0.0802746947869039,0.2436784591129872,-0.0008526842506157,0.0017249140676854,-0.0031916181404955,-0.0011766514209087,0.0001260234255512,-0.0003740971110650,0.0000545037719461,,-0.0012296630497877,0.0025351477552150,0.0010995718084875,-0.0000417926695341,0.0002369557506546,0.0000081066828663,0.9999999710198130,-0.0803705614379537,0.2730581080783792,0.0013715104470487,-0.0104640517383814,0.0027693663723767,0.0022680787369609,-0.0004222550487611,-0.0009954593842849,-0.0014647236093879,,0.0000000000000000,0.0000000000000000,
1559013413.1206507682800293,0.3665099143981934,,0.0004878458535100,-0.0007145413919704,-0.0005472859748992,-0.0000410329506123,-0.0000277651365041,-0.0000041846293224,0.9999999987639416,-0.0802895699234524,0.2427214401821084,0.0000043002263134,0.0027640242254186,-0.0047846909234250,-0.0033720149168835,0.0001177937451062,-0.0009142172566286,0.0011159593237821,,-0.0012296630497877,0.0025351477552150,0.0010995718084875,-0.0000417926695341,0.0002369557506546,0.0000081066828663,0.9999999710198130,-0.0803705614379537,0.2730581080783792,0.0013715104470487,-0.0104640517383814,0.0027693663723767,0.0022680787369609,-0.0004222550487611,-0.0009954593842849,-0.0014647236093879,,0.0000000000000000,0.0000000000000000,
1559013413.1539707183837891,0.3998298645019531,,0.0005993387223047,-0.0008564831951266,-0.0007325920509608,-0.0000265380949485,-0.0000211867382751,-0.0000015462662607,0.9999999994222304,-0.0786272983030951,0.2434756821714913,0.0003055761875536,0.0026081414709787,-0.0025296102846040,-0.0020212993516994,0.0006597571479993,0.0006968401992302,-0.0004655001469435,,0.0030802988584500,0.0012210024314830,-0.0004229099459523,-0.0000380366311522,0.0002537059910602,0.0000099031762481,0.9999999670442055,-0.0799392118169074,0.2749778185721677,0.0015748725432740,0.0080886157229543,-0.0046372590586543,0.0003316676011309,0.0006035095429979,0.0012304764240980,0.0005028592422605,,0.0000000000000000,0.0000000000000000,
1559013413.1872906684875488,0.4331498146057129,,0.0006706473681521,-0.0009372670635217,-0.0007884422106522,-0.0000239242924276,-0.0000153892055105,-0.0000099971474705,0.9999999995454290,-0.0783319247582986,0.2441387296009482,-0.0006637300591562,0.0014398588076891,-0.0019546610886947,0.0001430146604550,0.0001302729644805,0.0012312538767991,-0.0009994849525566,,0.0032453695944055,0.0011196545295340,-0.0004223351860165,-0.0000312984294318,0.0002538822486879,0.0000161588989184,0.9999999671515505,-0.0791638111367561,0.2749989768490645,0.0022919017707144,0.0086654815822840,-0.0050508026033640,-0.0003003584279213,0.0014034562045708,-0.0017996052047238,-0.0003075636050198,,0.0000000000000000,0.0000000000000000,
1559013413.2206108570098877,0.4664700031280518,,0.0007283212474263,-0.0008894689607461,-0.0007312175689350,-0.0000182412996584,-0.0000186756169820,-0.0000192788357023,0.9999999994734015,-0.0776852408123872,0.2437607187640478,-0.0017268481726820,0.0022548214607271,-0.0001506284422745,-0.0023610418263498,0.0012059961659249,-0.0008934233755296,-0.0012704684033389,,0.0032453695944055,0.0011196545295340,-0.0004223351860165,-0.0000312984294318,0.0002538822486879,0.0000161588989184,0.9999999671515505,-0.0791638111367561,0.2749989768490645,0.0022919017707144,0.0086654815822840,-0.0050508026033640,-0.0003003584279213,0.0014034562045708,-0.0017996052047238,-0.0003075636050198,,0.0000000000000000,0.0000000000000000,
1559013413.2539308071136475,0.4997899532318115,,0.0008171164675153,-0.0010128529339287,-0.0008231656747684,-0.0000074805852060,-0.0000191324301588,-0.0000098932043219,0.9999999997400578,-0.0764475572322320,0.2437098226325159,-0.0006512788605118,0.0023068659825841,-0.0030422062860372,-0.0029485462198804,-0.0001473785159815,0.0001537888843851,0.0005882698132015,,-0.0003187015053108,0.0000959066590073,-0.0209231593457670,-0.0000160718343075,0.0002776230263452,0.0000108136414350,0.9999999612751075,-0.0774217422934056,0.2777186218234659,0.0016761845038021,-0.0058840299025178,-0.0058508231304586,-0.0372426919639111,0.0013397382572293,0.0005982400616631,-0.0003023762255907,,0.0000000000000000,0.0000000000000000,
1559013413.2872507572174072,0.5331099033355713,,0.0008928166044533,-0.0010956815401044,-0.0009070566575078,-0.0000056884580631,-0.0000201550599094,0.0000003032228448,0.9999999997806617,-0.0762372016458494,0.2435941881225812,0.0005173064970996,0.0028396466806870,-0.0024791255462009,-0.0030091460937084,0.0006566373430464,0.0001604724200015,0.0000633609280549,,-0.0005509754171336,-0.0001456836824130,-0.0224293881837500,-0.0000085451778506,0.0002747311364235,0.0000002491187608,0.9999999622248595,-0.0765647796794137,0.2773856195816288,0.0004662457421669,-0.0052228411659598,-0.0065887318924069,-0.0385861136019230,-0.0007309849024750,-0.0003088524681516,-0.0003365832380950,,0.0000000000000000,0.0000000000000000,
1559013413.3205707073211670,0.5664298534393311,,0.0009944441196799,-0.0012130067699497,-0.0010012193140230,-0.0000014850196022,-0.0000206999503804,0.0000006540538429,0.9999999997844394,-0.0757553510790287,0.2435318012645495,0.0005575818529936,0.0028822058906377,-0.0036780876112080,-0.0020668912002240,0.0001275833293816,-0.0001059132195799,-0.0002099267708873,,0.0032448892448287,0.0011686060850249,-0.0088127838804373,-0.0000146503900680,0.0003385993683422,0.0000034395524150,0.9999999425620001,-0.0772627395804454,0.2847048612551494,0.0008218920959599,0.0091201923787594,-0.0014337738975883,-0.0116917202249169,0.0016286274185404,-0.0022791337687522,0.0006528442027047,,0.0000000000000000,0.0000000000000000,
1559013413.3538906574249268,0.5997498035430908,,0.0010989259304723,-0.0014217301631566,-0.0010357185419450,0.0000043933857725,-0.0000162812196822,0.0000009096797342,0.9999999998573963,-0.0750816127610271,0.2440381881219591,0.0005861949570631,0.0023093076156596,-0.0042688084608407,-0.0012310129840108,0.0006530873697107,0.0004249039443303,0.0003315248715533,,0.0034269625326508,0.0011286720590091,-0.0090409392735334,-0.0000107213567495,0.0003332832900764,0.0000064883889218,0.9999999443825994,-0.0768108869699027,0.2840961473448347,0.0011722296041699,0.0091384267434478,-0.0020928373560309,-0.0114530222490430,0.0010196233633906,0.0007099295035005,-0.0002983235754073,,0.0000000000000000,0.0000000000000000,
1559013413.3872108459472656,0.6330699920654297,,0.0011834948763654,-0.0015676019993620,-0.0011049022002150,0.0000078473632770,-0.0000121963208281,0.0000079799567136,0.9999999998629946,-0.0746823509514832,0.2445073447110255,0.0013957754091789,0.0025635408517096,-0.0044267088890737,-0.0033211630802347,-0.0001479433812734,-0.0003807027097256,0.0008508336234191,,0.0040371625405149,0.0010407715328566,-0.0011724512895224,0.0000182179897012,0.0003403120708404,-0.0000080441169780,0.9999999418955441,-0.0735023907927335,0.2848993990187070,-0.0004930345491329,0.0076945354230702,-0.0024773650802672,0.0028743059374392,0.0014570327475667,-0.0012100221356377,0.0000713423796697,,0.0000000000000000,0.0000000000000000,
1559013413.4205307960510254,0.6663899421691895,,0.0012628178594769,-0.0016668089656141,-0.0011313634666538,-0.0000012826246785,-0.0000167953207794,0.0000061572598226,0.9999999998391801,-0.0757294646062572,0.2439800711675219,0.0011876166500115,0.0025366562953450,-0.0042120159742050,-0.0041810100286331,-0.0001469483454677,-0.0006470104174922,0.0008489669137685,,0.0028244609372718,-0.0020864745447010,-0.0040981470072898,0.0000272535559166,0.0003338402301539,-0.0000050454464155,0.9999999438912424,-0.0724653892738492,0.2841582340357628,-0.0001480977271716,0.0034915832802653,-0.0125113883987069,-0.0027146551292390,0.0007540810620412,0.0003361692652106,-0.0002933166106232,,0.0000000000000000,0.0000000000000000,
1559013413.4538507461547852,0.6997098922729492,,0.0013463289960791,-0.0017634460573340,-0.0012527155320852,-0.0000100271757285,-0.0000277924587655,0.0000034955237547,0.9999999995574081,-0.0767328175127000,0.2427194938629773,0.0008842935516006,0.0031091225643523,-0.0022327471828744,-0.0040981503165493,0.0001356783142966,-0.0009010839795043,-0.0007481214005786,,0.0028244609372718,-0.0020864745447010,-0.0040981470072898,0.0000272535559166,0.0003338402301539,-0.0000050454464155,0.9999999438912424,-0.0724653892738492,0.2841582340357628,-0.0001480977271716,0.0034915832802653,-0.0125113883987069,-0.0027146551292390,0.0007540810620412,0.0003361692652106,-0.0002933166106232,,0.0000000000000000,0.0000000000000000,
1559013413.4871706962585449,0.7330298423767090,,0.0014519253777183,-0.0017469081228709,-0.0013585095096560,0.0000029372226217,-0.0000222055749549,-0.0000060440780280,0.9999999997308773,-0.0752518757996360,0.2433582588751620,-0.0002097571674169,0.0034329094019823,-0.0046366111740515,-0.0027013035267830,0.0001189234799564,0.0001547659385113,0.0005908316578796,,0.0028244609372718,-0.0020864745447010,-0.0040981470072898,0.0000272535559166,0.0003338402301539,-0.0000050454464155,0.9999999438912424,-0.0724653892738492,0.2841582340357628,-0.0001480977271716,0.0034915832802653,-0.0125113883987069,-0.0027146551292390,0.0007540810620412,0.0003361692652106,-0.0002933166106232,,0.0000000000000000,0.0000000000000000,
1559013413.5204906463623047,0.7663497924804688,,0.0015799989699241,-0.0019019527502226,-0.0014628259744225,0.0000037036034875,-0.0000214918957590,0.0000036416479689,0.9999999997555602,-0.0751593163016737,0.2434415010455724,0.0009000447919553,0.0038176972645074,-0.0054532323789127,-0.0033791733076966,0.0003785556951970,-0.0001161932510225,0.0013904185548502,,0.0009705727291415,0.0016289898501757,-0.0079331041607371,0.0000413433631328,0.0003589990839138,-0.0000095545487231,0.9999999346595452,-0.0708532497001342,0.2870405726501778,-0.0006679541082759,-0.0035913039464504,0.0022433528210968,-0.0086488155648112,-0.0000468759790238,-0.0001395221770508,-0.0007117160712369,,0.0000000000000000,0.0000000000000000,
1559013413.5538108348846436,0.7996699810028076,,0.0016811044777667,-0.0020685067450430,-0.0015649579574990,0.0000041225170259,-0.0000292369578536,0.0000197868277941,0.9999999993683434,-0.0751034243064747,0.2425564157660311,0.0027513272182217,0.0035005180002508,-0.0056155601408513,-0.0038652614056872,0.0006458527251965,-0.0003815239019905,0.0013911137127981,,0.0009049911250469,0.0016716632260573,-0.0081049924384131,0.0000501230371511,0.0003626649995588,-0.0000170555534951,0.9999999328354414,-0.0698511788821507,0.2874595744438982,-0.0015276880078354,-0.0032216487452388,0.0018814789364114,-0.0086492393165827,0.0019662324339151,0.0004521511436906,-0.0012100221356377,,0.0000000000000000,0.0000000000000000,
1559013413.5871307849884033,0.8329899311065674,,0.0017913831696486,-0.0022107528299037,-0.0016674445285666,0.0000116321622218,-0.0000291245046221,0.0000235140675621,0.9999999992317724,-0.0742410616004284,0.2425698432888170,0.0031783989114477,0.0025157099431435,-0.0034552006988016,-0.0014074767503337,0.0011872512625805,0.0006950419601805,0.0000722180544040,,0.0008416231557927,0.0017042349993819,-0.0082787919112038,0.0000540832522323,0.0003709936414145,-0.0000274513881228,0.9999999293425681,-0.0694029478739007,0.2884124663842267,-0.0027200200000634,-0.0031365249305964,0.0013117705238983,-0.0091546773910522,-0.0008535996312276,-0.0001344025076833,-0.0015033677918836,,0.0000000000000000,0.0000000000000000,
1559013413.6204507350921631,0.8663098812103271,,0.0018295710566738,-0.0021787476569883,-0.0016552827170173,0.0000124716132657,-0.0000297109448974,0.0000258384201089,0.9999999991470473,-0.0741437335735012,0.2425029879716945,0.0034448372551695,0.0029262887346620,-0.0034102072551851,-0.0023021271758143,0.0001240333574173,0.0001585183174526,0.0000582371647085,,0.0030406504889629,0.0022882742342330,-0.0062925504181727,0.0000611729674452,0.0003626874159403,-0.0000190422897520,0.9999999321765465,-0.0685860076404653,0.2874618788989146,-0.0017548979202029,0.0040563573129475,0.0002654088311829,-0.0037910772953182,0.0001189401809825,-0.0001427652314305,-0.0001788293011487,,0.0000000000000000,0.0000000000000000,
1559013413.6537706851959229,0.8996298313140869,,0.0019304066550720,-0.0022841560164622,-0.0017501320961620,0.0000123439369441,-0.0000333563168627,0.0000279908092073,0.9999999989757490,-0.0741573223288431,0.2420855821274387,0.0036920311339339,0.0032901204390303,-0.0041781134592170,-0.0029038802985154,-0.0004136805087489,0.0001528118256775,0.0005857079185548,,0.0036291435458029,0.0025966150466021,-0.0043469637549630,0.0000571760738891,0.0003901364780748,-0.0000200743580797,0.9999999220607196,-0.0690446522828446,0.2906071492304136,-0.0018773020674637,0.0051087369211018,0.0014169181231409,0.0000617773694103,-0.0004234086372890,-0.0003483407199383,-0.0010793746914715,,0.0000000000000000,0.0000000000000000,
1559013413.6870906352996826,0.9329497814178467,,0.0019946056697522,-0.0021564039158342,-0.0018607669972752,0.0000034851403215,-0.0000303551133725,0.0000314514832319,0.9999999990386126,-0.0751707678003728,0.2424300445463302,0.0040881797783916,0.0033282092787476,-0.0039219145459104,-0.0036599250365711,-0.0006764325289134,-0.0001125967562776,0.0003149820973345,,0.0036291435458029,0.0025966150466021,-0.0043469637549630,0.0000571760738891,0.0003901364780748,-0.0000200743580797,0.9999999220607196,-0.0690446522828446,0.2906071492304136,-0.0018773020674637,0.0051087369211018,0.0014169181231409,0.0000617773694103,-0.0004234086372890,-0.0003483407199383,-0.0010793746914715,,0.0000000000000000,0.0000000000000000,
1559013413.7204108238220215,0.9662699699401855,,0.0020904218903546,-0.0022787443488529,-0.0019512843499756,-0.0000086926572587,-0.0000273559937290,0.0000328662662102,0.9999999990479479,-0.0765655401699717,0.2427739772234455,0.0042498893007161,0.0038330719090075,-0.0050195263004051,-0.0045152469992628,-0.0004097003673377,-0.0009124190017192,0.0005782410885825,,0.0030493702962463,0.0032644654958341,0.0008699874413255,0.0000565348685116,0.0004011745245693,-0.0000199703200367,0.9999999177319946,-0.0691181066800932,0.2918720288214725,-0.0018670061042162,0.0025712531059980,0.0029879908543080,0.0095492219552398,0.0001241849677172,-0.0003560954646673,0.0001962994283531,,0.0000000000000000,0.0000000000000000,
1559013413.7537307739257812,0.9995899200439453,,0.0021200077636154,-0.0022904023376379,-0.0019399545340915,-0.0000064569277759,-0.0000300561745482,0.0000342341606654,0.9999999989414784,-0.0763086848589993,0.2424647588890832,0.0044070428314797,0.0035866475505337,-0.0040255298841026,-0.0030282480231894,0.0003913303842729,-0.0001068123428028,0.0000589323323878,,0.0030493702962463,0.0032644654958341,0.0008699874413255,0.0000565348685116,0.0004011745245693,-0.0000199703200367,0.9999999177319946,-0.0691181066800932,0.2918720288214725,-0.0018670061042162,0.0025712531059980,0.0029879908543080,0.0095492219552398,0.0001241849677172,-0.0003560954646673,0.0001962994283531,,0.0000000000000000,0.0000000000000000,
1559013413.7870507240295410,1.0329098701477051,,0.0022454469759754,-0.0024414992920470,-0.0020388209082296,0.0000003392959485,-0.0000279691103028,0.0000419820320209,0.9999999987275614,-0.0755261024968988,0.2427050625970022,0.0052945519553639,0.0034126231683249,-0.0027346604644228,-0.0024649103626590,0.0001281481951585,0.0004285783732905,-0.0004724906080658,,0.0029821578802633,0.0023954715740928,-0.0033581745908973,0.0000636555501370,0.0004000566115030,-0.0000217090852176,0.9999999177156937,-0.0683030665391002,0.2917436920126553,-0.0020657681279611,0.0022860211320221,-0.0006600108463317,0.0015310561284423,-0.0004109627625439,-0.0006739070522599,-0.0001190709881485,,0.0000000000000000,0.0000000000000000,
1559013413.8203706741333008,1.0662298202514648,,0.0023197864541236,-0.0024660703387176,-0.0020586513463512,-0.0000041870548453,-0.0000285795429393,0.0000462505168074,0.9999999985132840,-0.0760427012125868,0.2426357811595033,0.0057837952667177,0.0037713010269543,-0.0040684897607678,-0.0038565485651725,-0.0004126854745109,-0.0001134958862811,0.0005838412133203,,0.0028483643782737,0.0054159764026453,-0.0048358352553247,0.0000756474026680,0.0004063720092715,-0.0000323465478623,0.9999999140464770,-0.0669346459473181,0.2924658971404100,-0.0032850968095539,0.0015071481466293,0.0085062691941857,-0.0014686621725559,-0.0004123515100218,-0.0004598114755936,-0.0001185764558613,,0.0000000000000000,0.0000000000000000,
1559013413.8536908626556396,1.0995500087738037,,0.0024326157146488,-0.0025515556134959,-0.0021825309026949,-0.0000056231226501,-0.0000328794592414,0.0000457117687821,0.9999999983988779,-0.0762075454088382,0.2421429733305601,0.0057227160918381,0.0038102489167328,-0.0010036626902362,-0.0044108783828247,0.0006698422025167,-0.0006309459840937,-0.0010074282072234,,0.0052727955121410,0.0028594060605301,-0.0016091656637851,0.0000741511501028,0.0004075664680992,-0.0000336539987448,0.9999999136292910,-0.0671068135670647,0.2926025797277269,-0.0034351616037410,0.0104847270995378,-0.0010913329897448,0.0042982785962522,0.0000560693915759,0.0001306207850575,-0.0007089182618074,,0.0000000000000000,0.0000000000000000,
1559013413.8870108127593994,1.1328699588775635,,0.0025885971544679,-0.0026645070678585,-0.0022424076898901,-0.0000120052303735,-0.0000380683869287,0.0000365677194999,0.9999999985347372,-0.0769433621799449,0.2415470054810261,0.0046756921768312,0.0039446461047121,-0.0021236119467841,-0.0042269655576216,0.0004004204034878,-0.0011682908216462,-0.0004811290061811,,0.0052727955121410,0.0028594060605301,-0.0016091656637851,0.0000741511501028,0.0004075664680992,-0.0000336539987448,0.9999999136292910,-0.0671068135670647,0.2926025797277269,-0.0034351616037410,0.0104847270995378,-0.0010913329897448,0.0042982785962522,0.0000560693915759,0.0001306207850575,-0.0007089182618074,,0.0000000000000000,0.0000000000000000,
1559013413.9203307628631592,1.1661899089813232,,0.0025885971544679,-0.0026645070678585,-0.0022424076898901,-0.0000120052303735,-0.0000380683869287,0.0000365677194999,0.9999999985347372,-0.0769433621799449,0.2415470054810261,0.0046756921768312,0.0039446461047121,-0.0021236119467841,-0.0042269655576216,0.0004004204034878,-0.0011682908216462,-0.0004811290061811,,0.0054303640759792,0.0028405871846140,-0.0015512931906976,0.0000727297327581,0.0004122941432348,-0.0000389757507913,0.9999999116024042,-0.0672725866643876,0.2931435651078277,-0.0040457387794924,0.0105438055470586,-0.0008907766314223,0.0042810388840735,0.0001138636871474,-0.0001375615538564,-0.0004429370164871,,0.0000000000000000,0.0000000000000000,
1559013413.9536507129669189,1.1995098590850830,,0.0026992358335536,-0.0027595039403865,-0.0023313773627718,-0.0000281038169339,-0.0000437451322331,0.0000332073325684,0.9999999980969061,-0.0787897799756997,0.2408960478290898,0.0042915635298034,0.0034248169286618,-0.0025687496284039,-0.0019634675577758,-0.0014671088313185,0.0004245922178386,-0.0007541590667458,,0.0042457708010142,0.0032688893773403,-0.0056604679087909,0.0000648888487885,0.0004357793942480,-0.0000388127972930,0.9999999021896570,-0.0681711214985140,0.2958347627029305,-0.0040308126094763,0.0040785656310618,0.0004996526986361,-0.0031115380115807,-0.0004219063557684,-0.0014084292342886,-0.0011841928353533,,0.0000000000000000,0.0000000000000000,
1559013413.9869606494903564,1.2328197956085205,,0.0028127826963225,-0.0028700717196054,-0.0024187312822592,-0.0000323091782713,-0.0000407495913317,0.0000393744429337,0.9999999978726205,-0.0792686650340591,0.2412402821504061,0.0049978251624535,0.0034458581416435,-0.0036075879152224,-0.0023405956489193,0.0011785914096666,0.0009557211056971,0.0008729764923675,,0.0037830777864451,0.0059721551358482,-0.0016152676663159,0.0000616365717948,0.0004380310634883,-0.0000290971533605,0.9999999017415333,-0.0685385516296640,0.2960941705912740,-0.0029179549245959,0.0020071996841580,0.0080442428588867,0.0036611172836274,0.0013339569559321,0.0007723305607215,-0.0004502651281655,,0.0000000000000000,0.0000000000000000,
1559013414.0202808380126953,1.2661399841308594,,0.0029963857919553,-0.0032244887231983,-0.0023796892149281,-0.0000297426405477,-0.0000316710800866,0.0000546482410940,0.9999999975629440,-0.0789670698896768,0.2422829506728419,0.0067466725805225,0.0026908983654794,-0.0035640886533513,-0.0033376299406613,0.0001209135501441,-0.0003778494777207,0.0005870982297489,,0.0037830777864451,0.0059721551358482,-0.0016152676663159,0.0000616365717948,0.0004380310634883,-0.0000290971533605,0.9999999017415333,-0.0685385516296640,0.2960941705912740,-0.0029179549245959,0.0020071996841580,0.0080442428588867,0.0036611172836274,0.0013339569559321,0.0007723305607215,-0.0004502651281655,,0.0000000000000000,0.0000000000000000,
1559013414.0536007881164551,1.2994599342346191,,0.0031626962399689,-0.0033629133299977,-0.0025647865695972,-0.0000303118129828,-0.0000319912966345,0.0000561851528618,0.9999999974504898,-0.0790315437732450,0.2422464977512501,0.0069228426741317,0.0043526677240500,-0.0028410877852040,-0.0054306051890892,0.0001254585636616,-0.0009085887273378,0.0003170675575600,,0.0000121213038593,0.0015928919038833,-0.0050828893196578,0.0000748137299263,0.0004453782290903,-0.0000428664643663,0.9999998971017973,-0.0670360616612345,0.2969341739491855,-0.0044962081267990,-0.0103412009775639,-0.0070697003975511,-0.0045804427936673,-0.0004666797758546,-0.0001374986022711,0.0000456533380202,,0.0000000000000000,0.0000000000000000,
1559013414.0869207382202148,1.3327798843383789,,0.0032471816964550,-0.0030164963841423,-0.0025663046218150,-0.0000268213436288,-0.0000305406605726,0.0000585539960338,0.9999999974596566,-0.0786304003371930,0.2424130710061224,0.0071940578495586,0.0040949031095365,-0.0020594260600130,-0.0033585680395460,-0.0001387186615026,-0.0001068902956160,-0.0002124886690287,,0.0000121213038593,0.0015928919038833,-0.0050828893196578,0.0000748137299263,0.0004453782290903,-0.0000428664643663,0.9999998971017973,-0.0670360616612345,0.2969341739491855,-0.0044962081267990,-0.0103412009775639,-0.0070697003975511,-0.0045804427936673,-0.0004666797758546,-0.0001374986022711,0.0000456533380202,,0.0000000000000000,0.0000000000000000,
1559013414.1202406883239746,1.3660998344421387,,0.0033674597978925,-0.0030967698893755,-0.0026596668391869,-0.0000329344796760,-0.0000355244352278,0.0000579671597635,0.9999999971465715,-0.0793312304479499,0.2418419231737791,0.0071276041016484,0.0039204746978816,-0.0019252594728724,-0.0035643709319440,-0.0006632276756096,-0.0009040151616860,-0.0007558070141722,,-0.0001918267742289,0.0014583252582462,-0.0051793105503548,0.0000672918954053,0.0004469704203664,-0.0000485581158316,0.9999998966656715,-0.0679011019789145,0.2971157712807340,-0.0051490438799222,-0.0097791878506541,-0.0069832173176110,-0.0047325701452792,0.0013753385283053,0.0003016986011062,-0.0014640276785940,,0.0000000000000000,0.0000000000000000,
1559013414.1535606384277344,1.3994197845458984,,0.0035526113954372,-0.0033965397995456,-0.0026787669442407,-0.0000333228355675,-0.0000279824306552,0.0000469655911588,0.9999999979504028,-0.0793810631707429,0.2427044704655380,0.0058657401048942,0.0033661541983930,-0.0030055907640177,-0.0026356042625174,-0.0004060157010859,0.0001584403609589,-0.0002131838200288,,-0.0005695107067441,0.0011753494670631,-0.0053720416089590,0.0000732402329876,0.0004666305450950,-0.0000575712412892,0.9999998867886710,-0.0672245097017332,0.2993674002054934,-0.0061843887103450,-0.0087402760982513,-0.0075568733736873,-0.0051086759194732,-0.0005755241727456,0.0005565957981162,0.0000478677466162,,0.0000000000000000,0.0000000000000000,
1559013414.1868808269500732,1.4327399730682373,,0.0036525253204178,-0.0034776014011330,-0.0027746616733328,-0.0000314303820733,-0.0000235662884480,0.0000445146869690,0.9999999982376020,-0.0791653819250401,0.2432101332082630,0.0055841955419494,0.0031415564907455,-0.0021196585051823,-0.0030301574527270,-0.0006691978854409,0.0006938310872213,-0.0007446067587536,,0.0017337937437958,0.0027914976925686,-0.0073980466569868,0.0000657147087486,0.0004684735527028,-0.0000318904734004,0.9999998875985463,-0.0680728783992629,0.2995822330364225,-0.0032422190918197,-0.0032952094916254,-0.0025957324542105,-0.0077453418634832,-0.0003198916092515,-0.0001808123633964,-0.0010700231650844,,0.0000000000000000,0.0000000000000000,
1559013414.2202007770538330,1.4660599231719971,,0.0037369873075250,-0.0033006089900507,-0.0028342451057981,-0.0000346643741234,-0.0000201730173549,0.0000508476137270,0.9999999979029754,-0.0795328549556651,0.2435999717991588,0.0063093837982607,0.0029122566278208,-0.0025860313130775,-0.0041677521624168,-0.0004055855268885,-0.0006423589426442,0.0000475132925049,,0.0016039150001529,0.0026808541271728,-0.0077449373068534,0.0000509286114285,0.0004870076570089,-0.0000417809085965,0.9999998792420798,-0.0697727422121326,0.3017045906296459,-0.0043790822358526,-0.0030165864154696,-0.0030540812294930,-0.0095399990677834,0.0000660082805553,-0.0000287355851469,0.0002058113022940,,0.0000000000000000,0.0000000000000000,
1559013414.2535207271575928,1.4993798732757568,,0.0038183022964500,-0.0033888886332632,-0.0029324283683946,-0.0000474993433102,-0.0000265555120883,0.0000555242506177,0.9999999969778375,-0.0810013810438574,0.2428693994692187,0.0068463200743607,0.0027871883879945,-0.0034418021215648,-0.0025144309405204,-0.0009478444093883,-0.0001173261921875,0.0008450147219631,,0.0016039150001529,0.0026808541271728,-0.0077449373068534,0.0000509286114285,0.0004870076570089,-0.0000417809085965,0.9999998792420798,-0.0697727422121326,0.3017045906296459,-0.0043790822358526,-0.0030165864154696,-0.0030540812294930,-0.0095399990677834,0.0000660082805553,-0.0000287355851469,0.0002058113022940,,0.0000000000000000,0.0000000000000000,
1559013414.2868406772613525,1.5326998233795166,,0.0039130780748238,-0.0034384120613689,-0.0028814872795122,-0.0000617216568303,-0.0000235942077503,0.0000609266722509,0.9999999959608457,-0.0826284786289715,0.2432096847674662,0.0074649716835892,0.0033109790391186,-0.0017313584150145,-0.0032394760892198,-0.0006774275745536,0.0001537109375983,0.0003168488112701,,0.0001515348646201,0.0012294817827928,-0.0051123345942179,0.0000495634790215,0.0004787440758719,-0.0000295359639095,0.9999998837375924,-0.0699224355375030,0.3007594300014954,-0.0029747703706644,-0.0074289659969509,-0.0072463871911168,-0.0031776153482497,0.0000637078628642,-0.0005068728933111,-0.0000599529594183,,0.0000000000000000,0.0000000000000000,
1559013414.3201606273651123,1.5660197734832764,,0.0040297281565762,-0.0034770735724362,-0.0030563287742927,-0.0000715539867410,-0.0000295526077772,0.0000631102544397,0.9999999950118831,-0.0837541515524512,0.2425273196285693,0.0077161695073426,0.0030893236517309,-0.0015902330218732,-0.0059344440561002,-0.0006779924403734,-0.0003807806668536,0.0005794126319448,,0.0034192999153591,0.0010579430106152,0.0064953994279523,0.0000345271351897,0.0005111463805106,-0.0000263829984575,0.9999998684205874,-0.0716438772364495,0.3044728703048402,-0.0026190585096938,0.0061334241181612,-0.0059950468130410,0.0181544125080109,-0.0012176220770925,0.0004556177300401,-0.0002580562722869,,0.0000000000000000,0.0000000000000000,
1559013414.3534808158874512,1.5993399620056152,,0.0041075860550237,-0.0034740737545351,-0.0031585230721579,-0.0000910761080463,-0.0000299174281097,0.0000644365417433,0.9999999933290112,-0.0859905762195372,0.2424858698690623,0.0078682768974457,0.0023744760605358,-0.0007649687669122,-0.0031694822595292,-0.0006691978924796,0.0006938310772643,-0.0007446067493081,,0.0034192999153591,0.0010579430106152,0.0064953994279523,0.0000345271351897,0.0005111463805106,-0.0000263829984575,0.9999998684205874,-0.0716438772364495,0.3044728703048402,-0.0026190585096938,0.0061334241181612,-0.0059950468130410,0.0181544125080109,-0.0012176220770925,0.0004556177300401,-0.0002580562722869,,0.0000000000000000,0.0000000000000000,
1559013414.3868007659912109,1.6326599121093750,,0.0042102573132208,-0.0035767290459624,-0.0032825032217261,-0.0000992447053703,-0.0000327806623801,0.0000641240623166,0.9999999924820107,-0.0869268000938778,0.2421577773041788,0.0078329622530116,0.0022064037806471,-0.0029681860407426,-0.0004971696055639,-0.0004080057784961,0.0006910557756951,-0.0002094503861143,,0.0021895927776940,0.0029798482027788,-0.0017919951850399,0.0000030791525065,0.0005051542388313,-0.0000423319240284,0.9999998715088527,-0.0752563039453160,0.3037837185136449,-0.0044476326101652,-0.0012074953410774,0.0004014892037958,0.0003388677432667,0.0008526051533408,0.0004610072937794,-0.0004364303313196,,0.0000000000000000,0.0000000000000000,
1559013414.4201207160949707,1.6659798622131348,,0.0042485416822180,-0.0035905495899198,-0.0030370301463937,-0.0000970095341107,-0.0000319767570070,0.0000597797260534,0.9999999929965110,-0.0866727837662967,0.2422491767783499,0.0073349952484425,0.0020541008057829,-0.0035168336651922,-0.0019536190293235,-0.0006789874799427,-0.0001144729522342,0.0005812793492485,,0.0021652563266717,0.0029830315984504,-0.0017711143889034,0.0000129066003569,0.0005100100540465,-0.0000459568410642,0.9999998688055579,-0.0741321804956379,0.3043396591730880,-0.0048631812643290,-0.0012841224670410,-0.0001002111966955,0.0015639855992049,0.0004832490230910,0.0007252815994434,-0.0001657244720263,,0.0000000000000000,0.0000000000000000,
1559013414.4534406661987305,1.6992998123168945,,0.0043299334656668,-0.0037092663715319,-0.0031707546810604,-0.0001049388840171,-0.0000413499985848,0.0000739813885781,0.9999999909023812,-0.0875745604529729,0.2411774545868345,0.0089639567923120,0.0030136884878011,-0.0036380902414176,-0.0070573528639335,-0.0004108301132087,-0.0019814022346071,0.0011033687303156,,-0.0014186147277336,0.0028985353920135,-0.0137229153900472,-0.0000057996978002,0.0005104819711338,-0.0000229059692081,0.9999998694249101,-0.0762630878852232,0.3043971376825290,-0.0022228761208905,-0.0113122472539544,-0.0013487567193806,-0.0224984772503376,0.0019746769685298,0.0005661716568284,0.0000881503365235,,0.0000000000000000,0.0000000000000000,
1559013414.4867608547210693,1.7326200008392334,,0.0043805141043172,-0.0035392612664470,-0.0033200645447161,-0.0001037816150005,-0.0000503746072340,0.0000821217035021,0.9999999899739006,-0.0874380608524102,0.2401446286073927,0.0098982409024918,0.0023864208621158,-0.0033905025422195,-0.0045984584229968,0.0003872155309845,-0.0003768724523906,0.0005896601030730,,-0.0014186147277336,0.0028985353920135,-0.0137229153900472,-0.0000057996978002,0.0005104819711338,-0.0000229059692081,0.9999998694249101,-0.0762630878852232,0.3043971376825290,-0.0022228761208905,-0.0113122472539544,-0.0013487567193806,-0.0224984772503376,0.0019746769685298,0.0005661716568284,0.0000881503365235,,0.0000000000000000,0.0000000000000000,
1559013414.5200808048248291,1.7659399509429932,,0.0044878878766939,-0.0036501146392281,-0.0034429031198975,-0.0001008725906877,-0.0000535746739809,0.0000790992299706,0.9999999903488933,-0.0871062072302973,0.2397774093318430,0.0095523920079400,0.0040380576717712,-0.0030499475686402,-0.0021341658912193,0.0001291432075346,0.0001622706436529,-0.0004743573231859,,0.0019871844674433,0.0011427158324406,0.0014052757964757,0.0000145126597581,0.0004981842610422,-0.0000104171448080,0.9999998757466462,-0.0739285600851628,0.3029898472145832,-0.0007887165253009,0.0037218257784843,-0.0071086878888309,0.0082138963043690,0.0013264474691823,-0.0008638858562335,-0.0011839268263429,,0.0000000000000000,0.0000000000000000,
1559013414.5534007549285889,1.7992599010467529,,0.0046303003696440,-0.0036352139720979,-0.0032661064948594,-0.0000976167683532,-0.0000384079550657,0.0000693754333778,0.9999999920914224,-0.0867377301021547,0.2415137779925192,0.0084356369830088,0.0047779700633938,-0.0041728192813252,-0.0006058437130995,-0.0004166656411637,0.0009517349229148,0.0005913080464534,,0.0021569559694145,0.0008463975722888,0.0017737355212673,0.0000397605860765,0.0004972441031336,-0.0000275520140034,0.9999998752041344,-0.0710447551230397,0.3028796325554119,-0.0027506743039883,0.0050291824154556,-0.0075368159450591,0.0100390929728746,0.0008411775343120,0.0002563290181570,-0.0013905941741541,,0.0000000000000000,0.0000000000000000,
1559013414.5867207050323486,1.8325798511505127,,0.0048094429387604,-0.0037488718009586,-0.0033053291422215,-0.0001082155667093,-0.0000203099536073,0.0000723873332231,0.9999999913184855,-0.0879506570404627,0.2435882308562961,0.0087778654570193,0.0055636944745779,-0.0038293866630279,-0.0027075044968737,-0.0004146755709939,0.0004191195040546,0.0005875746193863,,0.0047568128774480,0.0037095875125719,0.0024648328165501,0.0000356404946868,0.0005075731344468,-0.0000260096516513,0.9999998702113747,-0.0715160763899768,0.3040634651266995,-0.0025756846490801,0.0136421741917729,0.0022794245742261,0.0105858491733670,0.0010575925698504,0.0012645954266191,-0.0008035744540393,,0.0000000000000000,0.0000000000000000,
1559013414.6200406551361084,1.8658998012542725,,0.0050436489564256,-0.0038150729478075,-0.0030264990604959,-0.0001067910930862,-0.0000108940676570,0.0000794698491576,0.9999999910807624,-0.0877838782680172,0.2446683558011641,0.0095879272978746,0.0046181979408365,-0.0043801624782398,-0.0037205851821329,-0.0001499334792178,0.0001519126704763,0.0008545670213053,,0.0048156837642820,0.0062237242223286,0.0038197723035811,0.0000351297156098,0.0005140273588113,-0.0000062339267155,0.9999998672514491,-0.0715637410734696,0.3048059729383173,-0.0003105032281870,0.0113962255418301,0.0109010646119714,0.0102634755894542,0.0009090397506952,-0.0008152950322255,-0.0005353579181246,,0.0000000000000000,0.0000000000000000,
1559013414.6533608436584473,1.8992199897766113,,0.0051715546107984,-0.0039231910492036,-0.0031344485833306,-0.0001049273403256,-0.0000125310152497,0.0000823242218081,0.9999999910279748,-0.0875689219275538,0.2444812242312082,0.0099152816710552,0.0037900448503610,-0.0032473825839201,-0.0035005978458683,0.0001285783374776,-0.0003722209776989,-0.0002117935001604,,0.0052291259185608,0.0066394057520543,0.0041492087002540,0.0000389100275542,0.0005036717400379,-0.0000269764555915,0.9999998720365213,-0.0711419311843265,0.3036162666879023,-0.0026857110020908,0.0098902173340321,0.0114108640700579,0.0103509873151779,0.0004561709356494,0.0000499343514093,-0.0024497949052602,,0.0000000000000000,0.0000000000000000,
1559013414.6866807937622070,1.9325399398803711,,0.0053299194879237,-0.0044481040804388,-0.0030347191415345,-0.0000979214611912,-0.0000183579349130,0.0000746231160242,0.9999999922528822,-0.0867699297657121,0.2438121929851702,0.0090337286634397,0.0043155817587718,-0.0043439818084491,-0.0030304627751606,0.0001209135228074,-0.0003778495255296,0.0005870982317529,,0.0052291259185608,0.0066394057520543,0.0041492087002540,0.0000389100275542,0.0005036717400379,-0.0000269764555915,0.9999998720365213,-0.0711419311843265,0.3036162666879023,-0.0026857110020908,0.0098902173340321,0.0114108640700579,0.0103509873151779,0.0004561709356494,0.0000499343514093,-0.0024497949052602,,0.0000000000000000,0.0000000000000000,
1559013414.7200007438659668,1.9658598899841309,,0.0054974305117423,-0.0045693490432047,-0.0031263904986500,-0.0000997694481924,-0.0000135940675030,0.0000769541243911,0.9999999919696607,-0.0869805131847691,0.2443584860931586,0.0093000742911348,0.0052806388773324,-0.0044074047731161,-0.0025426770180804,-0.0004182255215530,0.0006835510006909,0.0008557385499095,,0.0054295035858299,0.0068616271978034,0.0043620796852453,0.0000433773458014,0.0005486319143521,-0.0000403310463635,0.9999998477474060,-0.0706375943312313,0.3087663808869311,-0.0042223720328507,0.0098042385652661,0.0111819142475724,0.0111134964972734,0.0008505390142091,-0.0015528250951320,-0.0011219085427001,,0.0000000000000000,0.0000000000000000,
1559013414.7533206939697266,1.9991798400878906,,0.0057304699031808,-0.0045209624122687,-0.0031747363706575,-0.0001067167722664,-0.0000086369544967,0.0000884736741740,0.9999999903546715,-0.0877709232525608,0.2449284714569279,0.0106193292954564,0.0062242099645506,-0.0046405214167902,-0.0038513268126257,-0.0009452894642997,-0.0001154500535962,0.0005787174417894,,0.0054295035858299,0.0068616271978034,0.0043620796852453,0.0000433773458014,0.0005486319143521,-0.0000403310463635,0.9999998477474060,-0.0706375943312313,0.3087663808869311,-0.0042223720328507,0.0098042385652661,0.0111819142475724,0.0111134964972734,0.0008505390142091,-0.0015528250951320,-0.0011219085427001,,0.0000000000000000,0.0000000000000000,
1559013414.7866406440734863,2.0324997901916504,,0.0059216321751485,-0.0046153059569546,-0.0032655034681494,-0.0000970977963465,0.0000016124614757,0.0000775869620451,0.9999999922748407,-0.0866739295451093,0.2461011032996175,0.0093701217561902,0.0052585977553852,-0.0021209173805975,-0.0024620677693702,0.0006684169870927,0.0004361609832678,-0.0012662586197029,,0.0048463070129249,-0.0018530932854782,-0.0043371194688543,0.0000496536779303,0.0005462905973898,-0.0000412375629876,0.9999998487002679,-0.0699188675543722,0.3084979834910337,-0.0043255173052810,0.0092678898945451,-0.0197609998285770,-0.0056686224415898,0.0003229734138586,0.0009426797041669,0.0000063279644564,,0.0000000000000000,0.0000000000000000,
1559013414.8199608325958252,2.0658199787139893,,0.0060224278692436,-0.0042631086676536,-0.0029624452379478,-0.0000784415695719,0.0000048098212191,0.0000652772010322,0.9999999947813364,-0.0845421183114085,0.2464653568522696,0.0079590072042115,0.0055452366235825,-0.0025360595138154,-0.0032566488067706,0.0009310343098394,-0.0006337213388309,-0.0004722718587937,,0.0052264772958771,-0.0026613178782102,-0.0045826045094389,0.0000475461241026,0.0005503896550055,-0.0000303206917289,0.9999998469456131,-0.0701543412170739,0.3089692817089975,-0.0030752484778133,0.0105025302618742,-0.0202286429703236,-0.0065599353983998,-0.0001585589197930,0.0001465858949814,-0.0005223532207310,,0.0000000000000000,0.0000000000000000,
1559013414.8532807826995850,2.0991399288177490,,0.0062095182081909,-0.0043688165821245,-0.0030481825509859,-0.0000742527448937,0.0000042479787783,0.0000676374477458,0.9999999949468301,-0.0840609561768136,0.2464013199127515,0.0082295658260891,0.0052950119267681,-0.0029375992792106,-0.0027439494217651,0.0001199184752499,-0.0001115418533637,0.0005889649531310,,0.0035853931829597,0.0016109033633505,0.0015901379357438,0.0000526102442627,0.0005726425298447,-0.0000379765869908,0.9999998339352233,-0.0695783964641965,0.3115181782101862,-0.0039554728880048,0.0037116021849215,-0.0034948575776070,0.0057091480121017,0.0006449705688283,0.0007822083425708,0.0002719526237343,,0.0000000000000000,0.0000000000000000,
1559013414.8865907192230225,2.1324498653411865,,0.0063404891027685,-0.0045103564960034,-0.0031556589568542,-0.0000781860412904,0.0000096199631661,0.0000779751962843,0.9999999938571341,-0.0845065449790553,0.2470185885070579,0.0094133325796640,0.0037305498055106,-0.0025430090908930,-0.0019332879863315,-0.0012094667266891,0.0006862483511636,0.0000491612561482,,0.0018623154410093,0.0027256348443475,0.0001956494993356,0.0000609717752342,0.0005685389954785,-0.0000005049907428,0.9999998365227858,-0.0685993416432927,0.3110533887813620,0.0003396554353508,-0.0041805850341916,0.0011643896577880,0.0006084713968448,-0.0011163554154336,-0.0002244176284876,-0.0005613433313556,,0.0000000000000000,0.0000000000000000,
1559013414.9199106693267822,2.1657698154449463,,0.0064653455816666,-0.0046126075307405,-0.0032400136062414,-0.0000963877831922,0.0000112411209593,0.0000820005087160,0.9999999919294746,-0.0865903127227760,0.2472051745829675,0.0098743200902994,0.0040187873588052,-0.0036184517051508,-0.0021329131271825,-0.0004121206441906,0.0004209956328965,0.0003212773874031,,0.0017819703080484,0.0027485697378166,0.0002144086046948,0.0000582800221329,0.0005613600279983,-0.0000004010503061,0.9999998407390859,-0.0689077309125702,0.3102307548704150,0.0003524282589109,-0.0039354576729238,0.0009255666518584,0.0008877887739800,-0.0007359915180132,0.0003025436890312,0.0002885470166802,,0.0000000000000000,0.0000000000000000,
1559013414.9532308578491211,2.1990900039672852,,0.0065576573062740,-0.0046762486579482,-0.0030173287667038,-0.0000981712923466,0.0000091879874200,0.0000840054690184,0.9999999916105298,-0.0867937174596399,0.2469702452852371,0.0101044045086676,0.0041760900445463,-0.0038327101997846,-0.0019565705596797,0.0001214783800026,0.0001566420387271,0.0003245344129495,,0.0017819703080484,0.0027485697378166,0.0002144086046948,0.0000582800221329,0.0005613600279983,-0.0000004010503061,0.9999998407390859,-0.0689077309125702,0.3102307548704150,0.0003524282589109,-0.0039354576729238,0.0009255666518584,0.0008877887739800,-0.0007359915180132,0.0003025436890312,0.0002885470166802,,0.0000000000000000,0.0000000000000000,
1559013414.9865508079528809,2.2324099540710449,,0.0067771341821654,-0.0048209449404557,-0.0031215481202812,-0.0000959971157547,0.0000121262028817,0.0000812990732057,0.9999999920139848,-0.0865458837979693,0.2473064800319036,0.0097937978767659,0.0048225828099177,-0.0025158303017922,-0.0013186812870900,0.0001226081140783,0.0012256252140866,-0.0002005932400151,,0.0029704976370324,0.0010159144944673,-0.0068657866970963,0.0000582245274008,0.0005601235302483,0.0000018985634455,0.9999998414339528,-0.0689128105575490,0.3100893950405605,0.0006161232992979,0.0019557164050639,-0.0059154736809433,-0.0117896087467670,-0.0002207496145274,0.0013766620540991,-0.0006734695052728,,0.0000000000000000,0.0000000000000000,
1559013415.0198707580566406,2.2657299041748047,,0.0068667087358227,-0.0044109418904738,-0.0031732297304796,-0.0000922227410333,0.0000144840209571,0.0000875482801419,0.9999999918102390,-0.0861102680115387,0.2475776408762884,0.0105095343468728,0.0061082956811280,-0.0026469559014048,-0.0036096564473722,0.0006550774050478,-0.0001077115763700,0.0003277914348709,,0.0029704976370324,0.0010159144944673,-0.0068657866970963,0.0000582245274008,0.0005601235302483,0.0000018985634455,0.9999998414339528,-0.0689128105575490,0.3100893950405605,0.0006161232992979,0.0019557164050639,-0.0059154736809433,-0.0117896087467670,-0.0002207496145274,0.0013766620540991,-0.0006734695052728,,0.0000000000000000,0.0000000000000000,
1559013415.0531907081604004,2.2990498542785645,,0.0070683043786179,-0.0045435800329760,-0.0032852453410965,-0.0000974563589787,0.0000145169411983,0.0000958346492650,0.9999999905536183,-0.0867059068398696,0.2475828101966383,0.0114590761183643,0.0052360479876483,-0.0030710965795630,-0.0024586967291162,0.0001265882199560,0.0001603943868092,-0.0002080600607515,,0.0028302361133023,0.0011308112806345,-0.0055005617195409,0.0000614221750839,0.0005673859537669,0.0000062026473458,0.9999998371309983,-0.0685439934837356,0.3109222268541514,0.0011085002659068,0.0022205500863492,-0.0049788719043136,-0.0089428108185530,-0.0010673586511984,-0.0010183617705479,-0.0010928818956017,,0.0000000000000000,0.0000000000000000,
1559013415.0865106582641602,2.3323698043823242,,0.0072289812091622,-0.0045430204267626,-0.0032898013661160,-0.0000931452866603,0.0000154043895442,0.0000834826325318,0.9999999920586553,-0.0862179821820676,0.2476824588344245,0.0100434911354747,0.0049385684059418,-0.0018795815908809,-0.0027099172940228,-0.0003963608821496,-0.0003685465944908,-0.0010158089471632,,0.0029221986643147,0.0009211528264380,-0.0058647508733388,0.0000569818828218,0.0005542338034713,0.0000084162661342,0.9999998447535492,-0.0690515848017236,0.3094154253685485,0.0013637793337315,0.0021712789312005,-0.0055115297436714,-0.0089211678132415,0.0002103293809341,-0.0018684096867219,-0.0012658763444051,,0.0000000000000000,0.0000000000000000,
1559013415.1198308467864990,2.3656899929046631,,0.0073736143541283,-0.0046377766002017,-0.0033659641997856,-0.0001026175311553,0.0000150848310539,0.0000828950542372,0.9999999911852502,-0.0873037143603397,0.2476458350714554,0.0099761942522584,0.0048971619955189,-0.0019812939171709,-0.0025629742418113,-0.0001371588407377,0.0001612935173854,-0.0004769191892113,,0.0051925544355761,0.0023813793912971,-0.0010522355678721,0.0000469439347328,0.0005700122294068,-0.0000046649478309,0.9999998364302685,-0.0702091373472664,0.3112216003752460,-0.0001381758148190,0.0089325234293938,0.0004224320291542,0.0012637828476727,-0.0005778026534244,-0.0005969690391794,-0.0000826702453196,,0.0000000000000000,0.0000000000000000,
1559013415.1531507968902588,2.3990099430084229,,0.0075584099804520,-0.0045259628722960,-0.0034329929085110,-0.0001038631266711,0.0000204961715651,0.0000892488000360,0.9999999904135048,-0.0874432615864481,0.2482669758008325,0.0107034018132964,0.0047912052818798,-0.0020386130769744,-0.0031595968195150,0.0001240332770092,0.0001585182089636,0.0000582371663295,,0.0035860365057522,0.0049728162104847,-0.0003948088862355,0.0000461034086983,0.0005572411736923,0.0000432721577387,0.9999998427421228,-0.0702788005443683,0.3097651381373013,0.0053568951747581,0.0022059706971049,0.0089474814012647,0.0013144835829735,-0.0006860076682642,-0.0004370108363219,-0.0000765325530665,,0.0000000000000000,0.0000000000000000,
1559013415.1864707469940186,2.4323298931121826,,0.0077363166492019,-0.0046142199807555,-0.0035584138650254,-0.0001130055414152,0.0000125458643794,0.0000900859071945,0.9999999894784390,-0.0884905679826897,0.2473561694252506,0.0108006105358350,0.0046985283723894,-0.0006241032668919,-0.0028179069567036,0.0001362430841509,-0.0003665924733698,-0.0010106852288967,,0.0025138590955969,0.0033192539606244,0.0009078161052141,0.0000365193240325,0.0005775845015205,0.0000439068098541,0.9999998315673231,-0.0713766200413169,0.3120964502441695,0.0054260206836029,-0.0019299490377307,0.0016534070018679,0.0051813190802932,0.0001960064255400,0.0007469583069906,-0.0014681906905025,,0.0000000000000000,0.0000000000000000,
1559013415.2197906970977783,2.4656498432159424,,0.0077966137479339,-0.0045570865495006,-0.0034359739502741,-0.0001204807841502,0.0000122361392420,0.0000888466067374,0.9999999887204690,-0.0893477820009055,0.2473205503808872,0.0106586362005980,0.0042844307334628,-0.0029362241130289,-0.0010674900647653,-0.0001442588061595,0.0006901565704574,0.0000594087179918,,0.0024622045541892,0.0033692700341506,0.0010831382365003,0.0000311932746903,0.0005793344129262,0.0000361975982775,0.9999998310441615,-0.0719912381284506,0.3122958639970193,0.0045419871211058,-0.0010414639255032,0.0009290307061747,0.0048048202879727,0.0009482172317803,0.0003190914285369,-0.0010488524567336,,0.0000000000000000,0.0000000000000000,
1559013415.2531106472015381,2.4989697933197021,,0.0079737148805752,-0.0046513444183395,-0.0035116150502106,-0.0001156460530265,0.0000197106698899,0.0000899274548660,0.9999999890752663,-0.0887931577632236,0.2481771960249394,0.0107812718177850,0.0054800880724794,-0.0029038639728311,-0.0033111081983734,0.0001214783093245,0.0001566420239200,0.0003245344088457,,0.0024622045541892,0.0033692700341506,0.0010831382365003,0.0000311932746903,0.0005793344129262,0.0000361975982775,0.9999998310441615,-0.0719912381284506,0.3122958639970193,0.0045419871211058,-0.0010414639255032,0.0009290307061747,0.0048048202879727,0.0009482172317803,0.0003190914285369,-0.0010488524567336,,0.0000000000000000,0.0000000000000000,
1559013415.2864308357238770,2.5322899818420410,,0.0081781368624294,-0.0046061553882083,-0.0034341628341283,-0.0001150064636219,0.0000181515768646,0.0000800753776641,0.9999999900159838,-0.0887247472741731,0.2479969123587835,0.0096525550663073,0.0066785780097312,-0.0013095619652430,-0.0050482108552461,-0.0003979208187520,-0.0006367304825364,-0.0007513784311878,,-0.0004187368762987,0.0000351582624904,-0.0101975856681350,0.0000339133369935,0.0005851228979050,0.0000428547801781,0.9999998273222590,-0.0716758011117047,0.3129601442598663,0.0053041828621122,-0.0091990232467651,-0.0111310230568051,-0.0174473952502012,-0.0002537416294217,0.0002517852990422,0.0007231563213281,,0.0000000000000000,0.0000000000000000,
1559013415.3197507858276367,2.5656099319458008,,0.0083780221749234,-0.0046987206539771,-0.0035498492555895,-0.0001128719227080,0.0000282798430067,0.0000831581599668,0.9999999897724502,-0.0884785349440071,0.2491580110460046,0.0100041620315428,0.0054560298673567,-0.0021898321449881,-0.0031732731181798,0.0003918951333181,0.0004276791342138,-0.0002036314959903,,-0.0004187368762987,0.0000351582624904,-0.0101975856681350,0.0000339133369935,0.0005851228979050,0.0000428547801781,0.9999998273222590,-0.0716758011117047,0.3129601442598663,0.0053041828621122,-0.0091990232467651,-0.0111310230568051,-0.0174473952502012,-0.0002537416294217,0.0002517852990422,0.0007231563213281,,0.0000000000000000,0.0000000000000000,
1559013415.3530707359313965,2.5989298820495605,,0.0084589433017028,-0.0047868472360958,-0.0032473301752902,-0.0000972794894032,0.0000264343562729,0.0000815942286677,0.9999999915901538,-0.0866925636979865,0.2489461318171782,0.0098252973413849,0.0050210260957365,-0.0020787254112923,-0.0021945407245011,0.0006581971275117,0.0004286561910124,-0.0002010696283917,,-0.0004187368762987,0.0000351582624904,-0.0101975856681350,0.0000339133369935,0.0005851228979050,0.0000428547801781,0.9999998273222590,-0.0716758011117047,0.3129601442598663,0.0053041828621122,-0.0091990232467651,-0.0111310230568051,-0.0174473952502012,-0.0002537416294217,0.0002517852990422,0.0007231563213281,,0.0000000000000000,0.0000000000000000,
1559013415.3863906860351562,2.6322498321533203,,0.0086340856006477,-0.0048751663034663,-0.0033757308715314,-0.0001007335095523,0.0000154145713941,0.0000850009054896,0.9999999911949986,-0.0870867790186537,0.2476839450788181,0.0102174586981619,0.0054392121026957,-0.0020362388470864,-0.0030565219461208,-0.0004070108465944,0.0004247479218141,-0.0002113171143114,,-0.0009817813704339,-0.0000302048205232,-0.0113073154465510,0.0000366397794939,0.0005790403470259,0.0000539893675716,0.9999998302274612,-0.0713571827692653,0.3122647584925159,0.0065812067841531,-0.0103610353544354,-0.0106029035523534,-0.0180826224386692,0.0003542889317032,0.0002166567428503,-0.0017341335769743,,0.0000000000000000,0.0000000000000000,
1559013415.4197106361389160,2.6655697822570801,,0.0086930749921099,-0.0048553177799612,-0.0035829376894909,-0.0001068906082630,0.0000224748269650,0.0000831535457654,0.9999999905773839,-0.0877931801896050,0.2484927481622533,0.0100046009276624,0.0054727218897107,-0.0012822576655731,-0.0039175247648667,-0.0006682029643414,0.0004275232302359,-0.0007464734698522,,-0.0014185691403290,-0.0004501569395737,-0.0120030723032950,0.0000434684384757,0.0005856383472689,0.0000345169022151,0.9999998269733873,-0.0705855220237378,0.3130179456839972,0.0043492845201148,-0.0107360417023301,-0.0110346311703324,-0.0169592592865229,-0.0017026001587510,0.0004706384497695,-0.0002738574403338,,0.0000000000000000,0.0000000000000000,
1559013415.4530308246612549,2.6988899707794189,,0.0088863119215472,-0.0049212274227755,-0.0037207273703918,-0.0001059818793374,0.0000246333655663,0.0000774749153951,0.9999999910793380,-0.0876918374569830,0.2487391625991645,0.0093535223508752,0.0050404634870201,-0.0013214601432278,-0.0028395520115950,0.0003970050019323,0.0004314314745481,-0.0007362260075458,,0.0003574812231935,0.0003619826310008,-0.0030307031033011,0.0000280967192277,0.0006463813474378,0.0000294119631035,0.9999997902683102,-0.0723496947302187,0.3199778806545092,0.0037542767039110,-0.0030758511275053,-0.0073704370297492,-0.0008689275127836,-0.0003743243869394,0.0005830600857735,-0.0002860996755771,,0.0000000000000000,0.0000000000000000,
1559013415.4863507747650146,2.7322099208831787,,0.0090140622505077,-0.0046149152933509,-0.0035186453397329,-0.0001061277312106,0.0000189890498617,0.0000769513149729,0.9999999912274080,-0.0877088556297578,0.2480922881343714,0.0092944427214344,0.0064096722988796,-0.0016569676011024,-0.0046382622272100,0.0003978653403202,-0.0011701671372724,-0.0002148317775076,,0.0034025515714207,0.0019694676577049,0.0014925504697577,0.0000218994381274,0.0006415251941719,0.0000333035632454,0.9999997934283349,-0.0730576655340355,0.3194220055325690,0.0042004903961273,0.0078299734741449,-0.0012851294595748,0.0068843513727188,0.0005175640108064,-0.0001538863434689,-0.0014675890561193,,0.0000000000000000,0.0000000000000000,
