#Time(sec),Dtime(sec),,x(m),y(m),z(m),qx,qy,qz,qw,roll_x_G(deg),pitch_y_G(deg),yaw_z_G(deg),vx(m/s),vy(m/s),vz(m/s),wx(rad/s),wy(rad/s),wz(rad/s),,gt_x(m),gt_y(m),gt_z(m),gt_qx,gt_qy,gt_qz,gt_qw,gt_groll_x_G(deg),gt_pitch_y_G(deg),gt_yaw_z_G(deg),gt_vx(m/s),gt_vy(m/s),gt_vz(m/s),gt_wx(rad/s),gt_wy(rad/s),gt_wz(rad/s),,Sr,Sr_avg,
1559013412.7541408538818359,0.0000000000000000,,0.0000000000000002,0.0000000000000001,-0.0000000000000001,0.0000000000000000,-0.0000000000000001,0.0000000000000000,1.0000000000000000,-0.0755855138669150,0.2459037397968158,0.0004794994091153,0.0000000000000000,0.0000000000000000,0.0000000000000000,0.0000000000000000,0.0000000000000000,0.0000000000000000,,0.0000000000000000,0.0000000000000000,0.0000000000000000,0.0000000000000000,0.0000000000000000,0.0000000000000000,1.0000000000000000,-0.0755855138669150,0.2459037397968215,0.0004794994091152,-0.0098102642223239,-0.0059528849087656,-0.0021041124127805,0.0008114594966173,-0.0000641869410174,-0.0007574954070151,,0.0000000000000000,0.0000000000000000,
1559013412.7874608039855957,0.0333199501037598,,0.0000000000000002,0.0000000000000001,-0.0000000000000001,0.0000000000000000,-0.0000000000000001,0.0000000000000000,1.0000000000000000,-0.0755855138669150,0.2459037397968158,0.0004794994091153,0.0000000000000000,0.0000000000000000,0.0000000000000000,0.0000000000000000,0.0000000000000000,0.0000000000000000,,0.0000000000000000,0.0000000000000000,0.0000000000000000,0.0000000000000000,0.0000000000000000,0.0000000000000000,1.0000000000000000,-0.0755855138669150,0.2459037397968215,0.0004794994091152,-0.0098102642223239,-0.0059528849087656,-0.0021041124127805,0.0008114594966173,-0.0000641869410174,-0.0007574954070151,,0.0000000000000000,0.0000000000000000,
1559013412.8207807540893555,0.0666399002075195,,0.0000219726581638,-0.0000260111889973,-0.0000459141663904,-0.0000208610050351,-0.0000137221306289,-0.0000034844792411,0.9999999996821901,-0.0779777081630646,0.2443307657790641,0.0000823114382821,0.0005549145090711,-0.0009140744155948,-0.0007645881653806,-0.0006713226546122,-0.0001088443910840,-0.0002176123651700,,0.0026054364313848,0.0026394175940160,-0.0081269355738912,-0.0000310310364889,0.0001704901185218,-0.0000071265749704,0.9999999849597030,-0.0791451706312156,0.2654393478622390,-0.0003635336208244,0.0007849216344766,0.0008778728661127,-0.0175203494727612,-0.0012160835321993,0.0017614921089262,-0.0004441663622856,,0.0000000000000000,0.0000000000000000,
1559013412.8541007041931152,0.0999598503112793,,0.0000608926743231,-0.0000640802948601,-0.0001140602429562,-0.0000373096937066,-0.0000189844924195,-0.0000087132854731,0.9999999990858274,-0.0798651435414091,0.2437269247291102,-0.0005160265755550,0.0011061855532015,-0.0033799717536283,-0.0017536299372295,-0.0014824384616985,0.0004133351236126,0.0008436244272202,,0.0026245542083911,0.0026448552001494,-0.0084863851899029,-0.0000333937179824,0.0001718520074773,-0.0000101301488424,0.9999999846245635,-0.0794174526191618,0.2655949411350161,-0.0007079784706163,0.0011400097282603,-0.0002242026966996,-0.0186141021549702,-0.0007273238734342,-0.0001038627669914,-0.0002373664610786,,0.0000000000000000,0.0000000000000000,
1559013412.8874206542968750,0.1332798004150391,,0.0001262903034411,-0.0001468154741993,-0.0002142065874932,-0.0000378024141703,-0.0000235806923088,-0.0000050935236011,0.9999999989944923,-0.0799198270708824,0.2432008019201591,-0.0001005132246582,0.0021184657892204,-0.0024107857097970,-0.0026184181863062,0.0001285783637746,-0.0003722209284548,-0.0002117934720251,,0.0026245542083911,0.0026448552001494,-0.0084863851899029,-0.0000333937179824,0.0001718520074773,-0.0000101301488424,0.9999999846245635,-0.0794174526191618,0.2655949411350161,-0.0007079784706163,0.0011400097282603,-0.0002242026966996,-0.0186141021549702,-0.0007273238734342,-0.0001038627669914,-0.0002373664610786,,0.0000000000000000,0.0000000000000000,
1559013412.9207408428192139,0.1665999889373779,,0.0001876071963411,-0.0002485065635448,-0.0002723575101359,-0.0000332340376668,-0.0000278667317498,-0.0000049033733097,0.9999999990474505,-0.0793962315090670,0.2427096905476230,-0.0000780715043153,0.0016332172232536,-0.0030002443095807,-0.0000183282768429,0.0009260591413560,0.0006978172556181,-0.0004629382745979,,0.0013593040360304,0.0008173975454188,-0.0093296534036653,-0.0000343508870352,0.0001711666929228,0.0000003936259792,0.9999999847609122,-0.0795217528043334,0.2655180411741611,0.0004980565774619,-0.0027831455226988,-0.0074895452708006,-0.0201553516089916,-0.0013698628172278,0.0006960678729229,-0.0001766680798028,,0.0000000000000000,0.0000000000000000,
1559013412.9540607929229736,0.1999199390411377,,0.0002510355284044,-0.0003552317527220,-0.0002739830334416,-0.0000129934686530,-0.0000142844809747,-0.0000089746469803,0.9999999997732896,-0.0770788454877928,0.2442654901962383,-0.0005467471256826,0.0015572095440772,-0.0016274100853720,0.0003069651755764,0.0011929260021615,0.0012332859105604,-0.0007229402316692,,0.0013593040360304,0.0008173975454188,-0.0093296534036653,-0.0000343508870352,0.0001711666929228,0.0000003936259792,0.9999999847609122,-0.0795217528043334,0.2655180411741611,0.0004980565774619,-0.0027831455226988,-0.0074895452708006,-0.0201553516089916,-0.0013698628172278,0.0006960678729229,-0.0001766680798028,,0.0000000000000000,0.0000000000000000,
1559013412.9873807430267334,0.2332398891448975,,0.0003049992330981,-0.0004089312959995,-0.0003164140705479,-0.0000144173017045,-0.0000098617901226,-0.0000141313640163,0.9999999997475956,-0.0772445424394733,0.2447715032002950,-0.0011383418386656,0.0011389741805766,-0.0019570558982999,-0.0014499054642399,-0.0004121206084769,0.0004209957160276,0.0003212774096721,,0.0013044971720459,0.0006642558835833,-0.0097306379038952,-0.0000438730574526,0.0002087906767953,-0.0000009822662857,0.9999999772403214,-0.0806136494002281,0.2698292134783979,0.0003343256994272,-0.0023964915890247,-0.0079505480825901,-0.0198433436453342,0.0003404117596801,-0.0015395777300000,-0.0001423610374331,,0.0000000000000000,0.0000000000000000,
1559013413.0207006931304932,0.2665598392486572,,0.0003431363790865,-0.0004716913804853,-0.0004165912864769,-0.0000362799963632,-0.0000178833168929,-0.0000100745123364,0.9999999991312265,-0.0797478174257171,0.2438528996089663,-0.0006721862495950,0.0008971832518353,-0.0020463925252434,-0.0023451758404527,-0.0009427345252527,-0.0001135738131031,0.0003124202551737,,0.0018767528659337,-0.0015868478416372,-0.0062711862608355,-0.0000291626588616,0.0002160709066437,-0.0000033503031968,0.9999999762258388,-0.0789291896576434,0.2706631018623400,0.0000621929295683,-0.0001832428679336,-0.0139995729550719,-0.0103720519691706,-0.0000324573375110,0.0006396181997843,0.0005033669876866,,0.0000000000000000,0.0000000000000000,
1559013413.0540206432342529,0.2998797893524170,,0.0003903418709308,-0.0005530731092706,-0.0004847153840386,-0.0000454537236579,-0.0000198192877273,-0.0000091906053814,0.9999999987283439,-0.0807986128321173,0.2436311815676687,-0.0005705755700852,0.0017486898863368,-0.0027608805572256,-0.0017974615562203,0.0003923254197449,-0.0003731200542663,0.0000570656395446,,0.0001864124072654,0.0012166738894161,0.0004830618136631,-0.0000185716344986,0.0002542559187380,0.0000077107003256,0.9999999674747831,-0.0777098268087173,0.2750404781751465,0.0013241122817303,-0.0062631070613861,-0.0018153276760131,0.0017081610858440,-0.0014693180564791,-0.0002084249572363,0.0000913238181965,,0.0000000000000000,0.0000000000000000,
1559013413.0873408317565918,0.3331999778747559,,0.0004236323962510,-0.0005956834762655,-0.0004860985559448,-0.0000408711512670,-0.0000194034197264,-0.0000116513982116,0.9999999989086507,-0.0802746942380881,0.2436784577475275,-0.0008526391797882,0.0017244875629779,-0.0031841157971995,-0.0011771353266993,0.0001260234255512,-0.0003740971110650,0.0000545037719461,,-0.0012296630497877,0.0025351477552150,0.0010995718084875,-0.0000417926695341,0.0002369557506546,0.0000081066828663,0.9999999710198130,-0.0803705614379537,0.2730581080783792,0.0013715104470487,-0.0104640517383814,0.0027693663723767,0.0022680787369609,-0.0004222550487611,-0.0009954593842849,-0.0014647236093879,,0.0000000000000000,0.0000000000000000,
1559013413.1206507682800293,0.3665099143981934,,0.0004877071078770,-0.0007121005578726,-0.0005474437289790,-0.0000410329475003,-0.0000277651489550,-0.0000041842360218,0.9999999987639431,-0.0802895693746506,0.2427214388166424,0.0000043452975371,0.0027635978138386,-0.0047771885782675,-0.0033724988133335,0.0001177937451088,-0.0009142172566360,0.0011159593240173,,-0.0012296630497877,0.0025351477552150,0.0010995718084875,-0.0000417926695341,0.0002369557506546,0.0000081066828663,0.9999999710198130,-0.0803705614379537,0.2730581080783792,0.0013715104470487,-0.0104640517383814,0.0027693663723767,0.0022680787369609,-0.0004222550487611,-0.0009954593842849,-0.0014647236093879,,0.0000000000000000,0.0000000000000000,
1559013413.1539707183837891,0.3998298645019531,,0.0005992108242125,-0.0008538899429493,-0.0007328428047346,-0.0000265381221264,-0.0000211866467324,-0.0000015458394614,0.9999999994222324,-0.0786273012086559,0.2434756927273225,0.0003056250814925,0.0026077919828122,-0.0025225145046929,-0.0020219854864918,0.0006597571480019,0.0006968401992227,-0.0004655001467083,,0.0030802988584500,0.0012210024314830,-0.0004229099459523,-0.0000380366311522,0.0002537059910602,0.0000099031762481,0.9999999670442055,-0.0799392118169074,0.2749778185721677,0.0015748725432740,0.0080886157229543,-0.0046372590586543,0.0003316676011309,0.0006035095429979,0.0012304764240980,0.0005028592422605,,0.0000000000000000,0.0000000000000000,
1559013413.1872906684875488,0.4331498146057129,,0.0006705089458545,-0.0009344600880056,-0.0007887136425199,-0.0000239243196089,-0.0000153891139655,-0.0000099967206678,0.9999999995454338,-0.0783319276640658,0.2441387401568847,-0.0006636811648095,0.0014395092571420,-0.0019475653054060,0.0001423284851689,0.0001302729644640,0.0012312538768570,-0.0009994849523003,,-0.0003187015053108,0.0000959066590073,-0.0209231593457670,-0.0000160718343075,0.0002776230263452,0.0000108136414350,0.9999999612751075,-0.0774217422934056,0.2777186218234659,0.0016761845038021,-0.0058840299025178,-0.0058508231304586,-0.0372426919639111,0.0013397382572293,0.0005982400616631,-0.0003023762255907,,0.0000000000000000,0.0000000000000000,
1559013413.2206108570098877,0.4664700031280518,,0.0007282284178525,-0.0008849866671949,-0.0007314439931411,-0.0000182413205223,-0.0000186755321334,-0.0000192782713500,0.9999999994734137,-0.0776852429271130,0.2437607285734252,-0.0017267835151045,0.0022546008279738,-0.0001399741463729,-0.0023615800199498,0.0012059961659084,-0.0008934233754717,-0.0012704684030827,,-0.0003187015053108,0.0000959066590073,-0.0209231593457670,-0.0000160718343075,0.0002776230263452,0.0000108136414350,0.9999999612751075,-0.0774217422934056,0.2777186218234659,0.0016761845038021,-0.0058840299025178,-0.0058508231304586,-0.0372426919639111,0.0013397382572293,0.0005982400616631,-0.0003023762255907,,0.0000000000000000,0.0000000000000000,
1559013413.2539308071136475,0.4997899532318115,,0.0008170136908368,-0.0010078892785171,-0.0008234164325281,-0.0000074806060690,-0.0000191323453024,-0.0000098926399626,0.9999999997400649,-0.0764475593467988,0.2437098324421077,-0.0006512142020305,0.0023066456161482,-0.0030315519840952,-0.0029490846416974,-0.0001473785159925,0.0001537888844385,0.0005882698135497,,-0.0005509754171336,-0.0001456836824130,-0.0224293881837500,-0.0000085451778506,0.0002747311364235,0.0000002491187608,0.9999999622248595,-0.0765647796794137,0.2773856195816288,0.0004662457421669,-0.0052228411659598,-0.0065887318924069,-0.0385861136019230,-0.0007309849024750,-0.0003088524681516,-0.0003365832380950,,0.0000000000000000,0.0000000000000000,
1559013413.2872507572174072,0.5331099033355713,,0.0008934375445393,-0.0010912860208806,-0.0009057647967908,-0.0000056884558109,-0.0000201550269146,0.0000003038216664,0.9999999997806621,-0.0762372010946568,0.2435941919944230,0.0005173751125464,0.0028408986461070,-0.0024702628699045,-0.0030065423805656,0.0006566373430354,0.0001604724200549,0.0000633609284030,,0.0034269625326508,0.0011286720590091,-0.0090409392735334,-0.0000107213567495,0.0003332832900764,0.0000064883889218,0.9999999443825994,-0.0768108869699027,0.2840961473448347,0.0011722296041699,0.0091384267434478,-0.0020928373560309,-0.0114530222490430,0.0010196233633906,0.0007099295035005,-0.0002983235754073,,0.0000000000000000,0.0000000000000000,
1559013413.3205707073211670,0.5664298534393311,,0.0009951090504341,-0.0012082998148737,-0.0009998359604731,-0.0000014850173495,-0.0000206999173826,0.0000006546526709,0.9999999997844398,-0.0757553505278226,0.2435318051364402,0.0005576504691868,0.0028834578821466,-0.0036692249204306,-0.0020642875610800,0.0001275833293856,-0.0001059132195647,-0.0002099267705162,,0.0038770528996077,0.0016472316239445,-0.0017817424349745,-0.0000074296579382,0.0003350296155490,0.0000100847786441,0.9999999437991255,-0.0764317786616396,0.2842968057608064,0.0015842104441551,0.0097196577116847,-0.0004313084064052,0.0031110367272049,0.0015891643706709,0.0003474377153907,-0.0016894822474569,,0.0000000000000000,0.0000000000000000,
1559013413.3538906574249268,0.5997498035430908,,0.0010996739750551,-0.0014177192919795,-0.0010344615233799,0.0000043933974482,-0.0000162811723514,0.0000009100740728,0.9999999998573966,-0.0750816112299116,0.2440381936050721,0.0005862401381573,0.0023106405107057,-0.0042616623563308,-0.0012287742360368,0.0006530873697146,0.0004249039443456,0.0003315248719244,,0.0038770528996077,0.0016472316239445,-0.0017817424349745,-0.0000074296579382,0.0003350296155490,0.0000100847786441,0.9999999437991255,-0.0764317786616396,0.2842968057608064,0.0015842104441551,0.0097196577116847,-0.0004313084064052,0.0031110367272049,0.0015891643706709,0.0003474377153907,-0.0016894822474569,,0.0000000000000000,0.0000000000000000,
1559013413.3872108459472656,0.6330699920654297,,0.0011842897431815,-0.0015633400860946,-0.0011035665306259,0.0000078473749516,-0.0000121962734956,0.0000079803510560,0.9999999998629918,-0.0746823494202696,0.2445073501941740,0.0013958205907308,0.0025648738584386,-0.0044195627992647,-0.0033189243687543,-0.0001479433812643,-0.0003807027096997,0.0008508336236404,,0.0040679258189634,0.0016302978887204,-0.0017103729637689,0.0000057362566524,0.0003389510514528,0.0000028056137798,0.9999999425357027,-0.0749269346787147,0.2847450587356998,0.0007499853509923,0.0094946585595608,-0.0007214926299639,0.0039329784922302,-0.0014333359431475,0.0007109196740203,-0.0008072421769612,,0.0000000000000000,0.0000000000000000,
1559013413.4205307960510254,0.6663899421691895,,0.0012632987104246,-0.0016624942426363,-0.0011297748022012,-0.0000012826046035,-0.0000167953355619,0.0000061575386961,0.9999999998391782,-0.0757294621692090,0.2439800695157499,0.0011876486090223,0.0025374178727542,-0.0042051844511578,-0.0041784949027631,-0.0001469483454586,-0.0006470104174664,0.0008489669139898,,0.0040371625405149,0.0010407715328566,-0.0011724512895224,0.0000182179897012,0.0003403120708404,-0.0000080441169780,0.9999999418955441,-0.0735023907927335,0.2848993990187070,-0.0004930345491329,0.0076945354230702,-0.0024773650802672,0.0028743059374392,0.0014570327475667,-0.0012100221356377,0.0000713423796697,,0.0000000000000000,0.0000000000000000,
1559013413.4538507461547852,0.6997098922729492,,0.0013468327806581,-0.0017589255676398,-0.0012510511114459,-0.0000100271556501,-0.0000277924735511,0.0000034958026298,0.9999999995574070,-0.0767328150756167,0.2427194922111484,0.0008843255107891,0.0031098841499726,-0.0022259157134325,-0.0040956350867292,0.0001356783143116,-0.0009010839795251,-0.0007481214004451,,0.0028244609372718,-0.0020864745447010,-0.0040981470072898,0.0000272535559166,0.0003338402301539,-0.0000050454464155,0.9999999438912424,-0.0724653892738492,0.2841582340357628,-0.0001480977271716,0.0034915832802653,-0.0125113883987069,-0.0027146551292390,0.0007540810620412,0.0003361692652106,-0.0002933166106232,,0.0000000000000000,0.0000000000000000,
1559013413.4871706962585449,0.7330298423767090,,0.0014524781478302,-0.0017431156147334,-0.0013565227025428,0.0000029372566379,-0.0000222056257639,-0.0000060438116401,0.9999999997308776,-0.0752518717712680,0.2433582530930867,-0.0002097266337795,0.0034337026922222,-0.0046311688250609,-0.0026984524717830,0.0001189234799715,0.0001547659384905,0.0005908316580131,,0.0028244609372718,-0.0020864745447010,-0.0040981470072898,0.0000272535559166,0.0003338402301539,-0.0000050454464155,0.9999999438912424,-0.0724653892738492,0.2841582340357628,-0.0001480977271716,0.0034915832802653,-0.0125113883987069,-0.0027146551292390,0.0007540810620412,0.0003361692652106,-0.0002933166106232,,0.0000000000000000,0.0000000000000000,
1559013413.5204906463623047,0.7663497924804688,,0.0015805796135917,-0.0018979689990564,-0.0014607389787411,0.0000037036375034,-0.0000214919465692,0.0000036419143591,0.9999999997555580,-0.0751593122733699,0.2434414952633069,0.0009000753258419,0.0038184906191962,-0.0054477900676252,-0.0033763222584272,0.0003785556952202,-0.0001161932510725,0.0013904185549713,,0.0009705727291415,0.0016289898501757,-0.0079331041607371,0.0000413433631328,0.0003589990839138,-0.0000095545487231,0.9999999346595452,-0.0708532497001342,0.2870405726501778,-0.0006679541082759,-0.0035913039464504,0.0022433528210968,-0.0086488155648112,-0.0000468759790238,-0.0001395221770508,-0.0007117160712369,,0.0000000000000000,0.0000000000000000,
1559013413.5538108348846436,0.7996699810028076,,0.0016815127838246,-0.0020652588007621,-0.0015630789939395,0.0000041225513858,-0.0000292369582571,0.0000197869898957,0.9999999993683401,-0.0751034202899380,0.2425564157441442,0.0027513457937946,0.0035010540924319,-0.0056112988820862,-0.0038627961634410,0.0006458527252196,-0.0003815239020406,0.0013911137129191,,0.0009049911250469,0.0016716632260573,-0.0081049924384131,0.0000501230371511,0.0003626649995588,-0.0000170555534951,0.9999999328354414,-0.0698511788821507,0.2874595744438982,-0.0015276880078354,-0.0032216487452388,0.0018814789364114,-0.0086492393165827,0.0019662324339151,0.0004521511436906,-0.0012100221356377,,0.0000000000000000,0.0000000000000000,
1559013413.5871307849884033,0.8329899311065674,,0.0017918103030294,-0.0022073551452252,-0.0016654789339426,0.0000116321965820,-0.0000291245050243,0.0000235142296642,0.9999999992317682,-0.0742410575838512,0.2425698432669202,0.0031784174870857,0.0025162460647962,-0.0034509394338447,-0.0014050115701901,0.0011872512626005,0.0006950419601734,0.0000722180544364,,0.0009049911250469,0.0016716632260573,-0.0081049924384131,0.0000501230371511,0.0003626649995588,-0.0000170555534951,0.9999999328354414,-0.0698511788821507,0.2874595744438982,-0.0015276880078354,-0.0032216487452388,0.0018814789364114,-0.0086492393165827,0.0019662324339151,0.0004521511436906,-0.0012100221356377,,0.0000000000000000,0.0000000000000000,
1559013413.6204507350921631,0.8663098812103271,,0.0018297689935745,-0.0021766103340096,-0.0016538248175006,0.0000124716487295,-0.0000297109132720,0.0000258384885567,0.9999999991470461,-0.0741437294761429,0.2425029916058297,0.0034448450939073,0.0029265267765955,-0.0034076406307252,-0.0023003760888153,0.0001240333574373,0.0001585183174455,0.0000582371647409,,0.0034378551607457,0.0025472472578253,-0.0043545256517963,0.0000600555418070,0.0003908734422606,-0.0000220183470360,0.9999999215632351,-0.0687157343071086,0.2906913252913965,-0.0021000470966965,0.0047460272908211,0.0013947092229500,0.0006963039049879,-0.0011309223482385,-0.0014337574830279,0.0015923746395856,,0.0000000000000000,0.0000000000000000,
1559013413.6537706851959229,0.8996298313140869,,0.0019141623700443,-0.0022606907809643,-0.0017345953564023,0.0000133823502316,-0.0000337397883114,0.0000265208090332,0.9999999989895931,-0.0740390472250718,0.2420414163100255,0.0035236335696587,0.0031154705802937,-0.0041522023498536,-0.0022853591397256,-0.0001483735503468,0.0004200965902660,0.0005901364957510,,0.0034378551607457,0.0025472472578253,-0.0043545256517963,0.0000600555418070,0.0003908734422606,-0.0000220183470360,0.9999999215632351,-0.0687157343071086,0.2906913252913965,-0.0021000470966965,0.0047460272908211,0.0013947092229500,0.0006963039049879,-0.0011309223482385,-0.0014337574830279,0.0015923746395856,,0.0000000000000000,0.0000000000000000,
1559013413.6870906352996826,0.9329497814178467,,0.0020007539616649,-0.0021847677563774,-0.0018746586573509,0.0000034854065776,-0.0000303546957147,0.0000314522278940,0.9999999990386009,-0.0751707369247834,0.2424300925176325,0.0040882650471911,0.0033350942327951,-0.0039536976124589,-0.0036754905819772,-0.0006764325288992,-0.0001125967562544,0.0003149820972815,,0.0036291435458029,0.0025966150466021,-0.0043469637549630,0.0000571760738891,0.0003901364780748,-0.0000200743580797,0.9999999220607196,-0.0690446522828446,0.2906071492304136,-0.0018773020674637,0.0051087369211018,0.0014169181231409,0.0000617773694103,-0.0004234086372890,-0.0003483407199383,-0.0010793746914715,,0.0000000000000000,0.0000000000000000,
1559013413.7204108238220215,0.9662699699401855,,0.0020967776488270,-0.0023080654787378,-0.0019656448370777,-0.0000086923910038,-0.0000273555760749,0.0000328670108840,0.9999999990479372,-0.0765655092941923,0.2427740251953307,0.0042499745703632,0.0038399571105903,-0.0050513092186078,-0.0045308132907777,-0.0004097003673089,-0.0009124190013210,0.0005782410889667,,0.0029954825554080,0.0032025419981495,0.0006789376870445,0.0000544467831987,0.0004025603575399,-0.0000166703444748,0.9999999173513996,-0.0693556131155782,0.2920313069036726,-0.0014891490537248,0.0025517339818180,0.0034124318044633,0.0093907183036208,0.0006610900745727,-0.0005176760023460,0.0005640679155476,,0.0000000000000000,0.0000000000000000,
1559013413.7537307739257812,0.9995899200439453,,0.0021610974500159,-0.0023667080000326,-0.0019775434085730,-0.0000038571025474,-0.0000286030376699,0.0000372250144475,0.9999999988906436,-0.0760093009418523,0.2426317191002829,0.0047495429937510,0.0036048865055264,-0.0048489352881863,-0.0026843602342691,0.0001189234778554,0.0001547659433430,0.0005908316627664,,0.0029821578802633,0.0023954715740928,-0.0033581745908973,0.0000636555501370,0.0004000566115030,-0.0000217090852176,0.9999999177156937,-0.0683030665391002,0.2917436920126553,-0.0020657681279611,0.0022860211320221,-0.0006600108463317,0.0015310561284423,-0.0004109627625439,-0.0006739070522599,-0.0001190709881485,,0.0000000000000000,0.0000000000000000,
1559013413.7870507240295410,1.0329098701477051,,0.0023052636039862,-0.0025283609049111,-0.0020978434482757,-0.0000000762518044,-0.0000267895198214,0.0000437453244859,0.9999999986843313,-0.0755728540220982,0.2428405020923867,0.0054964350729295,0.0038227349388310,-0.0030223989718133,-0.0039460067765891,-0.0001377236298217,-0.0003731979891121,-0.0002143553601870,,0.0028483643782737,0.0054159764026453,-0.0048358352553247,0.0000756474026680,0.0004063720092715,-0.0000323465478623,0.9999999140464770,-0.0669346459473181,0.2924658971404100,-0.0032850968095539,0.0015071481466293,0.0085062691941857,-0.0014686621725559,-0.0004123515100218,-0.0004598114755936,-0.0001185764558613,,0.0000000000000000,0.0000000000000000,
1559013413.8203706741333008,1.0662298202514648,,0.0023578387666991,-0.0024579167095096,-0.0020768760139465,-0.0000082240610365,-0.0000297977127290,0.0000451498402691,0.9999999985029765,-0.0765058512418660,0.2424960433421617,0.0056578644470761,0.0036540970957576,-0.0026676533246787,-0.0039652827507651,-0.0004050206598212,-0.0001078673381440,-0.0002150505181349,,0.0052727955121410,0.0028594060605301,-0.0016091656637851,0.0000741511501028,0.0004075664680992,-0.0000336539987448,0.9999999136292910,-0.0671068135670647,0.2926025797277269,-0.0034351616037410,0.0104847270995378,-0.0010913329897448,0.0042982785962522,0.0000560693915759,0.0001306207850575,-0.0007089182618074,,0.0000000000000000,0.0000000000000000,
1559013413.8536908626556396,1.0995500087738037,,0.0024326602323503,-0.0025124053080634,-0.0021589877309841,-0.0000056242864061,-0.0000328801636615,0.0000457147369695,0.9999999983987125,-0.0762076773200284,0.2421428930666256,0.0057230563350942,0.0038102999850055,-0.0009662871436316,-0.0043884123480354,0.0006698422018054,-0.0006309459849552,-0.0010074282043661,,0.0052727955121410,0.0028594060605301,-0.0016091656637851,0.0000741511501028,0.0004075664680992,-0.0000336539987448,0.9999999136292910,-0.0671068135670647,0.2926025797277269,-0.0034351616037410,0.0104847270995378,-0.0010913329897448,0.0042982785962522,0.0000560693915759,0.0001306207850575,-0.0007089182618074,,0.0000000000000000,0.0000000000000000,
1559013413.8870108127593994,1.1328699588775635,,0.0025791086669380,-0.0026597425736961,-0.0022497781955920,-0.0000120058842532,-0.0000380724910535,0.0000365691504980,0.9999999985345208,-0.0769434364260409,0.2415465354043659,0.0046758567872207,0.0039358759357363,-0.0021192049341242,-0.0042337574628126,0.0004004204027764,-0.0011682908225077,-0.0004811290033237,,0.0054303640759792,0.0028405871846140,-0.0015512931906976,0.0000727297327581,0.0004122941432348,-0.0000389757507913,0.9999999116024042,-0.0672725866643876,0.2931435651078277,-0.0040457387794924,0.0105438055470586,-0.0008907766314223,0.0042810388840735,0.0001138636871474,-0.0001375615538564,-0.0004429370164871,,0.0000000000000000,0.0000000000000000,
1559013413.9203307628631592,1.1661899089813232,,0.0025791086669380,-0.0026597425736961,-0.0022497781955920,-0.0000120058842532,-0.0000380724910535,0.0000365691504980,0.9999999985345208,-0.0769434364260409,0.2415465354043659,0.0046758567872207,0.0039358759357363,-0.0021192049341242,-0.0042337574628126,0.0004004204027764,-0.0011682908225077,-0.0004811290033237,,0.0054303640759792,0.0028405871846140,-0.0015512931906976,0.0000727297327581,0.0004122941432348,-0.0000389757507913,0.9999999116024042,-0.0672725866643876,0.2931435651078277,-0.0040457387794924,0.0105438055470586,-0.0008907766314223,0.0042810388840735,0.0001138636871474,-0.0001375615538564,-0.0004429370164871,,0.0000000000000000,0.0000000000000000,
1559013413.9536507129669189,1.1995098590850830,,0.0028027658493017,-0.0028650418176578,-0.0024265109127732,-0.0000323098321660,-0.0000407536955996,0.0000393758739931,0.9999999978723758,-0.0792687392835619,0.2412398120609073,0.0049979897896266,0.0034370831172069,-0.0036031798261930,-0.0023473874485342,0.0011785914091102,0.0009557211017919,0.0008729764934962,,0.0042457708010142,0.0032688893773403,-0.0056604679087909,0.0000648888487885,0.0004357793942480,-0.0000388127972930,0.9999999021896570,-0.0681711214985140,0.2958347627029305,-0.0040308126094763,0.0040785656310618,0.0004996526986361,-0.0031115380115807,-0.0004219063557684,-0.0014084292342886,-0.0011841928353533,,0.0000000000000000,0.0000000000000000,
1559013413.9869606494903564,1.2328197956085205,,0.0029845056419189,-0.0030726332098585,-0.0026051196496668,-0.0000323681161251,-0.0000297844109168,0.0000530310350229,0.9999999976264518,-0.0792687064744980,0.2424989129033712,0.0065610703213567,0.0032358173671251,-0.0042507309708971,-0.0044814406137104,-0.0004122553054115,-0.0009142951933667,0.0008445383203505,,0.0016163225134831,0.0018428269025782,0.0076378858718637,0.0000685984619212,0.0004543867289951,-0.0000311516418720,0.9999998939282577,-0.0677419600665057,0.2979681196768502,-0.0031553800325751,-0.0052592363208532,-0.0075239953584969,0.0202106647193432,0.0005249262321740,0.0007250083726831,-0.0012422207510099,,0.0000000000000000,0.0000000000000000,
1559013414.0202808380126953,1.2661399841308594,,0.0030008462857898,-0.0034700229846902,-0.0017389144860478,-0.0000317930082549,-0.0000334649520894,0.0000524791410256,0.9999999975576208,-0.0792030932528734,0.2420770654273747,0.0064983950778555,0.0020581789600068,-0.0020811574218658,-0.0010219660322430,0.0001236031852290,0.0009593176050382,-0.0002024599527822,,0.0016163225134831,0.0018428269025782,0.0076378858718637,0.0000685984619212,0.0004543867289951,-0.0000311516418720,0.9999998939282577,-0.0677419600665057,0.2979681196768502,-0.0031553800325751,-0.0052592363208532,-0.0075239953584969,0.0202106647193432,0.0005249262321740,0.0007250083726831,-0.0012422207510099,,0.0000000000000000,0.0000000000000000,
1559013414.0536007881164551,1.2994599342346191,,0.0031136138112078,-0.0035669674225167,-0.0018408953410477,-0.0000303030393872,-0.0000320377858681,0.0000561602994536,0.9999999974506636,-0.0790305507946453,0.2422411665837655,0.0069200018151634,0.0043138902211649,-0.0030027155488955,-0.0048577146217913,0.0001254585703750,-0.0009085887811502,0.0003170675296162,,-0.0001918267742289,0.0014583252582462,-0.0051793105503548,0.0000672918954053,0.0004469704203664,-0.0000485581158316,0.9999998966656715,-0.0679011019789145,0.2971157712807340,-0.0051490438799222,-0.0097791878506541,-0.0069832173176110,-0.0047325701452792,0.0013753385283053,0.0003016986011062,-0.0014640276785940,,0.0000000000000000,0.0000000000000000,
1559013414.0869207382202148,1.3327798843383789,,0.0032164138303661,-0.0035112213555647,-0.0019285806230233,-0.0000268028793290,-0.0000305900161881,0.0000585222674104,0.9999999974605004,-0.0786283002773384,0.2424074102582721,0.0071904295334122,0.0040711875956385,-0.0024406058202372,-0.0028675096922956,-0.0001387186547892,-0.0001068903494283,-0.0002124886969726,,-0.0001918267742289,0.0014583252582462,-0.0051793105503548,0.0000672918954053,0.0004469704203664,-0.0000485581158316,0.9999998966656715,-0.0679011019789145,0.2971157712807340,-0.0051490438799222,-0.0097791878506541,-0.0069832173176110,-0.0047325701452792,0.0013753385283053,0.0003016986011062,-0.0014640276785940,,0.0000000000000000,0.0000000000000000,
1559013414.1202406883239746,1.3660998344421387,,0.0033359773993014,-0.0036029792377288,-0.0020071467048833,-0.0000329160153101,-0.0000355737914870,0.0000579354301799,0.9999999971472636,-0.0793291303595260,0.2418362623310321,0.0071239756998099,0.0038967360241284,-0.0023064566037441,-0.0030733162672388,-0.0006632276626541,-0.0009040152180081,-0.0007558070517771,,-0.0003862388438266,0.0013193463922199,-0.0052756966752279,0.0000762091679498,0.0004512275026457,-0.0000531757478453,0.9999998938791161,-0.0668817920699509,0.2976029888637595,-0.0056783421457382,-0.0093114748597145,-0.0073452508077025,-0.0049650780856609,0.0013335975818336,0.0000820299610496,-0.0005578060518019,,0.0000000000000000,0.0000000000000000,
1559013414.1535606384277344,1.3994197845458984,,0.0035178375664164,-0.0039052543630594,-0.0020258140808720,-0.0000333048382732,-0.0000280315111554,0.0000469341135076,0.9999999979511055,-0.0793790164452717,0.2426988412855125,0.0058621405498114,0.0033405771700986,-0.0033788118231392,-0.0021568830589856,-0.0004060156881303,0.0001584403046368,-0.0002131838576337,,-0.0005695107067441,0.0011753494670631,-0.0053720416089590,0.0000732402329876,0.0004666305450950,-0.0000575712412892,0.9999998867886710,-0.0672245097017332,0.2993674002054934,-0.0061843887103450,-0.0087402760982513,-0.0075568733736873,-0.0051086759194732,-0.0005755241727456,0.0005565957981162,0.0000478677466162,,0.0000000000000000,0.0000000000000000,
1559013414.1868808269500732,1.4327399730682373,,0.0036169809382471,-0.0039975566254030,-0.0021072890539802,-0.0000314123843294,-0.0000236153698045,0.0000444832089297,0.9999999982384103,-0.0791633351503032,0.2432045039418623,0.0055805959409511,0.0031159487226719,-0.0024928889385609,-0.0025514343526533,-0.0006691978728096,0.0006938310314045,-0.0007446067959718,,0.0054194410451250,0.0039221283223847,-0.0059444888312575,0.0000707223501789,0.0004701856227759,-0.0000471678987493,0.9999998858495028,-0.0675073877342590,0.2997762539914523,-0.0049928816865142,0.0113711925223470,0.0025506995152682,-0.0051999506540596,-0.0004708282649517,0.0001321081072092,-0.0002189685619669,,0.0000000000000000,0.0000000000000000,
1559013414.2202007770538330,1.4660599231719971,,0.0036962296442007,-0.0038171850676172,-0.0021679137689481,-0.0000346471174261,-0.0000202218194646,0.0000508163523984,0.9999999979041769,-0.0795308930388439,0.2435943745454904,0.0063058090138807,0.0028835845165985,-0.0029477268503433,-0.0037015298891482,-0.0004055855142572,-0.0006423589984609,0.0000475132552867,,0.0017337937437958,0.0027914976925686,-0.0073980466569868,0.0000657147087486,0.0004684735527028,-0.0000318904734004,0.9999998875985463,-0.0680728783992629,0.2995822330364225,-0.0032422190918197,-0.0032952094916254,-0.0025957324542105,-0.0077453418634832,-0.0003198916092515,-0.0001808123633964,-0.0010700231650844,,0.0000000000000000,0.0000000000000000,
1559013414.2535207271575928,1.4993798732757568,,0.0037766817184717,-0.0039163510616194,-0.0022520629567215,-0.0000474820868585,-0.0000266043147086,0.0000554929879984,0.9999999969790951,-0.0809994191590049,0.2428638021018312,0.0068427452013691,0.0027584906734775,-0.0038035199474896,-0.0020482169193051,-0.0009478443972915,-0.0001173262474323,0.0008450146851400,,0.0017337937437958,0.0027914976925686,-0.0073980466569868,0.0000657147087486,0.0004684735527028,-0.0000318904734004,0.9999998875985463,-0.0680728783992629,0.2995822330364225,-0.0032422190918197,-0.0032952094916254,-0.0025957324542105,-0.0077453418634832,-0.0003198916092515,-0.0001808123633964,-0.0010700231650844,,0.0000000000000000,0.0000000000000000,
1559013414.2868406772613525,1.5326998233795166,,0.0038669267278197,-0.0039629409370512,-0.0022039644495936,-0.0000617050693290,-0.0000236428426046,0.0000608956857855,0.9999999959626079,-0.0826265933045132,0.2432041066116356,0.0074614285161625,0.0032797790016812,-0.0020838026151484,-0.0027846117304584,-0.0006774275624568,0.0001537108823535,0.0003168487744470,,0.0001515348646201,0.0012294817827928,-0.0051123345942179,0.0000495634790215,0.0004787440758719,-0.0000295359639095,0.9999998837375924,-0.0699224355375030,0.3007594300014954,-0.0029747703706644,-0.0074289659969509,-0.0072463871911168,-0.0031776153482497,0.0000637078628642,-0.0005068728933111,-0.0000599529594183,,0.0000000000000000,0.0000000000000000,
1559013414.3201606273651123,1.5660197734832764,,0.0039824806300659,-0.0040139857214680,-0.0023628204943847,-0.0000715373993263,-0.0000296012433258,0.0000630792667586,0.9999999950135865,-0.0837522662294639,0.2425217413540546,0.0077126262443181,0.0030580947082059,-0.0019426979034180,-0.0054795855284931,-0.0006779924287562,-0.0003807807216439,0.0005794125955882,,0.0033008006095580,0.0011785803558295,0.0061231132623880,0.0000425381149729,0.0005060812556475,-0.0000255228093975,0.9999998707104205,-0.0707253920346598,0.3038926008353187,-0.0025192764290060,0.0057506039738655,-0.0057758740149438,0.0190748348832130,-0.0001634397485759,0.0007278783014044,-0.0009080261806957,,0.0000000000000000,0.0000000000000000,
1559013414.3534808158874512,1.5993399620056152,,0.0040558756315918,-0.0040004264078613,-0.0024762859041000,-0.0000910606322928,-0.0000299657271130,0.0000644060131470,0.9999999933309411,-0.0859888180627152,0.2424803301704615,0.0078647862996829,0.0023409436202575,-0.0011038223721293,-0.0027306993296430,-0.0006691978808623,0.0006938310224740,-0.0007446067856647,,0.0034192999153591,0.0010579430106152,0.0064953994279523,0.0000345271351897,0.0005111463805106,-0.0000263829984575,0.9999998684205874,-0.0716438772364495,0.3044728703048402,-0.0026190585096938,0.0061334241181612,-0.0059950468130410,0.0181544125080109,-0.0012176220770925,0.0004556177300401,-0.0002580562722869,,0.0000000000000000,0.0000000000000000,
1559013414.3868007659912109,1.6326599121093750,,0.0041572001757171,-0.0041166873411637,-0.0025826420334524,-0.0000992292294722,-0.0000328289622138,0.0000640935325672,0.9999999924839192,-0.0869250419091829,0.2421522374822677,0.0078294715635211,0.0021728368348306,-0.0033070594797815,-0.0000583912745756,-0.0004080057676987,0.0006910557216861,-0.0002094504216899,,0.0021895927776940,0.0029798482027788,-0.0017919951850399,0.0000030791525065,0.0005051542388313,-0.0000423319240284,0.9999998715088527,-0.0752563039453160,0.3037837185136449,-0.0044476326101652,-0.0012074953410774,0.0004014892037958,0.0003388677432667,0.0008526051533408,0.0004610072937794,-0.0004364303313196,,0.0000000000000000,0.0000000000000000,
1559013414.4201207160949707,1.6659798622131348,,0.0041891000933241,-0.0041192485948833,-0.0023495081208622,-0.0000969953573611,-0.0000320248272082,0.0000597496875907,0.9999999929981429,-0.0866711741905484,0.2422436633743353,0.0073315608134231,0.0020172981235504,-0.0038414807193758,-0.0015318697024950,-0.0006789874691453,-0.0001144730062432,0.0005812793136729,,-0.0007866698724696,0.0029451451510226,-0.0125814430728610,0.0000157986888046,0.0005139369134954,-0.0000352755177775,0.9999998671874353,-0.0737949123807431,0.3047912550751987,-0.0036395933932186,-0.0114227980375290,-0.0008283081115223,-0.0189164131879807,0.0010380750754848,-0.0000468051694043,-0.0000632364171906,,0.0000000000000000,0.0000000000000000,
1559013414.4534406661987305,1.6992998123168945,,0.0042691988474193,-0.0042493676942609,-0.0024684144478744,-0.0001049247080591,-0.0000413980696845,0.0000739513489919,0.9999999909041017,-0.0875729510146248,0.2411719410297760,0.0089605222568326,0.0029768520598155,-0.0039627530540973,-0.0066356074347387,-0.0004108301033840,-0.0019814022878505,0.0011033686956101,,-0.0010190916370042,0.0029305503448535,-0.0129715628905499,0.0000147787733985,0.0005115638677940,-0.0000305568678146,0.9999998685751288,-0.0739091776481601,0.3045200255605026,-0.0030985740714162,-0.0116727147251368,-0.0011033358750865,-0.0203522164374590,-0.0005853964248672,0.0004621939733624,-0.0006874375976622,,0.0000000000000000,0.0000000000000000,
1559013414.4867608547210693,1.7326200008392334,,0.0043140538509547,-0.0040718072673573,-0.0026281664900217,-0.0001037684969307,-0.0000504224752034,0.0000820919068773,0.9999999899752960,-0.0874365725333241,0.2401391383678592,0.0098948341604242,0.0023468247942136,-0.0037049283195778,-0.0041903663452372,0.0003872155408092,-0.0003768725056340,0.0005896600683675,,-0.0010190916370042,0.0029305503448535,-0.0129715628905499,0.0000147787733985,0.0005115638677940,-0.0000305568678146,0.9999998685751288,-0.0739091776481601,0.3045200255605026,-0.0030985740714162,-0.0116727147251368,-0.0011033358750865,-0.0203522164374590,-0.0005853964248672,0.0004621939733624,-0.0006874375976622,,0.0000000000000000,0.0000000000000000,
1559013414.5200808048248291,1.7659399509429932,,0.0044200360208977,-0.0041937069933330,-0.0027366625259404,-0.0001008594724102,-0.0000536225429208,0.0000790694328423,0.9999999903500073,-0.0871047188602640,0.2397719189953647,0.0095489851877853,0.0039984337965226,-0.0033643805601562,-0.0017260712476732,0.0001291432165413,0.0001622705910926,-0.0004743573573809,,-0.0014186147277336,0.0028985353920135,-0.0137229153900472,-0.0000057996978002,0.0005104819711338,-0.0000229059692081,0.9999998694249101,-0.0762630878852232,0.3043971376825290,-0.0022228761208905,-0.0113122472539544,-0.0013487567193806,-0.0224984772503376,0.0019746769685298,0.0005661716568284,0.0000881503365235,,0.0000000000000000,0.0000000000000000,
1559013414.5534007549285889,1.7992599010467529,,0.0045576118474187,-0.0041724932667052,-0.0025679661105149,-0.0000976046657794,-0.0000384556351621,0.0000693458277142,0.9999999920928249,-0.0867363580265720,0.2415083093605035,0.0084322520819794,0.0047362321922261,-0.0044782740218534,-0.0002093337642908,-0.0004166656321570,0.0009517348703545,0.0005913080122584,,-0.0014186147277336,0.0028985353920135,-0.0137229153900472,-0.0000057996978002,0.0005104819711338,-0.0000229059692081,0.9999998694249101,-0.0762630878852232,0.3043971376825290,-0.0022228761208905,-0.0113122472539544,-0.0013487567193806,-0.0224984772503376,0.0019746769685298,0.0005661716568284,0.0000881503365235,,0.0000000000000000,0.0000000000000000,
1559013414.5867207050323486,1.8325798511505127,,0.0047352875941244,-0.0042968824309034,-0.0025932533795953,-0.0001082034635989,-0.0000203576343383,0.0000723577266804,0.9999999913209684,-0.0879492849810682,0.2435827621114873,0.0087744805377466,0.0055219082032583,-0.0041348581651393,-0.0023110021261160,-0.0004146755627718,0.0004191194521473,0.0005875745856411,,0.0019871844674433,0.0011427158324406,0.0014052757964757,0.0000145126597581,0.0004981842610422,-0.0000104171448080,0.9999998757466462,-0.0739285600851628,0.3029898472145832,-0.0007887165253009,0.0037218257784843,-0.0071086878888309,0.0082138963043690,0.0013264474691823,-0.0008638858562335,-0.0011839268263429,,0.0000000000000000,0.0000000000000000,
1559013414.6200406551361084,1.8658998012542725,,0.0049643445420482,-0.0043585058072522,-0.0023194937883251,-0.0001067800320949,-0.0000109417305397,0.0000794406297438,0.9999999910837449,-0.0877826255071384,0.2446628891695654,0.0095845867436977,0.0045743462510020,-0.0046772567512163,-0.0033344657717179,-0.0001499334709957,0.0001519126185690,0.0008545669875600,,0.0047568128774480,0.0037095875125719,0.0024648328165501,0.0000356404946868,0.0005075731344468,-0.0000260096516513,0.9999998702113747,-0.0715160763899768,0.3040634651266995,-0.0025756846490801,0.0136421741917729,0.0022794245742261,0.0105858491733670,0.0010575925698504,0.0012645954266191,-0.0008035744540393,,0.0000000000000000,0.0000000000000000,
1559013414.6533608436584473,1.8992199897766113,,0.0050909301433053,-0.0044755701896705,-0.0024158115387067,-0.0001049162794065,-0.0000125786789933,0.0000822950019677,0.9999999910309419,-0.0875676691853779,0.2444757575035817,0.0099119410557988,0.0037461651190185,-0.0035444818992544,-0.0031144769007362,0.0001285783448896,-0.0003722210291570,-0.0002117935331838,,0.0052291259185608,0.0066394057520543,0.0041492087002540,0.0000389100275542,0.0005036717400379,-0.0000269764555915,0.9999998720365213,-0.0711419311843265,0.3036162666879023,-0.0026857110020908,0.0098902173340321,0.0114108640700579,0.0103509873151779,0.0004561709356494,0.0000499343514093,-0.0024497949052602,,0.0000000000000000,0.0000000000000000,
1559013414.6866807937622070,1.9325399398803711,,0.0052457781446664,-0.0049991933957444,-0.0023182132673782,-0.0000979113318319,-0.0000184054785756,0.0000745940582092,0.9999999922551681,-0.0867687836307622,0.2438067400849864,0.0090304065523758,0.0042706275582452,-0.0046348812584372,-0.0026526186751219,0.0001209135302194,-0.0003778495769877,0.0005870981987296,,0.0052291259185608,0.0066394057520543,0.0041492087002540,0.0000389100275542,0.0005036717400379,-0.0000269764555915,0.9999998720365213,-0.0711419311843265,0.3036162666879023,-0.0026857110020908,0.0098902173340321,0.0114108640700579,0.0103509873151779,0.0004561709356494,0.0000499343514093,-0.0024497949052602,,0.0000000000000000,0.0000000000000000,
1559013414.7200007438659668,1.9658598899841309,,0.0054117099492168,-0.0051306583455698,-0.0023966052070568,-0.0000997593186883,-0.0000136416120307,0.0000769250659637,0.9999999919722596,-0.0869793670619771,0.2443530330849827,0.0092967521253878,0.0052356475788147,-0.0046983125873067,-0.0021648341535773,-0.0004182255148857,0.0006835509497459,0.0008557385172985,,0.0048463070129249,-0.0018530932854782,-0.0043371194688543,0.0000496536779303,0.0005462905973898,-0.0000412375629876,0.9999998487002679,-0.0699188675543722,0.3084979834910337,-0.0043255173052810,0.0092678898945451,-0.0197609998285770,-0.0056686224415898,0.0003229734138586,0.0009426797041669,0.0000063279644564,,0.0000000000000000,0.0000000000000000,
1559013414.7533206939697266,1.9991798400878906,,0.0056406813679462,-0.0050769411098937,-0.0024532707636441,-0.0001067077162926,-0.0000086845199065,0.0000884450175738,0.9999999903577608,-0.0877699000293486,0.2449230160962350,0.0106160532235231,0.0061777853824689,-0.0049242315379953,-0.0034835369942342,-0.0009452894576324,-0.0001154501045412,0.0005787174091784,,0.0048463070129249,-0.0018530932854782,-0.0043371194688543,0.0000496536779303,0.0005462905973898,-0.0000412375629876,0.9999998487002679,-0.0699188675543722,0.3084979834910337,-0.0043255173052810,0.0092678898945451,-0.0197609998285770,-0.0056686224415898,0.0003229734138586,0.0009426797041669,0.0000063279644564,,0.0000000000000000,0.0000000000000000,
1559013414.7866406440734863,2.0324997901916504,,0.0058302132551298,-0.0051812518908005,-0.0025311115942890,-0.0000970887394590,0.0000015648950010,0.0000775583054358,0.9999999922780186,-0.0866729061914491,0.2460956478594079,0.0093668456417457,0.0052121396378134,-0.0024046278386820,-0.0020942732602071,0.0006684169928978,0.0004361609327453,-0.0012662586515492,,0.0050306412913612,-0.0022553857574116,-0.0044513011141840,0.0000528530867372,0.0005470135817998,-0.0000352669572085,0.9999998483694555,-0.0695489346579165,0.3085817133850298,-0.0036412316935952,0.0100358575582504,-0.0200687516480684,-0.0060759009793401,0.0004965229309164,0.0002437760995235,0.0009104041382670,,0.0000000000000000,0.0000000000000000,
1559013414.8199608325958252,2.0658199787139893,,0.0059254477067341,-0.0048169466719592,-0.0022345453572782,-0.0000784341305696,0.0000047621345890,0.0000652489875307,0.9999999947839896,-0.0845412800800331,0.2464598877998521,0.0079557817869495,0.0054966876359952,-0.0028095403705147,-0.0028975146342576,0.0009310343156445,-0.0006337213893534,-0.0004722718906400,,0.0052264772958771,-0.0026613178782102,-0.0045826045094389,0.0000475461241026,0.0005503896550055,-0.0000303206917289,0.9999998469456131,-0.0701543412170739,0.3089692817089975,-0.0030752484778133,0.0105025302618742,-0.0202286429703236,-0.0065599353983998,-0.0001585589197930,0.0001465858949814,-0.0005223532207310,,0.0000000000000000,0.0000000000000000,
1559013414.8532807826995850,2.0991399288177490,,0.0061108323556884,-0.0049322657961298,-0.0023076575437244,-0.0000742453059407,0.0000042002911304,0.0000676092338967,0.9999999949494918,-0.0840601179624767,0.2463958507552169,0.0082263403456696,0.0052464297673973,-0.0032110821309621,-0.0023848128062846,0.0001199184797477,-0.0001115419035429,0.0005889649222181,,0.0017678621869116,0.0015124191525959,-0.0011558191354735,0.0000500246131654,0.0005711314993747,-0.0000341708840095,0.9999998350693360,-0.0698725603466937,0.3113455691600101,-0.0035193152565481,-0.0028836037963629,-0.0044308807700872,0.0001653605722822,-0.0004792680847459,0.0003601763455663,-0.0004656376258936,,0.0000000000000000,0.0000000000000000,
1559013414.8865907192230225,2.1324498653411865,,0.0062361486253297,-0.0050648735609534,-0.0024217760689503,-0.0000781802210336,0.0000095721277921,0.0000779473533854,0.9999999938602188,-0.0845058921457724,0.2470131024740007,0.0094101496546644,0.0036800287052059,-0.0028076210203658,-0.0015833453775909,-0.0012094667221914,0.0006862483009844,0.0000491612252353,,0.0037245920093585,0.0014593189274381,0.0018194195298815,0.0000452053608667,0.0005873934933458,-0.0000412583801236,0.9999998256115376,-0.0704288468814915,0.3132080009324146,-0.0043341840155431,0.0031235220376402,-0.0038933986797929,0.0055238688364625,0.0007684917072766,-0.0006610307609662,0.0011769605334848,,0.0000000000000000,0.0000000000000000,
1559013414.9199106693267822,2.1657698154449463,,0.0063395074879236,-0.0051560197928137,-0.0024863760004294,-0.0000953454190356,0.0000101345060420,0.0000811647557735,0.9999999921094126,-0.0864712882315332,0.2470782207830763,0.0097787297099240,0.0041185645759990,-0.0026642458971545,-0.0022770910095844,-0.0014661138291019,0.0001582843785270,-0.0007560257985904,,0.0037245920093585,0.0014593189274381,0.0018194195298815,0.0000452053608667,0.0005873934933458,-0.0000412583801236,0.9999998256115376,-0.0704288468814915,0.3132080009324146,-0.0043341840155431,0.0031235220376402,-0.0038933986797929,0.0055238688364625,0.0007684917072766,-0.0006610307609662,0.0011769605334848,,0.0000000000000000,0.0000000000000000,
1559013414.9532308578491211,2.1990900039672852,,0.0064559734235470,-0.0052433038738793,-0.0023575502083196,-0.0000981661324681,0.0000091433764299,0.0000839790725441,0.9999999916136623,-0.0867931395897227,0.2469651289126753,0.0101013869180343,0.0041279971864116,-0.0040963667715928,-0.0016500850292876,0.0001214783831667,0.0001566419888779,0.0003245343828852,,0.0018623154410093,0.0027256348443475,0.0001956494993356,0.0000609717752342,0.0005685389954785,-0.0000005049907428,0.9999998365227858,-0.0685993416432927,0.3110533887813620,0.0003396554353508,-0.0041805850341916,0.0011643896577880,0.0006084713968448,-0.0011163554154336,-0.0002244176284876,-0.0005613433313556,,0.0000000000000000,0.0000000000000000,
1559013414.9865508079528809,2.2324099540710449,,0.0065760234703065,-0.0053302427658693,-0.0024157601875354,-0.0000965572689031,0.0000058086688710,0.0000813306716052,0.9999999920141376,-0.0866101115011836,0.2465825550288380,0.0097984424626431,0.0048636997155471,-0.0037437770930128,-0.0019043326150299,-0.0004060157287985,0.0001584402262204,-0.0002131838416882,,0.0018623154410093,0.0027256348443475,0.0001956494993356,0.0000609717752342,0.0005685389954785,-0.0000005049907428,0.9999998365227858,-0.0685993416432927,0.3110533887813620,0.0003396554353508,-0.0041805850341916,0.0011643896577880,0.0006084713968448,-0.0011163554154336,-0.0002244176284876,-0.0005613433313556,,0.0000000000000000,0.0000000000000000,
1559013415.0198707580566406,2.2657299041748047,,0.0068176798799624,-0.0052910664918251,-0.0027000992111795,-0.0000921905171944,0.0000144484150754,0.0000875185985149,0.9999999918163235,-0.0861065904113742,0.2475735556256670,0.0105061388642254,0.0060853505474361,-0.0030428749789051,-0.0033974234931495,0.0006550774073353,-0.0001077116195722,0.0003277914069975,,0.0017062780141913,0.0027656684595040,0.0002331799804391,0.0000612674185654,0.0005514181504620,-0.0000028439440638,0.9999998460881075,-0.0685667471535469,0.3090911485785291,0.0000741147761850,-0.0036023485008627,0.0005956604145467,0.0011799458879977,-0.0012129178503528,-0.0015053579118103,-0.0001876538590295,,0.0000000000000000,0.0000000000000000,
1559013415.0531907081604004,2.2990498542785645,,0.0070184714599790,-0.0054376164238219,-0.0028046543671025,-0.0000974241350079,0.0000144813347133,0.0000958049667823,0.9999999905601187,-0.0867022292589280,0.2475787248286097,0.0114556805590029,0.0052130723391986,-0.0034670407386604,-0.0022464687147923,0.0001265882442000,0.0001603943588234,-0.0002080600989151,,0.0028302361133023,0.0011308112806345,-0.0055005617195409,0.0000614221750839,0.0005673859537669,0.0000062026473458,0.9999998371309983,-0.0685439934837356,0.3109222268541514,0.0011085002659068,0.0022205500863492,-0.0049788719043136,-0.0089428108185530,-0.0010673586511984,-0.0010183617705479,-0.0010928818956017,,0.0000000000000000,0.0000000000000000,
1559013415.0865106582641602,2.3323698043823242,,0.0071731041428911,-0.0054211089909154,-0.0028123558683728,-0.0000931160196624,0.0000153684001459,0.0000834532088095,0.9999999920643907,-0.0862146432735152,0.2476783297178225,0.0100401252708129,0.0049132835939038,-0.0022624845551943,-0.0025023040391926,-0.0003963608579056,-0.0003685466224765,-0.0010158089853268,,0.0029519888838059,0.0008384119710609,-0.0059934795015772,0.0000581090590179,0.0005500910080263,-0.0000013667004831,0.9999998470106645,-0.0689278484126669,0.3089392815590514,0.0002433889468124,0.0020987750031054,-0.0055223274976015,-0.0086310729384422,-0.0007987834396772,0.0002558300329838,-0.0004012739227619,,0.0000000000000000,0.0000000000000000,
1559013415.1198308467864990,2.3656899929046631,,0.0073169775163899,-0.0055273974008807,-0.0028822632480188,-0.0001025882638185,0.0000150488415295,0.0000828656296042,0.9999999911912342,-0.0873003754097246,0.2476417059103204,0.0099728283213278,0.0048718570091529,-0.0023642189565428,-0.0023553689969223,-0.0001371588190084,0.0001612934893624,-0.0004769192264291,,0.0051925544355761,0.0023813793912971,-0.0010522355678721,0.0000469439347328,0.0005700122294068,-0.0000046649478309,0.9999998364302685,-0.0702091373472664,0.3112216003752460,-0.0001381758148190,0.0089325234293938,0.0004224320291542,0.0012637828476727,-0.0005778026534244,-0.0005969690391794,-0.0000826702453196,,0.0000000000000000,0.0000000000000000,
1559013415.1531507968902588,2.3990099430084229,,0.0074974463634156,-0.0054066856008984,-0.0029480816067273,-0.0001038360744993,0.0000204599073657,0.0000892197103758,0.9999999904196525,-0.0874401763564898,0.2482628152162537,0.0107000743302207,0.0047644039232697,-0.0024120468761959,-0.0029545710985090,0.0001240332987385,0.0001585181809406,0.0000582371291116,,0.0046368757536828,0.0024083626879825,-0.0023725760559474,0.0000458798311537,0.0005587346913442,0.0000202892320099,0.9999998426494540,-0.0703171895108751,0.3099329308591345,0.0027229777647251,0.0063844979740679,-0.0001243474544026,-0.0025399073492736,-0.0001940629445016,0.0010972442105412,0.0014111992204562,,0.0000000000000000,0.0000000000000000,
1559013415.1864707469940186,2.4323298931121826,,0.0076744137105307,-0.0055080604660083,-0.0030662972505976,-0.0001129784891568,0.0000125095999299,0.0000900568163502,0.9999999894845705,-0.0884874827204216,0.2473520087787810,0.0107972829307179,0.0046717052337310,-0.0009975602943210,-0.0026128885943541,0.0001362431039722,-0.0003665925014532,-0.0010106852651905,,0.0035860365057522,0.0049728162104847,-0.0003948088862355,0.0000461034086983,0.0005572411736923,0.0000432721577387,0.9999998427421228,-0.0702788005443683,0.3097651381373013,0.0053568951747581,0.0022059706971049,0.0089474814012647,0.0013144835829735,-0.0006860076682642,-0.0004370108363219,-0.0000765325530665,,0.0000000000000000,0.0000000000000000,
1559013415.2197906970977783,2.4656498432159424,,0.0077319447114406,-0.0054208565480589,-0.0029436812839435,-0.0001204580981449,0.0000121994723869,0.0000888179615002,0.9999999887261944,-0.0893451968521199,0.2473163437190237,0.0106553597490888,0.0042567681819911,-0.0032925787337895,-0.0008649499480231,-0.0001442587863382,0.0006901565423740,0.0000594086816981,,0.0035860365057522,0.0049728162104847,-0.0003948088862355,0.0000461034086983,0.0005572411736923,0.0000432721577387,0.9999998427421228,-0.0702788005443683,0.3097651381373013,0.0053568951747581,0.0022059706971049,0.0089474814012647,0.0013144835829735,-0.0006860076682642,-0.0004370108363219,-0.0000765325530665,,0.0000000000000000,0.0000000000000000,
1559013415.2531106472015381,2.4989697933197021,,0.0079080757448156,-0.0055276354836412,-0.0030122020857538,-0.0001156233665649,0.0000196740023759,0.0000898988093647,0.9999999890811874,-0.0887905725912764,0.2481729893006012,0.0107779953349509,0.0054523970020814,-0.0032602329491395,-0.0031085660904945,0.0001214783253678,0.0001566419956863,0.0003245343740656,,0.0036304880783306,0.0051519430538680,-0.0003610028637882,0.0000409396240160,0.0005788687692688,0.0000372948730190,0.9999998309219795,-0.0708737745339409,0.3122426262887678,0.0046684425669311,0.0018805343424901,0.0090315490961075,0.0019654412753880,-0.0017144266748801,0.0002639917656779,-0.0012922289315611,,0.0000000000000000,0.0000000000000000,
1559013415.2864308357238770,2.5322899818420410,,0.0081081572165171,-0.0054674854683184,-0.0029332582494374,-0.0001149866578559,0.0000181144652904,0.0000800470429184,0.9999999900212029,-0.0887224920093716,0.2479926548538384,0.0096493142543005,0.0066494531372558,-0.0016555709334854,-0.0048475191319022,-0.0003979208027086,-0.0006367305107701,-0.0007513784659679,,0.0036304880783306,0.0051519430538680,-0.0003610028637882,0.0000409396240160,0.0005788687692688,0.0000372948730190,0.9999998309219795,-0.0708737745339409,0.3122426262887678,0.0046684425669311,0.0018805343424901,0.0090315490961075,0.0019654412753880,-0.0017144266748801,0.0002639917656779,-0.0012922289315611,,0.0000000000000000,0.0000000000000000,
1559013415.3197507858276367,2.5656099319458008,,0.0083070208452369,-0.0055722083017146,-0.0030418895313975,-0.0001128521165324,0.0000282427308104,0.0000831298249078,0.9999999897780902,-0.0884762796782547,0.2491537534697575,0.0100009211972445,0.0054268737513346,-0.0025358543691338,-0.0029725816169148,0.0003918951468152,0.0004276791057293,-0.0002036315297493,,0.0024622045541892,0.0033692700341506,0.0010831382365003,0.0000311932746903,0.0005793344129262,0.0000361975982775,0.9999998310441615,-0.0719912381284506,0.3122958639970193,0.0045419871211058,-0.0010414639255032,0.0009290307061747,0.0048048202879727,0.0009482172317803,0.0003190914285369,-0.0010488524567336,,0.0000000000000000,0.0000000000000000,
1559013415.3530707359313965,2.5989298820495605,,0.0083834849345663,-0.0056464453021974,-0.0027306174891283,-0.0000972628654577,0.0000263967587241,0.0000815661091399,0.9999999915950580,-0.0866906729742007,0.2489418187424102,0.0098220812039531,0.0049904944064999,-0.0024145170005541,-0.0019931778139576,0.0006581971410089,0.0004286561625280,-0.0002010696621508,,-0.0009817813704339,-0.0000302048205232,-0.0113073154465510,0.0000366397794939,0.0005790403470259,0.0000539893675716,0.9999998302274612,-0.0713571827692653,0.3122647584925159,0.0065812067841531,-0.0103610353544354,-0.0106029035523534,-0.0180826224386692,0.0003542889317032,0.0002166567428503,-0.0017341335769743,,0.0000000000000000,0.0000000000000000,
1559013415.3863906860351562,2.6322498321533203,,0.0085577092619309,-0.0057448775877454,-0.0028529510963445,-0.0001007168858849,0.0000153769734510,0.0000849727851542,0.9999999911996417,-0.0870848883065046,0.2476796319412133,0.0102142424623516,0.0054086607970202,-0.0023720419028344,-0.0028551616796106,-0.0004070108359840,0.0004247478929560,-0.0002113171471519,,-0.0014185691403290,-0.0004501569395737,-0.0120030723032950,0.0000434684384757,0.0005856383472689,0.0000345169022151,0.9999998269733873,-0.0705855220237378,0.3130179456839972,0.0043492845201148,-0.0107360417023301,-0.0110346311703324,-0.0169592592865229,-0.0017026001587510,0.0004706384497695,-0.0002738574403338,,0.0000000000000000,0.0000000000000000,
1559013415.4197106361389160,2.6655697822570801,,0.0086114664072738,-0.0057120189948543,-0.0030659569161975,-0.0001068767786640,0.0000224368559437,0.0000831256123505,0.9999999905820373,-0.0877916095795353,0.2484883923138972,0.0100014062051314,0.0054404869121441,-0.0016091887454962,-0.0037206960395434,-0.0006682029537309,0.0004275232013778,-0.0007464735026927,,0.0003574812231935,0.0003619826310008,-0.0030307031033011,0.0000280967192277,0.0006463813474378,0.0000294119631035,0.9999997902683102,-0.0723496947302187,0.3199778806545092,0.0037542767039110,-0.0030758511275053,-0.0073704370297492,-0.0008689275127836,-0.0003743243869394,0.0005830600857735,-0.0002860996755771,,0.0000000000000000,0.0000000000000000,
1559013415.4530308246612549,2.6988899707794189,,0.0088035723744171,-0.0057894158999589,-0.0031968275310588,-0.0001059680493205,0.0000245953940911,0.0000774469814817,0.9999999910839021,-0.0876902667813933,0.2487348067104603,0.0093503275708938,0.0050082057002884,-0.0016484012110034,-0.0026427240827122,0.0003970050100142,0.0004314314456755,-0.0007362260395858,,0.0032467484218093,0.0019975254871323,0.0013584030478750,0.0000208630925172,0.0006477631435398,0.0000398047980743,0.9999997891915874,-0.0731727237161890,0.3201377922878259,0.0049444838312599,0.0078006898984313,-0.0011601021979004,0.0067432597279549,-0.0003846271429211,-0.0008461753022857,-0.0015661191428080,,0.0000000000000000,0.0000000000000000,
1559013415.4863507747650146,2.7322099208831787,,0.0088964224234345,-0.0054490429636465,-0.0029674189347121,-0.0001071164156880,0.0000218878694973,0.0000774625829186,0.9999999910232714,-0.0878218742845798,0.2484245602979666,0.0093525544570516,0.0060660739271642,-0.0019067472269067,-0.0039300926632771,-0.0006632277877317,-0.0009040153203524,-0.0007558070582333,,0.0032467484218093,0.0019975254871323,0.0013584030478750,0.0000208630925172,0.0006477631435398,0.0000398047980743,0.9999997891915874,-0.0731727237161890,0.3201377922878259,0.0049444838312599,0.0078006898984313,-0.0011601021979004,0.0067432597279549,-0.0003846271429211,-0.0008461753022857,-0.0015661191428080,,0.0000000000000000,0.0000000000000000,
