#Time(sec),Dtime(sec),,x(m),y(m),z(m),qx,qy,qz,qw,roll_x_G(deg),pitch_y_G(deg),yaw_z_G(deg),vx(m/s),vy(m/s),vz(m/s),wx(rad/s),wy(rad/s),wz(rad/s),,gt_x(m),gt_y(m),gt_z(m),gt_qx,gt_qy,gt_qz,gt_qw,gt_groll_x_G(deg),gt_pitch_y_G(deg),gt_yaw_z_G(deg),gt_vx(m/s),gt_vy(m/s),gt_vz(m/s),gt_wx(rad/s),gt_wy(rad/s),gt_wz(rad/s),,Sr,Sr_avg,
1559013412.7541408538818359,0.0000000000000000,,0.0000000000000002,0.0000000000000001,-0.0000000000000001,0.0000000000000000,-0.0000000000000001,0.0000000000000000,1.0000000000000000,-0.0755855138669150,0.2459037397968158,0.0004794994091153,0.0000000000000000,0.0000000000000000,0.0000000000000000,0.0000000000000000,0.0000000000000000,0.0000000000000000,,0.0000000000000000,0.0000000000000000,0.0000000000000000,0.0000000000000000,0.0000000000000000,0.0000000000000000,1.0000000000000000,-0.0755855138669150,0.2459037397968215,0.0004794994091152,-0.0098102642223239,-0.0059528849087656,-0.0021041124127805,0.0008114594966173,-0.0000641869410174,-0.0007574954070151,,0.0000000000000000,0.0000000000000000,
1559013412.7874608039855957,0.0333199501037598,,0.0000000000000002,0.0000000000000001,-0.0000000000000001,0.0000000000000000,-0.0000000000000001,0.0000000000000000,1.0000000000000000,-0.0755855138669150,0.2459037397968158,0.0004794994091153,0.0000000000000000,0.0000000000000000,0.0000000000000000,0.0000000000000000,0.0000000000000000,0.0000000000000000,,0.0000000000000000,0.0000000000000000,0.0000000000000000,0.0000000000000000,0.0000000000000000,0.0000000000000000,1.0000000000000000,-0.0755855138669150,0.2459037397968215,0.0004794994091152,-0.0098102642223239,-0.0059528849087656,-0.0021041124127805,0.0008114594966173,-0.0000641869410174,-0.0007574954070151,,0.0000000000000000,0.0000000000000000,
1559013412.8207807540893555,0.0666399002075195,,0.0000219726581638,-0.0000260111889973,-0.0000459141663904,-0.0000208610050351,-0.0000137221306289,-0.0000034844792411,0.9999999996821901,-0.0779777081630646,0.2443307657790641,0.0000823114382821,0.0005549145090711,-0.0009140744155948,-0.0007645881653806,-0.0006713226546122,-0.0001088443910840,-0.0002176123651700,,0.0000000000000000,0.0000000000000000,0.0000000000000000,0.0000000000000000,0.0000000000000000,0.0000000000000000,1.0000000000000000,-0.0755855138669150,0.2459037397968215,0.0004794994091152,-0.0098102642223239,-0.0059528849087656,-0.0021041124127805,0.0008114594966173,-0.0000641869410174,-0.0007574954070151,,0.0000000000000000,0.0000000000000000,
1559013412.8541007041931152,0.0999598503112793,,0.0000608926743231,-0.0000640802948601,-0.0001140602429562,-0.0000373096937066,-0.0000189844924195,-0.0000087132854731,0.9999999990858274,-0.0798651435414091,0.2437269247291102,-0.0005160265755550,0.0011061855532015,-0.0033799717536283,-0.0017536299372295,-0.0014824384616985,0.0004133351236126,0.0008436244272202,,0.0026245542083911,0.0026448552001494,-0.0084863851899029,-0.0000333937179824,0.0001718520074773,-0.0000101301488424,0.9999999846245635,-0.0794174526191618,0.2655949411350161,-0.0007079784706163,0.0011400097282603,-0.0002242026966996,-0.0186141021549702,-0.0007273238734342,-0.0001038627669914,-0.0002373664610786,,0.0000000000000000,0.0000000000000000,
1559013412.8874206542968750,0.1332798004150391,,0.0001262903034411,-0.0001468154741993,-0.0002142065874932,-0.0000378024141703,-0.0000235806923088,-0.0000050935236011,0.9999999989944923,-0.0799198270708824,0.2432008019201591,-0.0001005132246582,0.0021184657892204,-0.0024107857097970,-0.0026184181863062,0.0001285783637746,-0.0003722209284548,-0.0002117934720251,,0.0026245542083911,0.0026448552001494,-0.0084863851899029,-0.0000333937179824,0.0001718520074773,-0.0000101301488424,0.9999999846245635,-0.0794174526191618,0.2655949411350161,-0.0007079784706163,0.0011400097282603,-0.0002242026966996,-0.0186141021549702,-0.0007273238734342,-0.0001038627669914,-0.0002373664610786,,0.0000000000000000,0.0000000000000000,
1559013412.9207408428192139,0.1665999889373779,,0.0001876071963411,-0.0002485065635448,-0.0002723575101359,-0.0000332340376668,-0.0000278667317498,-0.0000049033733097,0.9999999990474505,-0.0793962315090670,0.2427096905476230,-0.0000780715043153,0.0016332172232536,-0.0030002443095807,-0.0000183282768429,0.0009260591413560,0.0006978172556181,-0.0004629382745979,,0.0013044971720459,0.0006642558835833,-0.0097306379038952,-0.0000438730574526,0.0002087906767953,-0.0000009822662857,0.9999999772403214,-0.0806136494002281,0.2698292134783979,0.0003343256994272,-0.0023964915890247,-0.0079505480825901,-0.0198433436453342,0.0003404117596801,-0.0015395777300000,-0.0001423610374331,,0.0000000000000000,0.0000000000000000,
1559013412.9540607929229736,0.1999199390411377,,0.0002510355284044,-0.0003552317527220,-0.0002739830334416,-0.0000129934686530,-0.0000142844809747,-0.0000089746469803,0.9999999997732896,-0.0770788454877928,0.2442654901962383,-0.0005467471256826,0.0015572095440772,-0.0016274100853720,0.0003069651755764,0.0011929260021615,0.0012332859105604,-0.0007229402316692,,0.0013044971720459,0.0006642558835833,-0.0097306379038952,-0.0000438730574526,0.0002087906767953,-0.0000009822662857,0.9999999772403214,-0.0806136494002281,0.2698292134783979,0.0003343256994272,-0.0023964915890247,-0.0079505480825901,-0.0198433436453342,0.0003404117596801,-0.0015395777300000,-0.0001423610374331,,0.0000000000000000,0.0000000000000000,
1559013412.9873807430267334,0.2332398891448975,,0.0003049992330981,-0.0004089312959995,-0.0003164140705479,-0.0000144173017045,-0.0000098617901226,-0.0000141313640163,0.9999999997475956,-0.0772445424394733,0.2447715032002950,-0.0011383418386656,0.0011389741805766,-0.0019570558982999,-0.0014499054642399,-0.0004121206084769,0.0004209957160276,0.0003212774096721,,0.0018857590854552,-0.0013061177091510,-0.0060609667982342,-0.0000362485746485,0.0002088160531889,0.0000027108259949,0.9999999775372739,-0.0797380425351669,0.2698326961289798,0.0007577056763264,-0.0000950830581132,-0.0141929863020778,-0.0110827842727304,0.0008529586484656,0.0008104145526886,-0.0009446555632167,,0.0000000000000000,0.0000000000000000,
1559013413.0207006931304932,0.2665598392486572,,0.0003431363790865,-0.0004716913804853,-0.0004165912864769,-0.0000362799963632,-0.0000178833168929,-0.0000100745123364,0.9999999991312265,-0.0797478174257171,0.2438528996089663,-0.0006721862495950,0.0008971832518353,-0.0020463925252434,-0.0023451758404527,-0.0009427345252527,-0.0001135738131031,0.0003124202551737,,0.0018767528659337,-0.0015868478416372,-0.0062711862608355,-0.0000291626588616,0.0002160709066437,-0.0000033503031968,0.9999999762258388,-0.0789291896576434,0.2706631018623400,0.0000621929295683,-0.0001832428679336,-0.0139995729550719,-0.0103720519691706,-0.0000324573375110,0.0006396181997843,0.0005033669876866,,0.0000000000000000,0.0000000000000000,
1559013413.0540206432342529,0.2998797893524170,,0.0003815858253422,-0.0005398933346406,-0.0004752779818722,-0.0000464384767907,-0.0000188827274353,-0.0000093339062641,0.9999999986998944,-0.0809115289954058,0.2437384799107219,-0.0005871411112993,0.0017386236449794,-0.0019730277478822,-0.0019602735416681,-0.0001351686921957,-0.0003713218026432,-0.0004806525835947,,0.0001864124072654,0.0012166738894161,0.0004830618136631,-0.0000185716344986,0.0002542559187380,0.0000077107003256,0.9999999674747831,-0.0777098268087173,0.2750404781751465,0.0013241122817303,-0.0062631070613861,-0.0018153276760131,0.0017081610858440,-0.0014693180564791,-0.0002084249572363,0.0000913238181965,,0.0000000000000000,0.0000000000000000,
1559013413.0873408317565918,0.3331999778747559,,0.0004103084067502,-0.0005761781072818,-0.0004732966156369,-0.0000401709533934,-0.0000181955390223,-0.0000112479882878,0.9999999989643499,-0.0801942623333421,0.2438169343307827,-0.0008066011621248,0.0015493540857585,-0.0027243150711145,-0.0006830095273834,-0.0004024657221951,-0.0001059911516751,-0.0004813477415426,,0.0001864124072654,0.0012166738894161,0.0004830618136631,-0.0000185716344986,0.0002542559187380,0.0000077107003256,0.9999999674747831,-0.0777098268087173,0.2750404781751465,0.0013241122817303,-0.0062631070613861,-0.0018153276760131,0.0017081610858440,-0.0014693180564791,-0.0002084249572363,0.0000913238181965,,0.0000000000000000,0.0000000000000000,
1559013413.1206507682800293,0.3665099143981934,,0.0004911461055059,-0.0007256422125617,-0.0005433184203584,-0.0000410330742873,-0.0000277669968971,-0.0000041837793662,0.9999999987638886,-0.0802895836781365,0.2427212271293925,0.0000043979152999,0.0027741553247661,-0.0048187873921733,-0.0033598121634231,0.0001177937450271,-0.0009142172577410,0.0011159593242988,,-0.0012296630497877,0.0025351477552150,0.0010995718084875,-0.0000417926695341,0.0002369557506546,0.0000081066828663,0.9999999710198130,-0.0803705614379537,0.2730581080783792,0.0013715104470487,-0.0104640517383814,0.0027693663723767,0.0022680787369609,-0.0004222550487611,-0.0009954593842849,-0.0014647236093879,,0.0000000000000000,0.0000000000000000,
1559013413.1539707183837891,0.3998298645019531,,0.0005713352071406,-0.0008103193530568,-0.0007492929415169,-0.0000318523962980,-0.0000240096535025,-0.0000005573817544,0.9999999992043255,-0.0792357863469902,0.2431523523865841,0.0004193448800127,0.0027683788392327,-0.0038280009549632,-0.0023140158990938,0.0009158393892203,0.0006903125244755,0.0006022506970562,,0.0030802988584500,0.0012210024314830,-0.0004229099459523,-0.0000380366311522,0.0002537059910602,0.0000099031762481,0.9999999670442055,-0.0799392118169074,0.2749778185721677,0.0015748725432740,0.0080886157229543,-0.0046372590586543,0.0003316676011309,0.0006035095429979,0.0012304764240980,0.0005028592422605,,0.0000000000000000,0.0000000000000000,
1559013413.1872906684875488,0.4331498146057129,,0.0006705734881667,-0.0009155031143448,-0.0008329154642128,-0.0000239244046514,-0.0000153823260876,-0.0000099932854565,0.9999999995455706,-0.0783319357380321,0.2441395185183579,-0.0006632885600359,0.0014396970804109,-0.0018996333899216,0.0000305930046386,0.0001302729644256,0.0012312538811185,-0.0009994849501412,,0.0013329283684650,-0.0002645851969253,-0.0013593500048340,-0.0000230157938096,0.0002529160120719,0.0000307535759244,0.9999999672789903,-0.0782070900445297,0.2748904838150207,0.0039647358401133,0.0011904048733413,-0.0095880255103111,-0.0023563199210912,0.0018597589805722,0.0016142132226378,-0.0009464622708037,,0.0000000000000000,0.0000000000000000,
1559013413.2206108570098877,0.4664700031280518,,0.0007195746171791,-0.0007969822052619,-0.0006693641907206,-0.0000212691476453,-0.0000164403600574,-0.0000160770591618,0.9999999995094330,-0.0780306443892348,0.2440173453040324,-0.0013602855197719,0.0022741759592582,-0.0016847843035671,-0.0022354704370470,0.0003994253686188,-0.0009019830894368,-0.0004792622718058,,0.0013329283684650,-0.0002645851969253,-0.0013593500048340,-0.0000230157938096,0.0002529160120719,0.0000307535759244,0.9999999672789903,-0.0782070900445297,0.2748904838150207,0.0039647358401133,0.0011904048733413,-0.0095880255103111,-0.0023563199210912,0.0018597589805722,0.0016142132226378,-0.0009464622708037,,0.0000000000000000,0.0000000000000000,
1559013413.2539308071136475,0.4997899532318115,,0.0007668147785447,-0.0008429951650053,-0.0007074485497249,-0.0000109928777175,-0.0000190888698595,-0.0000166319538985,0.9999999996190750,-0.0768533357684031,0.2437137830194475,-0.0014234879175493,0.0016135094209034,-0.0031313328564416,-0.0010570521336416,-0.0001483735522630,0.0004200965870856,0.0005901365313459,,0.0013537559448416,-0.0006318750330489,-0.0014245956609642,-0.0000155585466873,0.0002728241148792,0.0000209335173279,0.9999999624433603,-0.0773576326793994,0.2771702546465652,0.0028365996496084,0.0003106465446763,-0.0089542409405112,-0.0010124421678483,0.0013306239852682,0.0003905478806701,-0.0011022381950170,,0.0000000000000000,0.0000000000000000,
1559013413.2872507572174072,0.5331099033355713,,0.0008953101067761,-0.0009079495831582,-0.0009182069185232,-0.0000056909930083,-0.0000201556082799,0.0000003390765519,0.9999999997806246,-0.0762374745784036,0.2435941307275168,0.0005214151519382,0.0028446669613765,-0.0021005164327681,-0.0030316131691154,0.0006566373425706,0.0001604724149353,0.0000633609365486,,-0.0003187015053108,0.0000959066590073,-0.0209231593457670,-0.0000160718343075,0.0002776230263452,0.0000108136414350,0.9999999612751075,-0.0774217422934056,0.2777186218234659,0.0016761845038021,-0.0058840299025178,-0.0058508231304586,-0.0372426919639111,0.0013397382572293,0.0005982400616631,-0.0003023762255907,,0.0000000000000000,0.0000000000000000,
1559013413.3205707073211670,0.5664298534393311,,0.0009971140530456,-0.0010119704518331,-0.0010131592130525,-0.0000014875545554,-0.0000207004986055,0.0000006899079805,0.9999999997844004,-0.0757556240145539,0.2435317438690220,0.0005616905570224,0.0028872256676764,-0.0032994772561169,-0.0020893615011776,0.0001275833278224,-0.0001059132199383,-0.0002099267466039,,-0.0003187015053108,0.0000959066590073,-0.0209231593457670,-0.0000160718343075,0.0002776230263452,0.0000108136414350,0.9999999612751075,-0.0774217422934056,0.2777186218234659,0.0016761845038021,-0.0058840299025178,-0.0058508231304586,-0.0372426919639111,0.0013397382572293,0.0005982400616631,-0.0003023762255907,,0.0000000000000000,0.0000000000000000,
1559013413.3538906574249268,0.5997498035430908,,0.0011033488773440,-0.0012231015501328,-0.0010479715351716,0.0000043909509986,-0.0000162818076325,0.0000009446030236,0.9999999998573651,-0.0750818746547515,0.2440381260099180,0.0005901969972044,0.0023171804687192,-0.0039148058078779,-0.0012528394212649,0.0006530873681514,0.0004249039439719,0.0003315248958367,,-0.0005509754171336,-0.0001456836824130,-0.0224293881837500,-0.0000085451778506,0.0002747311364235,0.0000002491187608,0.9999999622248595,-0.0765647796794137,0.2773856195816288,0.0004662457421669,-0.0052228411659598,-0.0065887318924069,-0.0385861136019230,-0.0007309849024750,-0.0003088524681516,-0.0003365832380950,,0.0000000000000000,0.0000000000000000,
1559013413.3872108459472656,0.6330699920654297,,0.0011881943951904,-0.0013565372274890,-0.0011179218384357,0.0000078449283297,-0.0000121969086476,0.0000080148804090,0.9999999998627273,-0.0746826128489391,0.2445072826019489,0.0013997774946148,0.0025714181313162,-0.0040727051133830,-0.0033429919418412,-0.0001479433827871,-0.0003807027101181,0.0008508336469891,,0.0034269625326508,0.0011286720590091,-0.0090409392735334,-0.0000107213567495,0.0003332832900764,0.0000064883889218,0.9999999443825994,-0.0768108869699027,0.2840961473448347,0.0011722296041699,0.0091384267434478,-0.0020928373560309,-0.0114530222490430,0.0010196233633906,0.0007099295035005,-0.0002983235754073,,0.0000000000000000,0.0000000000000000,
1559013413.4205307960510254,0.6663899421691895,,0.0012693214481174,-0.0014565597930277,-0.0011421342347756,-0.0000012849311356,-0.0000167961151584,0.0000061914587037,0.9999999998389526,-0.0757297121532027,0.2439799853148116,0.0011915357098700,0.0025469494085430,-0.0038790004198002,-0.0041980571268978,-0.0001469483469814,-0.0006470104178848,0.0008489669373384,,0.0037347389898433,0.0011512820030796,-0.0013166560496787,0.0000095794397142,0.0003434069863255,0.0000027559451479,0.9999999409861386,-0.0744865658977033,0.2852556623579033,0.0007437742424991,0.0077366176992655,-0.0026162154972553,0.0044623170979321,0.0017586316680536,0.0013520804932341,-0.0005689590470865,,0.0000000000000000,0.0000000000000000,
1559013413.4538507461547852,0.6997098922729492,,0.0013531425030462,-0.0015431663871665,-0.0012639997764043,-0.0000100294818291,-0.0000277932534582,0.0000035297230005,0.9999999995572428,-0.0767330650614969,0.2427194080080377,0.0008882126565886,0.0031194127682419,-0.0018997301696025,-0.0041151918512955,0.0001356783128500,-0.0009010839800734,-0.0007481213775866,,0.0028244609372718,-0.0020864745447010,-0.0040981470072898,0.0000272535559166,0.0003338402301539,-0.0000050454464155,0.9999999438912424,-0.0724653892738492,0.2841582340357628,-0.0001480977271716,0.0034915832802653,-0.0125113883987069,-0.0027146551292390,0.0007540810620412,0.0003361692652106,-0.0002933166106232,,0.0000000000000000,0.0000000000000000,
1559013413.4871706962585449,0.7330298423767090,,0.0014597209505542,-0.0015217191822174,-0.0013704659964472,0.0000029349954360,-0.0000222063643549,-0.0000060102144410,0.9999999997310703,-0.0752521144470209,0.2433581735231239,-0.0002058765298020,0.0034440833147755,-0.0043133382420862,-0.0027184588866800,0.0001189234785099,0.0001547659379422,0.0005908316808716,,0.0028244609372718,-0.0020864745447010,-0.0040981470072898,0.0000272535559166,0.0003338402301539,-0.0000050454464155,0.9999999438912424,-0.0724653892738492,0.2841582340357628,-0.0001480977271716,0.0034915832802653,-0.0125113883987069,-0.0027146551292390,0.0007540810620412,0.0003361692652106,-0.0002933166106232,,0.0000000000000000,0.0000000000000000,
1559013413.5204906463623047,0.7663497924804688,,0.0015881873529793,-0.0016654039579372,-0.0014753852168748,0.0000037013762453,-0.0000214926851216,0.0000036755119540,0.9999999997554275,-0.0751595549533441,0.2434414156970634,0.0009039254749496,0.0038288765828281,-0.0051299584584823,-0.0033963291863680,0.0003785556937936,-0.0001161932515880,0.0013904185775641,,0.0028910345138242,-0.0023383199389853,-0.0041449240337843,0.0000373961634486,0.0003340290623401,-0.0000106710419311,0.9999999434561191,-0.0713061125007729,0.2841790525900197,-0.0007923905845583,0.0037497158627957,-0.0126193119212985,-0.0020666199270636,0.0008638525614515,0.0007067462429404,0.0000795015148469,,0.0000000000000000,0.0000000000000000,
1559013413.5538108348846436,0.7996699810028076,,0.0016907298722098,-0.0018322767594761,-0.0015770986983364,0.0000041204417439,-0.0000292377799444,0.0000198201747245,0.9999999993676675,-0.0751036458287496,0.2425563265908508,0.0027551486567251,0.0035131503721227,-0.0053054795624612,-0.0038811907462253,0.0006458527237931,-0.0003815239025561,0.0013911137355120,,0.0009049911250469,0.0016716632260573,-0.0081049924384131,0.0000501230371511,0.0003626649995588,-0.0000170555534951,0.9999999328354414,-0.0698511788821507,0.2874595744438982,-0.0015276880078354,-0.0032216487452388,0.0018814789364114,-0.0086492393165827,0.0019662324339151,0.0004521511436906,-0.0012100221356377,,0.0000000000000000,0.0000000000000000,
1559013413.5871307849884033,0.8329899311065674,,0.0018014520608132,-0.0019636265523479,-0.0016801449111604,0.0000116300869099,-0.0000291253264652,0.0000235474148894,0.9999999992309879,-0.0742412831258320,0.2425697541141503,0.0031822203947059,0.0025283437334019,-0.0031451193336382,-0.0014234107819092,0.0011872512612632,0.0006950419595799,0.0000722180766585,,0.0024758539387623,0.0057413881910543,-0.0145369239774630,0.0000506482715030,0.0003704794838907,-0.0000233562550897,0.9999999298170925,-0.0697943785288060,0.2883541327314159,-0.0022508180482209,0.0023056725040078,0.0144427893683314,-0.0207519046962261,-0.0006191260763444,-0.0003596639144234,0.0002011030883295,,0.0000000000000000,0.0000000000000000,
1559013413.6204507350921631,0.8663098812103271,,0.0018412252603515,-0.0019303651781854,-0.0016661614004122,0.0000124697080201,-0.0000297118581130,0.0000258714427186,0.9999999991461902,-0.0741439357719881,0.2425028882746657,0.0034486215413636,0.0029402945143752,-0.0031117095028852,-0.0023152003035826,0.0001240333561000,0.0001585183168520,0.0000582371869631,,0.0030406504889629,0.0022882742342330,-0.0062925504181727,0.0000611729674452,0.0003626874159403,-0.0000190422897520,0.9999999321765465,-0.0685860076404653,0.2874618788989146,-0.0017548979202029,0.0040563573129475,0.0002654088311829,-0.0037910772953182,0.0001189401809825,-0.0001427652314305,-0.0001788293011487,,0.0000000000000000,0.0000000000000000,
1559013413.6537706851959229,0.8996298313140869,,0.0019424822643881,-0.0020267827656629,-0.0017614042913645,0.0000123420317986,-0.0000333572300889,0.0000280238321541,0.9999999989748172,-0.0741575245296974,0.2420854824301318,0.0036958154594581,0.0033041265910713,-0.0038796149125217,-0.0029169534801751,-0.0004136805099685,0.0001528118249847,0.0005857079404921,,0.0034378551607457,0.0025472472578253,-0.0043545256517963,0.0000600555418070,0.0003908734422606,-0.0000220183470360,0.9999999215632351,-0.0687157343071086,0.2906913252913965,-0.0021000470966965,0.0047460272908211,0.0013947092229500,0.0006963039049879,-0.0011309223482385,-0.0014337574830279,0.0015923746395856,,0.0000000000000000,0.0000000000000000,
1559013413.6870906352996826,0.9329497814178467,,0.0020076610050270,-0.0018962788697474,-0.0018721858264580,0.0000034833829822,-0.0000303560867339,0.0000314844366087,0.9999999990375522,-0.0751709530870038,0.2424299379811844,0.0040919561405791,0.0033428419962169,-0.0036304070161493,-0.0036727160132205,-0.0006764325301330,-0.0001125967569704,0.0003149821192718,,0.0034378551607457,0.0025472472578253,-0.0043545256517963,0.0000600555418070,0.0003908734422606,-0.0000220183470360,0.9999999215632351,-0.0687157343071086,0.2906913252913965,-0.0021000470966965,0.0047460272908211,0.0013947092229500,0.0006963039049879,-0.0011309223482385,-0.0014337574830279,0.0015923746395856,,0.0000000000000000,0.0000000000000000,
1559013413.7204108238220215,0.9662699699401855,,0.0021039174274926,-0.0020098390785067,-0.0019630883539214,-0.0000086944147153,-0.0000273569675006,0.0000328992198987,0.9999999990468225,-0.0765657254587003,0.2427738706575756,0.0042536656994779,0.0038477046775143,-0.0047280177449580,-0.0045280308151634,-0.0004097003684687,-0.0009124190024713,0.0005782411104200,,0.0036291435458029,0.0025966150466021,-0.0043469637549630,0.0000571760738891,0.0003901364780748,-0.0000200743580797,0.9999999220607196,-0.0690446522828446,0.2906071492304136,-0.0018773020674637,0.0051087369211018,0.0014169181231409,0.0000617773694103,-0.0004234086372890,-0.0003483407199383,-0.0010793746914715,,0.0000000000000000,0.0000000000000000,
1559013413.7537307739257812,0.9995899200439453,,0.0021348884885690,-0.0020226092242392,-0.0019507934722568,-0.0000064584932190,-0.0000300572153695,0.0000342667739576,0.9999999989403200,-0.0763088483214071,0.2424646445792213,0.0044107802331213,0.0036023542915048,-0.0037429177639939,-0.0030396763571872,0.0003913303831418,-0.0001068123435549,0.0000589323542254,,0.0036291435458029,0.0025966150466021,-0.0043469637549630,0.0000571760738891,0.0003901364780748,-0.0000200743580797,0.9999999220607196,-0.0690446522828446,0.2906071492304136,-0.0018773020674637,0.0051087369211018,0.0014169181231409,0.0000617773694103,-0.0004234086372890,-0.0003483407199383,-0.0010793746914715,,0.0000000000000000,0.0000000000000000,
1559013413.7870507240295410,1.0329098701477051,,0.0022608789718448,-0.0021637751246378,-0.0020500615333687,0.0000003377304113,-0.0000279701509045,0.0000420146456942,0.9999999987261632,-0.0755262659629483,0.2427049482881065,0.0052982893995577,0.0034283333032637,-0.0024520480029360,-0.0024763425011728,0.0001281481941406,0.0004285783724681,-0.0004724905865889,,0.0029821578802633,0.0023954715740928,-0.0033581745908973,0.0000636555501370,0.0004000566115030,-0.0000217090852176,0.9999999177156937,-0.0683030665391002,0.2917436920126553,-0.0020657681279611,0.0022860211320221,-0.0006600108463317,0.0015310561284423,-0.0004109627625439,-0.0006739070522599,-0.0001190709881485,,0.0000000000000000,0.0000000000000000,
1559013413.8203706741333008,1.0662298202514648,,0.0023373152882715,-0.0021893258460016,-0.0020692017109856,-0.0000041883551417,-0.0000285805990903,0.0000462828227587,0.9999999985117538,-0.0760428344374367,0.2426356650382762,0.0057874974503655,0.0037885299641683,-0.0037965985196688,-0.0038669057792337,-0.0004126854755288,-0.0001134958871034,0.0005838412347971,,0.0028483643782737,0.0054159764026453,-0.0048358352553247,0.0000756474026680,0.0004063720092715,-0.0000323465478623,0.9999999140464770,-0.0669346459473181,0.2924658971404100,-0.0032850968095539,0.0015071481466293,0.0085062691941857,-0.0014686621725559,-0.0004123515100218,-0.0004598114755936,-0.0001185764558613,,0.0000000000000000,0.0000000000000000,
1559013413.8536908626556396,1.0995500087738037,,0.0023373152882715,-0.0021893258460016,-0.0020692017109856,-0.0000041883551417,-0.0000285805990903,0.0000462828227587,0.9999999985117538,-0.0760428344374367,0.2426356650382762,0.0057874974503655,0.0037885299641683,-0.0037965985196688,-0.0038669057792337,-0.0004126854755288,-0.0001134958871034,0.0005838412347971,,0.0052727955121410,0.0028594060605301,-0.0016091656637851,0.0000741511501028,0.0004075664680992,-0.0000336539987448,0.9999999136292910,-0.0671068135670647,0.2926025797277269,-0.0034351616037410,0.0104847270995378,-0.0010913329897448,0.0042982785962522,0.0000560693915759,0.0001306207850575,-0.0007089182618074,,0.0000000000000000,0.0000000000000000,
1559013413.8870108127593994,1.1328699588775635,,0.0025746816943131,-0.0023440939384722,-0.0023136952660021,-0.0000120079773358,-0.0000380781553082,0.0000366011901883,0.9999999985331077,-0.0769436606777031,0.2415458912243577,0.0046795291676494,0.0039317678027243,-0.0018277699254377,-0.0042927400291329,0.0004004204026269,-0.0011682908224942,-0.0004811289850640,,0.0052727955121410,0.0028594060605301,-0.0016091656637851,0.0000741511501028,0.0004075664680992,-0.0000336539987448,0.9999999136292910,-0.0671068135670647,0.2926025797277269,-0.0034351616037410,0.0104847270995378,-0.0010913329897448,0.0042982785962522,0.0000560693915759,0.0001306207850575,-0.0007089182618074,,0.0000000000000000,0.0000000000000000,
1559013413.9203307628631592,1.1661899089813232,,0.0025746816943131,-0.0023440939384722,-0.0023136952660021,-0.0000120079773358,-0.0000380781553082,0.0000366011901883,0.9999999985331077,-0.0769436606777031,0.2415458912243577,0.0046795291676494,0.0039317678027243,-0.0018277699254377,-0.0042927400291329,0.0004004204026269,-0.0011682908224942,-0.0004811289850640,,0.0054303640759792,0.0028405871846140,-0.0015512931906976,0.0000727297327581,0.0004122941432348,-0.0000389757507913,0.9999999116024042,-0.0672725866643876,0.2931435651078277,-0.0040457387794924,0.0105438055470586,-0.0008907766314223,0.0042810388840735,0.0001138636871474,-0.0001375615538564,-0.0004429370164871,,0.0000000000000000,0.0000000000000000,
1559013413.9536507129669189,1.1995098590850830,,0.0027980902275797,-0.0025318400766022,-0.0024939809517044,-0.0000323119252266,-0.0000407593606509,0.0000394079140226,0.9999999978708153,-0.0792689635441208,0.2412391678648107,0.0050016622226657,0.0034329690963535,-0.0033117404694837,-0.0024063584970734,0.0011785914076446,0.0009557210969840,0.0008729765147916,,0.0042457708010142,0.0032688893773403,-0.0056604679087909,0.0000648888487885,0.0004357793942480,-0.0000388127972930,0.9999999021896570,-0.0681711214985140,0.2958347627029305,-0.0040308126094763,0.0040785656310618,0.0004996526986361,-0.0031115380115807,-0.0004219063557684,-0.0014084292342886,-0.0011841928353533,,0.0000000000000000,0.0000000000000000,
1559013413.9869606494903564,1.2328197956085205,,0.0029796016328771,-0.0027233354702250,-0.0026758477180834,-0.0000323702096550,-0.0000297900760742,0.0000530630756172,0.9999999976245156,-0.0792689307570059,0.2424982686982697,0.0065647428168027,0.0032317059872721,-0.0039592897218170,-0.0045404120231896,-0.0004122553068771,-0.0009142951981746,0.0008445383416458,,0.0037830777864451,0.0059721551358482,-0.0016152676663159,0.0000616365717948,0.0004380310634883,-0.0000290971533605,0.9999999017415333,-0.0685385516296640,0.2960941705912740,-0.0029179549245959,0.0020071996841580,0.0080442428588867,0.0036611172836274,0.0013339569559321,0.0007723305607215,-0.0004502651281655,,0.0000000000000000,0.0000000000000000,
1559013414.0202808380126953,1.2661399841308594,,0.0030046579335736,-0.0031511075104326,-0.0017787654456534,-0.0000317938902205,-0.0000334711897496,0.0000525101961295,0.9999999975557538,-0.0792031791975098,0.2420763554563062,0.0065019547278809,0.0020612584451994,-0.0018216023799150,-0.0010543653970784,0.0001236031837634,0.0009593176002303,-0.0002024599314869,,0.0037830777864451,0.0059721551358482,-0.0016152676663159,0.0000616365717948,0.0004380310634883,-0.0000290971533605,0.9999999017415333,-0.0685385516296640,0.2960941705912740,-0.0029179549245959,0.0020071996841580,0.0080442428588867,0.0036611172836274,0.0013339569559321,0.0007723305607215,-0.0004502651281655,,0.0000000000000000,0.0000000000000000,
1559013414.0536007881164551,1.2994599342346191,,0.0031175327175772,-0.0032389312243489,-0.0018818853891681,-0.0000303039214317,-0.0000320440235772,0.0000561913549173,0.9999999974486923,-0.0790306367456703,0.2422404566021008,0.0069235615052626,0.0043169671388500,-0.0027431603852771,-0.0048901148888999,0.0001254585697121,-0.0009085887867444,0.0003170675496452,,0.0000121213038593,0.0015928919038833,-0.0050828893196578,0.0000748137299263,0.0004453782290903,-0.0000428664643663,0.9999998971017973,-0.0670360616612345,0.2969341739491855,-0.0044962081267990,-0.0103412009775639,-0.0070697003975511,-0.0045804427936673,-0.0004666797758546,-0.0001374986022711,0.0000456533380202,,0.0000000000000000,0.0000000000000000,
1559013414.0869207382202148,1.3327798843383789,,0.0032212346604299,-0.0031800763504493,-0.0019690866301089,-0.0000268034720938,-0.0000305962907166,0.0000585531662006,0.9999999974584840,-0.0786283531526056,0.2424066960190246,0.0071939712719587,0.0040748733438968,-0.0021856797183563,-0.0028986629591000,-0.0001387186554522,-0.0001068903550225,-0.0002124886769435,,0.0000121213038593,0.0015928919038833,-0.0050828893196578,0.0000748137299263,0.0004453782290903,-0.0000428664643663,0.9999998971017973,-0.0670360616612345,0.2969341739491855,-0.0044962081267990,-0.0103412009775639,-0.0070697003975511,-0.0045804427936673,-0.0004666797758546,-0.0001374986022711,0.0000456533380202,,0.0000000000000000,0.0000000000000000,
1559013414.1202406883239746,1.3660998344421387,,0.0033409083859304,-0.0032641533619594,-0.0020485917621420,-0.0000329166079243,-0.0000355800662899,0.0000579663292327,0.9999999971452304,-0.0793291832346271,0.2418355480820235,0.0071275174730520,0.0039004172248664,-0.0020515300934989,-0.0031044665658710,-0.0006632276631226,-0.0009040152236663,-0.0007558070319946,,-0.0003862388438266,0.0013193463922199,-0.0052756966752279,0.0000762091679498,0.0004512275026457,-0.0000531757478453,0.9999998938791161,-0.0668817920699509,0.2976029888637595,-0.0056783421457382,-0.0093114748597145,-0.0073452508077025,-0.0049650780856609,0.0013335975818336,0.0000820299610496,-0.0005578060518019,,0.0000000000000000,0.0000000000000000,
1559013414.1535606384277344,1.3994197845458984,,0.0035250619784315,-0.0035713752743044,-0.0020670337428421,-0.0000333050478931,-0.0000280377101759,0.0000469648163969,0.9999999979494832,-0.0793790254934228,0.2426981356890239,0.0058656598312770,0.0033458356974067,-0.0031340836733495,-0.0021870660409514,-0.0004060156885988,0.0001584402989787,-0.0002131838378512,,0.0035230117021185,0.0021938862564966,-0.0040046243308008,0.0000705349383292,0.0004690094979908,-0.0000581311944499,0.9999998858378323,-0.0675348372988754,0.2996399097588268,-0.0062490406365869,0.0058614695444703,-0.0035566396545619,-0.0021732577588409,0.0005393943283707,0.0012497255811468,0.0000916209100978,,0.0000000000000000,0.0000000000000000,
1559013414.1868808269500732,1.4327399730682373,,0.0036243630433139,-0.0036563063932410,-0.0021494183066810,-0.0000314125940730,-0.0000236215688518,0.0000445139121234,0.9999999982368910,-0.0791633441952365,0.2432037983356965,0.0055841152560080,0.0031212024296431,-0.0022481610983157,-0.0025816183201644,-0.0006691978730371,0.0006938310257969,-0.0007446067764767,,0.0017337937437958,0.0027914976925686,-0.0073980466569868,0.0000657147087486,0.0004684735527028,-0.0000318904734004,0.9999998875985463,-0.0680728783992629,0.2995822330364225,-0.0032422190918197,-0.0032952094916254,-0.0025957324542105,-0.0077453418634832,-0.0003198916092515,-0.0001808123633964,-0.0010700231650844,,0.0000000000000000,0.0000000000000000,
1559013414.2202007770538330,1.4660599231719971,,0.0037047124303478,-0.0034694638431602,-0.0022082031819811,-0.0000346469965133,-0.0000202281082282,0.0000508471371103,0.9999999979024889,-0.0795308641463872,0.2435936586806676,0.0063093376857290,0.0028894792772670,-0.0027044939126595,-0.0037296826668760,-0.0004055855144847,-0.0006423590040685,0.0000475132747818,,0.0001515348646201,0.0012294817827928,-0.0051123345942179,0.0000495634790215,0.0004787440758719,-0.0000295359639095,0.9999998837375924,-0.0699224355375030,0.3007594300014954,-0.0029747703706644,-0.0074289659969509,-0.0072463871911168,-0.0031776153482497,0.0000637078628642,-0.0005068728933111,-0.0000599529594183,,0.0000000000000000,0.0000000000000000,
1559013414.2535207271575928,1.4993798732757568,,0.0037853411752438,-0.0035613085418714,-0.0022932002720476,-0.0000474819657784,-0.0000266106039545,0.0000555237729220,0.9999999969772247,-0.0809993902730831,0.2428630862268469,0.0068462739064403,0.0027643834146721,-0.0035602867706505,-0.0020763636272475,-0.0009478443972730,-0.0001173262531816,0.0008450147046260,,0.0001515348646201,0.0012294817827928,-0.0051123345942179,0.0000495634790215,0.0004787440758719,-0.0000295359639095,0.9999998837375924,-0.0699224355375030,0.3007594300014954,-0.0029747703706644,-0.0074289659969509,-0.0072463871911168,-0.0031776153482497,0.0000637078628642,-0.0005068728933111,-0.0000599529594183,,0.0000000000000000,0.0000000000000000,
1559013414.2868406772613525,1.5326998233795166,,0.0038758924822690,-0.0036095195801280,-0.0022437523832602,-0.0000617045301244,-0.0000236491500852,0.0000609262149933,0.9999999959606325,-0.0826265166236029,0.2432033886536967,0.0074649279301510,0.0032857567568695,-0.0018465847176170,-0.0028112769354708,-0.0006774275624383,0.0001537108766042,0.0003168487939330,,0.0000028817418052,0.0010918397830906,-0.0051684678384338,0.0000500533688933,0.0004737014950638,-0.0000311960040012,0.9999998860641751,-0.0698671837824446,0.3001813534159015,-0.0031642389618452,-0.0071128201670945,-0.0069704242050648,-0.0023966880980879,-0.0008921859553084,0.0000764483556850,0.0002165858604712,,0.0000000000000000,0.0000000000000000,
1559013414.3201606273651123,1.5660197734832764,,0.0039916553959183,-0.0036522286158079,-0.0024035464636835,-0.0000715368599484,-0.0000296075512088,0.0000631097962365,0.9999999950115122,-0.0837521895509346,0.2425210233842456,0.0077161256958259,0.0030640685790577,-0.0017054803132455,-0.0055062462493805,-0.0006779924284545,-0.0003807807274141,0.0005794126146752,,0.0033008006095580,0.0011785803558295,0.0061231132623880,0.0000425381149729,0.0005060812556475,-0.0000255228093975,0.9999998707104205,-0.0707253920346598,0.3038926008353187,-0.0025192764290060,0.0057506039738655,-0.0057758740149438,0.0190748348832130,-0.0001634397485759,0.0007278783014044,-0.0009080261806957,,0.0000000000000000,0.0000000000000000,
1559013414.3534808158874512,1.5993399620056152,,0.0040659123379938,-0.0036461855558221,-0.0025140580146058,-0.0000910593034911,-0.0000299720782841,0.0000644361222528,0.9999999933289320,-0.0859886511306573,0.2424796072346760,0.0078682375979825,0.0023473541692339,-0.0008760478517077,-0.0027549352135336,-0.0006691978805606,0.0006938310167038,-0.0007446067665777,,0.0034192999153591,0.0010579430106152,0.0064953994279523,0.0000345271351897,0.0005111463805106,-0.0000263829984575,0.9999998684205874,-0.0716438772364495,0.3044728703048402,-0.0026190585096938,0.0061334241181612,-0.0059950468130410,0.0181544125080109,-0.0012176220770925,0.0004556177300401,-0.0002580562722869,,0.0000000000000000,0.0000000000000000,
1559013414.3868007659912109,1.6326599121093750,,0.0041674931127151,-0.0037532991931643,-0.0026213891130717,-0.0000992279005649,-0.0000328353137487,0.0000641236419869,0.9999999924819123,-0.0869248749745097,0.2421515145330790,0.0078329229032363,0.0021792418185997,-0.0030792861369315,-0.0000826235802505,-0.0004080057668319,0.0006910557157986,-0.0002094504032855,,0.0021895927776940,0.0029798482027788,-0.0017919951850399,0.0000030791525065,0.0005051542388313,-0.0000423319240284,0.9999998715088527,-0.0752563039453160,0.3037837185136449,-0.0044476326101652,-0.0012074953410774,0.0004014892037958,0.0003388677432667,0.0008526051533408,0.0004610072937794,-0.0004364303313196,,0.0000000000000000,0.0000000000000000,
1559013414.4201207160949707,1.6659798622131348,,0.0042011553453436,-0.0037606612276670,-0.0023826816654099,-0.0000969932495748,-0.0000320311836948,0.0000597794428341,0.9999999929963655,-0.0866709181699679,0.2422429397880153,0.0073349715637090,0.0020246398134361,-0.0036215786111743,-0.0015521627370362,-0.0006789874682785,-0.0001144730121307,0.0005812793320773,,-0.0012483852178724,0.0029130126356645,-0.0133931447355384,0.0000071086377619,0.0005056201075181,-0.0000284163205645,0.9999998717451352,-0.0747869104155516,0.3038392157692573,-0.0028528379095790,-0.0112782604992390,-0.0011266766814515,-0.0219192188233137,-0.0009281082893722,-0.0018408100586385,0.0009666547412053,,0.0000000000000000,0.0000000000000000,
1559013414.4534406661987305,1.6992998123168945,,0.0042815110634413,-0.0038830552972771,-0.0025023023701893,-0.0001049226000589,-0.0000414044265410,0.0000739811044776,0.9999999909018589,-0.0875726950115967,0.2411712174243064,0.0089639330380725,0.0029841949971879,-0.0037428527789970,-0.0066558971977571,-0.0004108301019490,-0.0019814022937694,0.0011033687134021,,-0.0014186147277336,0.0028985353920135,-0.0137229153900472,-0.0000057996978002,0.0005104819711338,-0.0000229059692081,0.9999998694249101,-0.0762630878852232,0.3043971376825290,-0.0022228761208905,-0.0113122472539544,-0.0013487567193806,-0.0224984772503376,0.0019746769685298,0.0005661716568284,0.0000881503365235,,0.0000000000000000,0.0000000000000000,
1559013414.4867608547210693,1.7326200008392334,,0.0043292473255501,-0.0037105415885544,-0.0026605149036392,-0.0001037654038918,-0.0000504287286555,0.0000821215946882,0.9999999899728640,-0.0874362037218412,0.2401384265851906,0.0098982371607810,0.0023557391944806,-0.0034919318327008,-0.0042093884826542,0.0003872155422442,-0.0003768725115529,0.0005896600861595,,-0.0014186147277336,0.0028985353920135,-0.0137229153900472,-0.0000057996978002,0.0005104819711338,-0.0000229059692081,0.9999998694249101,-0.0762630878852232,0.3043971376825290,-0.0022228761208905,-0.0113122472539544,-0.0013487567193806,-0.0224984772503376,0.0019746769685298,0.0005661716568284,0.0000881503365235,,0.0000000000000000,0.0000000000000000,
1559013414.5200808048248291,1.7659399509429932,,0.0044355415148791,-0.0038249567373746,-0.0027696809004080,-0.0001008563792192,-0.0000536287963810,0.0000790991209684,0.9999999903476360,-0.0871043500399620,0.2397712072030778,0.0095523882209783,0.0040073422474418,-0.0031513867953861,-0.0017450947401988,0.0001291432187195,0.0001622705851865,-0.0004743573399163,,0.0019871844674433,0.0011427158324406,0.0014052757964757,0.0000145126597581,0.0004981842610422,-0.0000104171448080,0.9999998757466462,-0.0739285600851628,0.3029898472145832,-0.0007887165253009,0.0037218257784843,-0.0071086878888309,0.0082138963043690,0.0013264474691823,-0.0008638858562335,-0.0011839268263429,,0.0000000000000000,0.0000000000000000,
1559013414.5534007549285889,1.7992599010467529,,0.0045748529493699,-0.0038070405253972,-0.0025967778556140,-0.0000976008324406,-0.0000384619374901,0.0000693754232245,0.9999999920909037,-0.0867359043785737,0.2415075919401220,0.0084356445103318,0.0047459674227619,-0.0042708134525488,-0.0002256441169309,-0.0004166656299788,0.0009517348644484,0.0005913080297231,,0.0019871844674433,0.0011427158324406,0.0014052757964757,0.0000145126597581,0.0004981842610422,-0.0000104171448080,0.9999998757466462,-0.0739285600851628,0.3029898472145832,-0.0007887165253009,0.0037218257784843,-0.0071086878888309,0.0082138963043690,0.0013264474691823,-0.0008638858562335,-0.0011839268263429,,0.0000000000000000,0.0000000000000000,
1559013414.5867207050323486,1.8325798511505127,,0.0047528697525059,-0.0039241396276120,-0.0026226396673972,-0.0001081996307665,-0.0000203639370972,0.0000723873224952,0.9999999913191128,-0.0879488313316085,0.2435820446763342,0.0087778730171134,0.0055316407069124,-0.0039274005135006,-0.0023273077759226,-0.0004146755600253,0.0004191194461377,0.0005875746028210,,0.0021569559694145,0.0008463975722888,0.0017737355212673,0.0000397605860765,0.0004972441031336,-0.0000275520140034,0.9999998752041344,-0.0710447551230397,0.3028796325554119,-0.0027506743039883,0.0050291824154556,-0.0075368159450591,0.0100390929728746,0.0008411775343120,0.0002563290181570,-0.0013905941741541,,0.0000000000000000,0.0000000000000000,
1559013414.6200406551361084,1.8658998012542725,,0.0049843656050228,-0.0039887982800648,-0.0023418884105483,-0.0001067754395115,-0.0000109480290962,0.0000794699424375,0.9999999910818372,-0.0877820849085814,0.2446621721546726,0.0095879467812449,0.0045852220198840,-0.0044754580014504,-0.0033466413728324,-0.0001499334682493,0.0001519126125594,0.0008545670047400,,0.0047568128774480,0.0037095875125719,0.0024648328165501,0.0000356404946868,0.0005075731344468,-0.0000260096516513,0.9999998702113747,-0.0715160763899768,0.3040634651266995,-0.0025756846490801,0.0136421741917729,0.0022794245742261,0.0105858491733670,0.0010575925698504,0.0012645954266191,-0.0008035744540393,,0.0000000000000000,0.0000000000000000,
1559013414.6533608436584473,1.8992199897766113,,0.0051112777745457,-0.0040997845717662,-0.0024385741795176,-0.0001049116867429,-0.0000125849775986,0.0000823243149163,0.9999999910289318,-0.0875671285850601,0.2444750404752918,0.0099153011202944,0.0037570380935801,-0.0033426864757786,-0.0031266533192487,0.0001285783482170,-0.0003722210351619,-0.0002117935165441,,0.0048156837642820,0.0062237242223286,0.0038197723035811,0.0000351297156098,0.0005140273588113,-0.0000062339267155,0.9999998672514491,-0.0715637410734696,0.3048059729383173,-0.0003105032281870,0.0113962255418301,0.0109010646119714,0.0102634755894542,0.0009090397506952,-0.0008152950322255,-0.0005353579181246,,0.0000000000000000,0.0000000000000000,
1559013414.6866807937622070,1.9325399398803711,,0.0052677679986419,-0.0046342026650580,-0.0023362979780309,-0.0000979060749950,-0.0000184118622083,0.0000746231017302,0.9999999922533984,-0.0867681670685334,0.2438060132446059,0.0090337357466906,0.0042821566566000,-0.0044425344644971,-0.0026621064200934,0.0001209135335468,-0.0003778495829926,0.0005870982153692,,0.0052291259185608,0.0066394057520543,0.0041492087002540,0.0000389100275542,0.0005036717400379,-0.0000269764555915,0.9999998720365213,-0.0711419311843265,0.3036162666879023,-0.0026857110020908,0.0098902173340321,0.0114108640700579,0.0103509873151779,0.0004561709356494,0.0000499343514093,-0.0024497949052602,,0.0000000000000000,0.0000000000000000,
1559013414.7200007438659668,1.9658598899841309,,0.0054341038673231,-0.0047589086103878,-0.0024150246256914,-0.0000997540619375,-0.0000136479958368,0.0000769541097827,0.9999999919704622,-0.0869787504952679,0.2443523062294642,0.0093000813582180,0.0052471730541700,-0.0045059700527378,-0.0021743211009962,-0.0004182255110635,0.0006835509436110,0.0008557385335064,,0.0052291259185608,0.0066394057520543,0.0041492087002540,0.0000389100275542,0.0005036717400379,-0.0000269764555915,0.9999998720365213,-0.0711419311843265,0.3036162666879023,-0.0026857110020908,0.0098902173340321,0.0114108640700579,0.0103509873151779,0.0004561709356494,0.0000499343514093,-0.0024497949052602,,0.0000000000000000,0.0000000000000000,
1559013414.7533206939697266,1.9991798400878906,,0.0056645568991069,-0.0047056237541629,-0.0024712827540204,-0.0001067017375812,-0.0000086907416484,0.0000884739402396,0.9999999903557861,-0.0877692007817672,0.2449223078006486,0.0106193685540484,0.0061898915132865,-0.0047350824189590,-0.0034926679952794,-0.0009452894538101,-0.0001154501106761,0.0005787174253862,,0.0048463070129249,-0.0018530932854782,-0.0043371194688543,0.0000496536779303,0.0005462905973898,-0.0000412375629876,0.9999998487002679,-0.0699188675543722,0.3084979834910337,-0.0043255173052810,0.0092678898945451,-0.0197609998285770,-0.0056686224415898,0.0003229734138586,0.0009426797041669,0.0000063279644564,,0.0000000000000000,0.0000000000000000,
1559013414.7866406440734863,2.0324997901916504,,0.0058545129536987,-0.0048032878932012,-0.0025494458585309,-0.0000970827608992,0.0000015586734978,0.0000775872285014,0.9999999922763650,-0.0866722069193898,0.2460949395671178,0.0093701610186004,0.0052242373434888,-0.0022154833967374,-0.0021034076653629,0.0006684169972867,0.0004361609267849,-0.0012662586356885,,0.0048463070129249,-0.0018530932854782,-0.0043371194688543,0.0000496536779303,0.0005462905973898,-0.0000412375629876,0.9999998487002679,-0.0699188675543722,0.3084979834910337,-0.0043255173052810,0.0092678898945451,-0.0197609998285770,-0.0056686224415898,0.0003229734138586,0.0009426797041669,0.0000063279644564,,0.0000000000000000,0.0000000000000000,
1559013414.8199608325958252,2.0658199787139893,,0.0059501944681990,-0.0044360121849754,-0.0022474668891063,-0.0000784272433827,0.0000047558837818,0.0000652778060844,0.9999999947826786,-0.0845404767194166,0.2464591760729974,0.0079590851818314,0.0055088168201624,-0.0026217638153117,-0.0029038500707760,0.0009310343200334,-0.0006337213953139,-0.0004722718747793,,0.0017678621869116,0.0015124191525959,-0.0011558191354735,0.0000500246131654,0.0005711314993747,-0.0000341708840095,0.9999998350693360,-0.0698725603466937,0.3113455691600101,-0.0035193152565481,-0.0028836037963629,-0.0044308807700872,0.0001653605722822,-0.0004792680847459,0.0003601763455663,-0.0004656376258936,,0.0000000000000000,0.0000000000000000,
1559013414.8532807826995850,2.0991399288177490,,0.0061092111208891,-0.0045291576253928,-0.0023089096703292,-0.0000745394476853,0.0000044738883024,0.0000661596895363,0.9999999950233752,-0.0840945358661288,0.2464269735147999,0.0080601895981789,0.0051210844199967,-0.0026720196469944,-0.0015462273634444,-0.0004095656986739,0.0004228717576468,0.0000549801338397,,0.0035853931829597,0.0016109033633505,0.0015901379357438,0.0000526102442627,0.0005726425298447,-0.0000379765869908,0.9999998339352233,-0.0695783964641965,0.3115181782101862,-0.0039554728880048,0.0037116021849215,-0.0034948575776070,0.0057091480121017,0.0006449705688283,0.0007822083425708,0.0002719526237343,,0.0000000000000000,0.0000000000000000,
1559013414.8865907192230225,2.1324498653411865,,0.0062737303424563,-0.0046604107043821,-0.0024342279058730,-0.0000781742349461,0.0000095658617275,0.0000779786651794,0.9999999938583055,-0.0845051908077431,0.2470123893946625,0.0094137387613586,0.0036978783630760,-0.0026149092434956,-0.0015892416403004,-0.0012094667170607,0.0006862482950176,0.0000491612406948,,0.0037245920093585,0.0014593189274381,0.0018194195298815,0.0000452053608667,0.0005873934933458,-0.0000412583801236,0.9999998256115376,-0.0704288468814915,0.3132080009324146,-0.0043341840155431,0.0031235220376402,-0.0038933986797929,0.0055238688364625,0.0007684917072766,-0.0006610307609662,0.0011769605334848,,0.0000000000000000,0.0000000000000000,
1559013414.9199106693267822,2.1657698154449463,,0.0063976031495367,-0.0047648253068333,-0.0025082229099574,-0.0000963759769581,0.0000111870185649,0.0000820039764829,0.9999999919309347,-0.0865889585884392,0.2471989753628022,0.0098747262576946,0.0039860825831771,-0.0036903717178821,-0.0017888695073601,-0.0004121206366765,0.0004209955767387,0.0003212773765992,,0.0018623154410093,0.0027256348443475,0.0001956494993356,0.0000609717752342,0.0005685389954785,-0.0000005049907428,0.9999998365227858,-0.0685993416432927,0.3110533887813620,0.0003396554353508,-0.0041805850341916,0.0011643896577880,0.0006084713968448,-0.0011163554154336,-0.0002244176284876,-0.0005613433313556,,0.0000000000000000,0.0000000000000000,
1559013414.9532308578491211,2.1990900039672852,,0.0064876511129242,-0.0048219790618030,-0.0022842856820279,-0.0000981602085654,0.0000091337218584,0.0000840089774769,0.9999999916118203,-0.0867924461069611,0.2469640273790588,0.0101048153729116,0.0041426776826637,-0.0039007693742128,-0.0016159622019055,0.0001214783875167,0.0001566419825693,0.0003245344021456,,0.0018623154410093,0.0027256348443475,0.0001956494993356,0.0000609717752342,0.0005685389954785,-0.0000005049907428,0.9999998365227858,-0.0685993416432927,0.3110533887813620,0.0003396554353508,-0.0041805850341916,0.0011643896577880,0.0006084713968448,-0.0011163554154336,-0.0002244176284876,-0.0005613433313556,,0.0000000000000000,0.0000000000000000,
1559013414.9865508079528809,2.2324099540710449,,0.0067056181495135,-0.0049697477342579,-0.0023731156721931,-0.0000959860316811,0.0000120719360931,0.0000813025815750,0.9999999920154201,-0.0865446123938135,0.2473002619876718,0.0097942087213521,0.0047891211858667,-0.0025838988938240,-0.0009780729132527,0.0001226081209752,0.0012256251581091,-0.0002005932506319,,0.0029704976370324,0.0010159144944673,-0.0068657866970963,0.0000582245274008,0.0005601235302483,0.0000018985634455,0.9999998414339528,-0.0689128105575490,0.3100893950405605,0.0006161232992979,0.0019557164050639,-0.0059154736809433,-0.0117896087467670,-0.0002207496145274,0.0013766620540991,-0.0006734695052728,,0.0000000000000000,0.0000000000000000,
1559013415.0198707580566406,2.2657299041748047,,0.0067885996326544,-0.0045417674821356,-0.0024450390383035,-0.0000922125440980,0.0000144296943284,0.0000875520578809,0.9999999918116339,-0.0861090981715302,0.2475714160178349,0.0105099760466034,0.0060722705867412,-0.0027060171132576,-0.0032827506855489,0.0006550774119447,-0.0001077116323475,0.0003277914242541,,0.0029704976370324,0.0010159144944673,-0.0068657866970963,0.0000582245274008,0.0005601235302483,0.0000018985634455,0.9999998414339528,-0.0689128105575490,0.3100893950405605,0.0006161232992979,0.0019557164050639,-0.0059154736809433,-0.0117896087467670,-0.0002207496145274,0.0013766620540991,-0.0006734695052728,,0.0000000000000000,0.0000000000000000,
1559013415.0531907081604004,2.2990498542785645,,0.0069889294082479,-0.0046764792723520,-0.0025455667333852,-0.0000974461623857,0.0000144626134949,0.0000958384265415,0.9999999905550371,-0.0867047370907529,0.2475765852075622,0.0114595177974621,0.0051999847842915,-0.0031301683105776,-0.0021317917913875,0.0001265882260944,0.0001603943315775,-0.0002080600709131,,0.0029221986643147,0.0009211528264380,-0.0058647508733388,0.0000569818828218,0.0005542338034713,0.0000084162661342,0.9999998447535492,-0.0690515848017236,0.3094154253685485,0.0013637793337315,0.0021712789312005,-0.0055115297436714,-0.0089211678132415,0.0002103293809341,-0.0018684096867219,-0.0012658763444051,,0.0000000000000000,0.0000000000000000,
1559013415.0865106582641602,2.3323698043823242,,0.0071439395449771,-0.0046700184254241,-0.0025551945775035,-0.0000931357186896,0.0000153498964974,0.0000834864148852,0.9999999920600686,-0.0862168843895511,0.2476762149178117,0.0100439333968111,0.0049005380799566,-0.0019351726805241,-0.0023902240408368,-0.0003963608760113,-0.0003685466497224,-0.0010158089573249,,0.0029519888838059,0.0008384119710609,-0.0059934795015772,0.0000581090590179,0.0005500910080263,-0.0000013667004831,0.9999998470106645,-0.0689278484126669,0.3089392815590514,0.0002433889468124,0.0020987750031054,-0.0055223274976015,-0.0086310729384422,-0.0007987834396772,0.0002558300329838,-0.0004012739227619,,0.0000000000000000,0.0000000000000000,
1559013415.1198308467864990,2.3656899929046631,,0.0072874273239010,-0.0047664474852191,-0.0026217279265190,-0.0001026079630670,0.0000150303371499,0.0000828988359199,0.9999999911867391,-0.0873026165508995,0.2476395910613322,0.0099766364957071,0.0048591000212086,-0.0020368973122899,-0.0022432822667341,-0.0001371588351359,0.0001612934624808,-0.0004769191992719,,0.0029878107440885,0.0007288817112278,-0.0061651333612094,0.0000439352569584,0.0005723284094916,-0.0000032104520452,0.9999998352497754,-0.0705530997770213,0.3114872255928340,0.0000279644039502,0.0016421368345618,-0.0055081960745156,-0.0084120603278279,0.0010094176977873,-0.0009097846341319,-0.0008456847863272,,0.0000000000000000,0.0000000000000000,
1559013415.1531507968902588,2.3990099430084229,,0.0074697827966563,-0.0046509504195652,-0.0026890127996083,-0.0001038536879163,0.0000204416689382,0.0000892527770572,0.9999999904152458,-0.0874421785382607,0.2482607308178800,0.0107038664555843,0.0047526267527793,-0.0020918358276357,-0.0028447728248058,0.0001240332826110,0.0001585181540590,0.0000582371562689,,0.0051925544355761,0.0023813793912971,-0.0010522355678721,0.0000469439347328,0.0005700122294068,-0.0000046649478309,0.9999998364302685,-0.0702091373472664,0.3112216003752460,-0.0001381758148190,0.0089325234293938,0.0004224320291542,0.0012637828476727,-0.0005778026534244,-0.0005969690391794,-0.0000826702453196,,0.0000000000000000,0.0000000000000000,
1559013415.1864707469940186,2.4323298931121826,,0.0076463343467597,-0.0047410753109782,-0.0028033735264195,-0.0001129961025781,0.0000124913607495,0.0000900898834706,0.9999999894798298,-0.0884894849342316,0.2473499243305663,0.0108010751413418,0.0046599175191394,-0.0006773388546994,-0.0025030836683299,0.0001362430896290,-0.0003665925279650,-0.0010106852386780,,0.0046368757536828,0.0024083626879825,-0.0023725760559474,0.0000458798311537,0.0005587346913442,0.0000202892320099,0.9999998426494540,-0.0703171895108751,0.3099329308591345,0.0027229777647251,0.0063844979740679,-0.0001243474544026,-0.0025399073492736,-0.0001940629445016,0.0010972442105412,0.0014111992204562,,0.0000000000000000,0.0000000000000000,
1559013415.2197906970977783,2.4656498432159424,,0.0077058363871974,-0.0046643818391321,-0.0026861940368933,-0.0001204732655411,0.0000121815220513,0.0000888508697117,0.9999999887216630,-0.0893469188462513,0.2473142923447432,0.0106591337219944,0.0042459241691666,-0.0029807079088308,-0.0007587458700259,-0.0001442588006814,0.0006901565158622,0.0000594087082105,,0.0046368757536828,0.0024083626879825,-0.0023725760559474,0.0000458798311537,0.0005587346913442,0.0000202892320099,0.9999998426494540,-0.0703171895108751,0.3099329308591345,0.0027229777647251,0.0063844979740679,-0.0001243474544026,-0.0025399073492736,-0.0001940629445016,0.0010972442105412,0.0014111992204562,,0.0000000000000000,0.0000000000000000,
1559013415.2531106472015381,2.4989697933197021,,0.0078815842925855,-0.0047602005951924,-0.0027509854349040,-0.0001156385344411,0.0000196560517598,0.0000899317180027,0.9999999890768275,-0.0887922946142950,0.2481709378778359,0.0107817693340849,0.0054415394540351,-0.0029483504595285,-0.0030023646024666,0.0001214783131446,0.0001566419697372,0.0003245343998491,,0.0036304880783306,0.0051519430538680,-0.0003610028637882,0.0000409396240160,0.0005788687692688,0.0000372948730190,0.9999998309219795,-0.0708737745339409,0.3122426262887678,0.0046684425669311,0.0018805343424901,0.0090315490961075,0.0019654412753880,-0.0017144266748801,0.0002639917656779,-0.0012922289315611,,0.0000000000000000,0.0000000000000000,
1559013415.2864308357238770,2.5322899818420410,,0.0080814418367172,-0.0047073545183287,-0.0026775727483817,-0.0001149998271300,0.0000180966015364,0.0000800797576269,0.9999999900173926,-0.0887239850902008,0.2479906133153276,0.0096530660220151,0.0066386145428570,-0.0013504244064719,-0.0047448232733276,-0.0003979208149319,-0.0006367305367192,-0.0007513784401843,,0.0036304880783306,0.0051519430538680,-0.0003610028637882,0.0000409396240160,0.0005788687692688,0.0000372948730190,0.9999998309219795,-0.0708737745339409,0.3122426262887678,0.0046684425669311,0.0018805343424901,0.0090315490961075,0.0019654412753880,-0.0017144266748801,0.0002639917656779,-0.0012922289315611,,0.0000000000000000,0.0000000000000000,
1559013415.3197507858276367,2.5656099319458008,,0.0082799227999937,-0.0048013535514603,-0.0027825977269268,-0.0001128652863770,0.0000282248667172,0.0000831625399618,0.9999999897743881,-0.0884777727926365,0.2491517118889655,0.0100046729852267,0.0054160223994076,-0.0022306981676893,-0.0028698867249101,0.0003918951363293,0.0004276790801376,-0.0002036315046674,,0.0024622045541892,0.0033692700341506,0.0010831382365003,0.0000311932746903,0.0005793344129262,0.0000361975982775,0.9999998310441615,-0.0719912381284506,0.3122958639970193,0.0045419871211058,-0.0010414639255032,0.0009290307061747,0.0048048202879727,0.0009482172317803,0.0003190914285369,-0.0010488524567336,,0.0000000000000000,0.0000000000000000,
1559013415.3530707359313965,2.5989298820495605,,0.0083578216852400,-0.0048833321574093,-0.0024771394849109,-0.0000972738019139,0.0000263790795187,0.0000815985573556,0.9999999915918135,-0.0866919102954117,0.2489397982232294,0.0098258023619806,0.0049803318359936,-0.0021166067055911,-0.0018941734124444,0.0006581971305230,0.0004286561369363,-0.0002010696370689,,-0.0009817813704339,-0.0000302048205232,-0.0113073154465510,0.0000366397794939,0.0005790403470259,0.0000539893675716,0.9999998302274612,-0.0713571827692653,0.3122647584925159,0.0065812067841531,-0.0103610353544354,-0.0106029035523534,-0.0180826224386692,0.0003542889317032,0.0002166567428503,-0.0017341335769743,,0.0000000000000000,0.0000000000000000,
1559013415.3863906860351562,2.6322498321533203,,0.0085317384577468,-0.0049727907087239,-0.0025964927808593,-0.0001007278221714,0.0000153592937941,0.0000850052337944,0.9999999911960541,-0.0870861256558919,0.2476776113873913,0.0102179636894700,0.0053984917859925,-0.0020741257443825,-0.0027561545543743,-0.0004070108444710,0.0004247478679366,-0.0002113171229149,,0.0003574812231935,0.0003619826310008,-0.0030307031033011,0.0000280967192277,0.0006463813474378,0.0000294119631035,0.9999997902683102,-0.0723496947302187,0.3199778806545092,0.0037542767039110,-0.0030758511275053,-0.0073704370297492,-0.0008689275127836,-0.0003743243869394,0.0005830600857735,-0.0002860996755771,,0.0000000000000000,0.0000000000000000,
1559013415.4197106361389160,2.6655697822570801,,0.0085856611550146,-0.0049447376241608,-0.0028094561731408,-0.0001068858852816,0.0000224194499653,0.0000831578589739,0.9999999905787732,-0.0877926373317124,0.2484864030915053,0.0100051042465052,0.0054304876568888,-0.0013165660129749,-0.0036228060959807,-0.0006682029622179,0.0004275231763584,-0.0007464734784556,,0.0032467484218093,0.0019975254871323,0.0013584030478750,0.0000208630925172,0.0006477631435398,0.0000398047980743,0.9999997891915874,-0.0731727237161890,0.3201377922878259,0.0049444838312599,0.0078006898984313,-0.0011601021979004,0.0067432597279549,-0.0003846271429211,-0.0008461753022857,-0.0015661191428080,,0.0000000000000000,0.0000000000000000,
1559013415.4530308246612549,2.6988899707794189,,0.0088024030803457,-0.0050301394225862,-0.0029492231450086,-0.0001063496297510,0.0000256325874672,0.0000789604102237,0.9999999908989902,-0.0877332354113432,0.2488539106939594,0.0095235847543518,0.0049502322171878,-0.0036412689499342,-0.0023530351363031,-0.0001483736763428,0.0004200963943696,0.0005901364686245,,0.0034025515714207,0.0019694676577049,0.0014925504697577,0.0000218994381274,0.0006415251941719,0.0000333035632454,0.9999997934283349,-0.0730576655340355,0.3194220055325690,0.0042004903961273,0.0078299734741449,-0.0012851294595748,0.0068843513727188,0.0005175640108064,-0.0001538863434689,-0.0014675890561193,,0.0000000000000000,0.0000000000000000,
1559013415.4863507747650146,2.7322099208831787,,0.0088795573371783,-0.0046590205751095,-0.0026334461080749,-0.0001061281269187,0.0000189291959296,0.0000769545718633,0.9999999912282500,-0.0877088998511156,0.2480854299211558,0.0092948257074553,0.0063583495790039,-0.0016734707407627,-0.0043091069512827,0.0003978653415494,-0.0011701671908026,-0.0002148317859958,,0.0034025515714207,0.0019694676577049,0.0014925504697577,0.0000218994381274,0.0006415251941719,0.0000333035632454,0.9999997934283349,-0.0730576655340355,0.3194220055325690,0.0042004903961273,0.0078299734741449,-0.0012851294595748,0.0068843513727188,0.0005175640108064,-0.0001538863434689,-0.0014675890561193,,0.0000000000000000,0.0000000000000000,
