#Time(sec),Dtime(sec),,x(m),y(m),z(m),qx,qy,qz,qw,roll_x_G(deg),pitch_y_G(deg),yaw_z_G(deg),vx(m/s),vy(m/s),vz(m/s),wx(rad/s),wy(rad/s),wz(rad/s),,gt_x(m),gt_y(m),gt_z(m),gt_qx,gt_qy,gt_qz,gt_qw,gt_groll_x_G(deg),gt_pitch_y_G(deg),gt_yaw_z_G(deg),gt_vx(m/s),gt_vy(m/s),gt_vz(m/s),gt_wx(rad/s),gt_wy(rad/s),gt_wz(rad/s),,Sr,Sr_avg,
1559013412.7541408538818359,0.0000000000000000,,0.0000000000000002,0.0000000000000001,-0.0000000000000001,0.0000000000000000,-0.0000000000000001,0.0000000000000000,1.0000000000000000,-0.0755855138669150,0.2459037397968158,0.0004794994091153,0.0000000000000000,0.0000000000000000,0.0000000000000000,0.0000000000000000,0.0000000000000000,0.0000000000000000,,0.0000000000000000,0.0000000000000000,0.0000000000000000,0.0000000000000000,0.0000000000000000,0.0000000000000000,1.0000000000000000,-0.0755855138669150,0.2459037397968215,0.0004794994091152,-0.0098102642223239,-0.0059528849087656,-0.0021041124127805,0.0008114594966173,-0.0000641869410174,-0.0007574954070151,,0.0000000000000000,0.0000000000000000,
1559013412.7874608039855957,0.0333199501037598,,0.0000000000000002,0.0000000000000001,-0.0000000000000001,0.0000000000000000,-0.0000000000000001,0.0000000000000000,1.0000000000000000,-0.0755855138669150,0.2459037397968158,0.0004794994091153,0.0000000000000000,0.0000000000000000,0.0000000000000000,0.0000000000000000,0.0000000000000000,0.0000000000000000,,0.0000000000000000,0.0000000000000000,0.0000000000000000,0.0000000000000000,0.0000000000000000,0.0000000000000000,1.0000000000000000,-0.0755855138669150,0.2459037397968215,0.0004794994091152,-0.0098102642223239,-0.0059528849087656,-0.0021041124127805,0.0008114594966173,-0.0000641869410174,-0.0007574954070151,,0.0000000000000000,0.0000000000000000,
1559013412.8207807540893555,0.0666399002075195,,0.0000219726581638,-0.0000260111889973,-0.0000459141663904,-0.0000208610050351,-0.0000137221306289,-0.0000034844792411,0.9999999996821901,-0.0779777081630646,0.2443307657790641,0.0000823114382821,0.0005549145090711,-0.0009140744155948,-0.0007645881653806,-0.0006713226546122,-0.0001088443910840,-0.0002176123651700,,0.0000000000000000,0.0000000000000000,0.0000000000000000,0.0000000000000000,0.0000000000000000,0.0000000000000000,1.0000000000000000,-0.0755855138669150,0.2459037397968215,0.0004794994091152,-0.0098102642223239,-0.0059528849087656,-0.0021041124127805,0.0008114594966173,-0.0000641869410174,-0.0007574954070151,,0.0000000000000000,0.0000000000000000,
1559013412.8541007041931152,0.0999598503112793,,0.0000608926743231,-0.0000640802948601,-0.0001140602429562,-0.0000373096937066,-0.0000189844924195,-0.0000087132854731,0.9999999990858274,-0.0798651435414091,0.2437269247291102,-0.0005160265755550,0.0011061855532015,-0.0033799717536283,-0.0017536299372295,-0.0014824384616985,0.0004133351236126,0.0008436244272202,,0.0026245542083911,0.0026448552001494,-0.0084863851899029,-0.0000333937179824,0.0001718520074773,-0.0000101301488424,0.9999999846245635,-0.0794174526191618,0.2655949411350161,-0.0007079784706163,0.0011400097282603,-0.0002242026966996,-0.0186141021549702,-0.0007273238734342,-0.0001038627669914,-0.0002373664610786,,0.0000000000000000,0.0000000000000000,
1559013412.8874206542968750,0.1332798004150391,,0.0001262903034411,-0.0001468154741993,-0.0002142065874932,-0.0000378024141703,-0.0000235806923088,-0.0000050935236011,0.9999999989944923,-0.0799198270708824,0.2432008019201591,-0.0001005132246582,0.0021184657892204,-0.0024107857097970,-0.0026184181863062,0.0001285783637746,-0.0003722209284548,-0.0002117934720251,,0.0026245542083911,0.0026448552001494,-0.0084863851899029,-0.0000333937179824,0.0001718520074773,-0.0000101301488424,0.9999999846245635,-0.0794174526191618,0.2655949411350161,-0.0007079784706163,0.0011400097282603,-0.0002242026966996,-0.0186141021549702,-0.0007273238734342,-0.0001038627669914,-0.0002373664610786,,0.0000000000000000,0.0000000000000000,
1559013412.9207408428192139,0.1665999889373779,,0.0001876071963411,-0.0002485065635448,-0.0002723575101359,-0.0000332340376668,-0.0000278667317498,-0.0000049033733097,0.9999999990474505,-0.0793962315090670,0.2427096905476230,-0.0000780715043153,0.0016332172232536,-0.0030002443095807,-0.0000183282768429,0.0009260591413560,0.0006978172556181,-0.0004629382745979,,0.0013044971720459,0.0006642558835833,-0.0097306379038952,-0.0000438730574526,0.0002087906767953,-0.0000009822662857,0.9999999772403214,-0.0806136494002281,0.2698292134783979,0.0003343256994272,-0.0023964915890247,-0.0079505480825901,-0.0198433436453342,0.0003404117596801,-0.0015395777300000,-0.0001423610374331,,0.0000000000000000,0.0000000000000000,
1559013412.9540607929229736,0.1999199390411377,,0.0002510355284044,-0.0003552317527220,-0.0002739830334416,-0.0000129934686530,-0.0000142844809747,-0.0000089746469803,0.9999999997732896,-0.0770788454877928,0.2442654901962383,-0.0005467471256826,0.0015572095440772,-0.0016274100853720,0.0003069651755764,0.0011929260021615,0.0012332859105604,-0.0007229402316692,,0.0013044971720459,0.0006642558835833,-0.0097306379038952,-0.0000438730574526,0.0002087906767953,-0.0000009822662857,0.9999999772403214,-0.0806136494002281,0.2698292134783979,0.0003343256994272,-0.0023964915890247,-0.0079505480825901,-0.0198433436453342,0.0003404117596801,-0.0015395777300000,-0.0001423610374331,,0.0000000000000000,0.0000000000000000,
1559013412.9873807430267334,0.2332398891448975,,0.0003049992330981,-0.0004089312959995,-0.0003164140705479,-0.0000144173017045,-0.0000098617901226,-0.0000141313640163,0.9999999997475956,-0.0772445424394733,0.2447715032002950,-0.0011383418386656,0.0011389741805766,-0.0019570558982999,-0.0014499054642399,-0.0004121206084769,0.0004209957160276,0.0003212774096721,,0.0018767528659337,-0.0015868478416372,-0.0062711862608355,-0.0000291626588616,0.0002160709066437,-0.0000033503031968,0.9999999762258388,-0.0789291896576434,0.2706631018623400,0.0000621929295683,-0.0001832428679336,-0.0139995729550719,-0.0103720519691706,-0.0000324573375110,0.0006396181997843,0.0005033669876866,,0.0000000000000000,0.0000000000000000,
1559013413.0207006931304932,0.2665598392486572,,0.0003431363790865,-0.0004716913804853,-0.0004165912864769,-0.0000362799963632,-0.0000178833168929,-0.0000100745123364,0.9999999991312265,-0.0797478174257171,0.2438528996089663,-0.0006721862495950,0.0008971832518353,-0.0020463925252434,-0.0023451758404527,-0.0009427345252527,-0.0001135738131031,0.0003124202551737,,0.0001864124072654,0.0012166738894161,0.0004830618136631,-0.0000185716344986,0.0002542559187380,0.0000077107003256,0.9999999674747831,-0.0777098268087173,0.2750404781751465,0.0013241122817303,-0.0062631070613861,-0.0018153276760131,0.0017081610858440,-0.0014693180564791,-0.0002084249572363,0.0000913238181965,,0.0000000000000000,0.0000000000000000,
1559013413.0540206432342529,0.2998797893524170,,0.0003903418709308,-0.0005530731092706,-0.0004847153840386,-0.0000454537236579,-0.0000198192877273,-0.0000091906053814,0.9999999987283439,-0.0807986128321173,0.2436311815676687,-0.0005705755700852,0.0017486898863368,-0.0027608805572256,-0.0017974615562203,0.0003923254197449,-0.0003731200542663,0.0000570656395446,,-0.0012296630497877,0.0025351477552150,0.0010995718084875,-0.0000417926695341,0.0002369557506546,0.0000081066828663,0.9999999710198130,-0.0803705614379537,0.2730581080783792,0.0013715104470487,-0.0104640517383814,0.0027693663723767,0.0022680787369609,-0.0004222550487611,-0.0009954593842849,-0.0014647236093879,,0.0000000000000000,0.0000000000000000,
1559013413.0873408317565918,0.3331999778747559,,0.0004237724617930,-0.0005973058504108,-0.0004863307392106,-0.0000408711465807,-0.0000194033659951,-0.0000116516923726,0.9999999989086485,-0.0802746938451915,0.2436784638588319,-0.0008526728968117,0.0017249620999473,-0.0031896112107304,-0.0011779223847242,0.0001260234255512,-0.0003740971110650,0.0000545037719461,,-0.0012296630497877,0.0025351477552150,0.0010995718084875,-0.0000417926695341,0.0002369557506546,0.0000081066828663,0.9999999710198130,-0.0803705614379537,0.2730581080783792,0.0013715104470487,-0.0104640517383814,0.0027693663723767,0.0022680787369609,-0.0004222550487611,-0.0009954593842849,-0.0014647236093879,,0.0000000000000000,0.0000000000000000,
1559013413.1206507682800293,0.3665099143981934,,0.0004878614639239,-0.0007138884556137,-0.0005476996042657,-0.0000410329428159,-0.0000277650952233,-0.0000041845301855,0.9999999987639435,-0.0802895689816600,0.2427214449279933,0.0000043115802041,0.0027640722896259,-0.0047826839992097,-0.0033732858805897,0.0001177937451111,-0.0009142172566039,0.0011159593238414,,-0.0016435135824158,0.0026275468295871,0.0012304795801690,-0.0000513339756734,0.0002473163494147,-0.0000056877855006,0.9999999680835472,-0.0814710891680904,0.2742431862158812,-0.0002111219548778,-0.0103930579498410,0.0014988548355177,0.0039006241131574,0.0011318795150146,0.0002227528020740,-0.0000919199519558,,0.0000000000000000,0.0000000000000000,
1559013413.1539707183837891,0.3998298645019531,,0.0005999662136009,-0.0008581455605540,-0.0007331478453995,-0.0000265381035953,-0.0000211865900521,-0.0000015462962168,0.9999999994222333,-0.0786272993087304,0.2434756991519684,0.0003055727319709,0.0026098581786007,-0.0025341568510567,-0.0020228208937941,0.0006597571480042,0.0006968401992548,-0.0004655001468842,,0.0030802988584500,0.0012210024314830,-0.0004229099459523,-0.0000380366311522,0.0002537059910602,0.0000099031762481,0.9999999670442055,-0.0799392118169074,0.2749778185721677,0.0015748725432740,0.0080886157229543,-0.0046372590586543,0.0003316676011309,0.0006035095429979,0.0012304764240980,0.0005028592422605,,0.0000000000000000,0.0000000000000000,
1559013413.1872906684875488,0.4331498146057129,,0.0006713265693130,-0.0009390663735918,-0.0007890438243199,-0.0000239243010756,-0.0000153890572860,-0.0000099971774274,0.9999999995454307,-0.0783319257642337,0.2441387465815923,-0.0006637335147904,0.0014415756970499,-0.0019592076300058,0.0001414931632582,0.0001302729644737,0.0012312538768907,-0.0009994849525790,,0.0032453695944055,0.0011196545295340,-0.0004223351860165,-0.0000312984294318,0.0002538822486879,0.0000161588989184,0.9999999671515505,-0.0791638111367561,0.2749989768490645,0.0022919017707144,0.0086654815822840,-0.0050508026033640,-0.0003003584279213,0.0014034562045708,-0.0017996052047238,-0.0003075636050198,,0.0000000000000000,0.0000000000000000,
1559013413.2206108570098877,0.4664700031280518,,0.0007283221324108,-0.0008870749335883,-0.0007325004983012,-0.0000182413239308,-0.0000186754363293,-0.0000192786474779,0.9999999994734080,-0.0776852435021471,0.2437607394941008,-0.0017268266312138,0.0022548239857105,-0.0001449383365878,-0.0023640912259349,0.0012059961659182,-0.0008934233754380,-0.0012704684033613,,0.0032453695944055,0.0011196545295340,-0.0004223351860165,-0.0000312984294318,0.0002538822486879,0.0000161588989184,0.9999999671515505,-0.0791638111367561,0.2749989768490645,0.0022919017707144,0.0086654815822840,-0.0050508026033640,-0.0003003584279213,0.0014034562045708,-0.0017996052047238,-0.0003075636050198,,0.0000000000000000,0.0000000000000000,
1559013413.2539308071136475,0.4997899532318115,,0.0008171174851637,-0.0010102018318481,-0.0008245863856311,-0.0000074806094769,-0.0000191322495011,-0.0000098930160965,0.9999999997400629,-0.0764475599216362,0.2437098433629336,-0.0006512573187167,0.0023068687671119,-0.0030365162244761,-0.0029515957407422,-0.0001473785159948,0.0001537888844992,0.0005882698133262,,-0.0003187015053108,0.0000959066590073,-0.0209231593457670,-0.0000160718343075,0.0002776230263452,0.0000108136414350,0.9999999612751075,-0.0774217422934056,0.2777186218234659,0.0016761845038021,-0.0058840299025178,-0.0058508231304586,-0.0372426919639111,0.0013397382572293,0.0005982400616631,-0.0003023762255907,,0.0000000000000000,0.0000000000000000,
1559013413.2872507572174072,0.5331099033355713,,0.0008928798122931,-0.0010933741422526,-0.0009073013523897,-0.0000056884771012,-0.0000201549011842,0.0000003034674355,0.9999999997806646,-0.0762372037078162,0.2435942063482708,0.0005173345013131,0.0028397749102317,-0.0024744732780194,-0.0030096401034211,0.0006566373430331,0.0001604724201155,0.0000633609281795,,0.0032448892448287,0.0011686060850249,-0.0088127838804373,-0.0000146503900680,0.0003385993683422,0.0000034395524150,0.9999999425620001,-0.0772627395804454,0.2847048612551494,0.0008218920959599,0.0091201923787594,-0.0014337738975883,-0.0116917202249169,0.0016286274185404,-0.0022791337687522,0.0006528442027047,,0.0000000000000000,0.0000000000000000,
1559013413.3205707073211670,0.5664298534393311,,0.0009945118359929,-0.0012105358911565,-0.0010014813700971,-0.0000014850386402,-0.0000206997916527,0.0000006542984359,0.9999999997844427,-0.0757553531410020,0.2435318194904111,0.0005576098575379,0.0028823342284433,-0.0036734353351742,-0.0020673852472066,0.0001275833293714,-0.0001059132194823,-0.0002099267707242,,0.0034269625326508,0.0011286720590091,-0.0090409392735334,-0.0000107213567495,0.0003332832900764,0.0000064883889218,0.9999999443825994,-0.0768108869699027,0.2840961473448347,0.0011722296041699,0.0091384267434478,-0.0020928373560309,-0.0114530222490430,0.0010196233633906,0.0007099295035005,-0.0002983235754073,,0.0000000000000000,0.0000000000000000,
1559013413.3538906574249268,0.5997498035430908,,0.0010989431617512,-0.0014193297422602,-0.0010360470743549,0.0000043933589193,-0.0000162810878773,0.0000009098829568,0.9999999998573984,-0.0750816157386789,0.2440382032562910,0.0005862182250364,0.0023093391486444,-0.0042645315041027,-0.0012315988405059,0.0006530873697004,0.0004249039444279,0.0003315248717164,,0.0034269625326508,0.0011286720590091,-0.0090409392735334,-0.0000107213567495,0.0003332832900764,0.0000064883889218,0.9999999443825994,-0.0768108869699027,0.2840961473448347,0.0011722296041699,0.0091384267434478,-0.0020928373560309,-0.0114530222490430,0.0010196233633906,0.0007099295035005,-0.0002983235754073,,0.0000000000000000,0.0000000000000000,
1559013413.3872108459472656,0.6330699920654297,,0.0011835132173745,-0.0015650513283464,-0.0011052513124105,0.0000078473364237,-0.0000121961890212,0.0000079801599379,0.9999999998629947,-0.0746823539289517,0.2445073598455403,0.0013957986773950,0.0025635725375015,-0.0044224319190571,-0.0033217489645067,-0.0001479433812898,-0.0003807027096474,0.0008508336235519,,0.0040371625405149,0.0010407715328566,-0.0011724512895224,0.0000182179897012,0.0003403120708404,-0.0000080441169780,0.9999999418955441,-0.0735023907927335,0.2848993990187070,-0.0004930345491329,0.0076945354230702,-0.0024773650802672,0.0028743059374392,0.0014570327475667,-0.0012100221356377,0.0000713423796697,,0.0000000000000000,0.0000000000000000,
1559013413.4205307960510254,0.6663899421691895,,0.0012628306284668,-0.0016652786814019,-0.0011311804652697,-0.0000012826499360,-0.0000167951907777,0.0000061573439999,0.9999999998391818,-0.0757294674593027,0.2439800860773559,0.0011876262764807,0.0025366775086116,-0.0042095930042664,-0.0041807208050207,-0.0001469483454840,-0.0006470104174140,0.0008489669139013,,0.0040371625405149,0.0010407715328566,-0.0011724512895224,0.0000182179897012,0.0003403120708404,-0.0000080441169780,0.9999999418955441,-0.0735023907927335,0.2848993990187070,-0.0004930345491329,0.0076945354230702,-0.0024773650802672,0.0028743059374392,0.0014570327475667,-0.0012100221356377,0.0000713423796697,,0.0000000000000000,0.0000000000000000,
1559013413.4538507461547852,0.6997098922729492,,0.0013463424039397,-0.0017618427926843,-0.0012525238194012,-0.0000100272009856,-0.0000277923287636,0.0000034956079340,0.9999999995574113,-0.0767328203658548,0.2427195087729245,0.0008843031782018,0.0031091438461544,-0.0022303242034611,-0.0040978610491384,0.0001356783142788,-0.0009010839794287,-0.0007481214005384,,0.0028910345138242,-0.0023383199389853,-0.0041449240337843,0.0000373961634486,0.0003340290623401,-0.0000106710419311,0.9999999434561191,-0.0713061125007729,0.2841790525900197,-0.0007923905845583,0.0037497158627957,-0.0126193119212985,-0.0020666199270636,0.0008638525614515,0.0007067462429404,0.0000795015148469,,0.0000000000000000,0.0000000000000000,
1559013413.4871706962585449,0.7330298423767090,,0.0014519122268370,-0.0017459951542304,-0.0013580622234410,0.0000029372162287,-0.0000222054850087,-0.0000060440593927,0.9999999997308793,-0.0752518765232243,0.2433582691850320,-0.0002097550454990,0.0034328914887231,-0.0046353012636869,-0.0027006619738068,0.0001189234799387,0.0001547659385869,0.0005908316579198,,0.0028910345138242,-0.0023383199389853,-0.0041449240337843,0.0000373961634486,0.0003340290623401,-0.0000106710419311,0.9999999434561191,-0.0713061125007729,0.2841790525900197,-0.0007923905845583,0.0037497158627957,-0.0126193119212985,-0.0020666199270636,0.0008638525614515,0.0007067462429404,0.0000795015148469,,0.0000000000000000,0.0000000000000000,
1559013413.5204906463623047,0.7663497924804688,,0.0015799851901843,-0.0019009937513381,-0.0014623561437533,0.0000037035970952,-0.0000214918058122,0.0000036416666039,0.9999999997555620,-0.0751593170250728,0.2434415113555277,0.0009000469138455,0.0038176794366890,-0.0054519224635479,-0.0033785317545611,0.0003785556951919,-0.0001161932509791,0.0013904185548367,,0.0009705727291415,0.0016289898501757,-0.0079331041607371,0.0000413433631328,0.0003589990839138,-0.0000095545487231,0.9999999346595452,-0.0708532497001342,0.2870405726501778,-0.0006679541082759,-0.0035913039464504,0.0022433528210968,-0.0086488155648112,-0.0000468759790238,-0.0001395221770508,-0.0007117160712369,,0.0000000000000000,0.0000000000000000,
1559013413.5538108348846436,0.7996699810028076,,0.0016819332711857,-0.0020687510127375,-0.0015639323664862,0.0000041225397207,-0.0000292368661513,0.0000197868989436,0.9999999993683445,-0.0751034216709386,0.2425564262850028,0.0027513353575209,0.0035016066471778,-0.0056158808832253,-0.0038639159980428,0.0006458527251913,-0.0003815239019472,0.0013911137127845,,0.0030406504889629,0.0022882742342330,-0.0062925504181727,0.0000611729674452,0.0003626874159403,-0.0000190422897520,0.9999999321765465,-0.0685860076404653,0.2874618788989146,-0.0017548979202029,0.0040563573129475,0.0002654088311829,-0.0037910772953182,0.0001189401809825,-0.0001427652314305,-0.0001788293011487,,0.0000000000000000,0.0000000000000000,
1559013413.5871307849884033,0.8329899311065674,,0.0017922502169447,-0.0022110083676824,-0.0016663716577010,0.0000116321849171,-0.0000291244129181,0.0000235141387113,0.9999999992317731,-0.0742410589647868,0.2425698538079089,0.0031784070507987,0.0025167986500237,-0.0034555214477930,-0.0014061313342803,0.0011872512625944,0.0006950419602208,0.0000722180544292,,0.0030406504889629,0.0022882742342330,-0.0062925504181727,0.0000611729674452,0.0003626874159403,-0.0000190422897520,0.9999999321765465,-0.0685860076404653,0.2874618788989146,-0.0017548979202029,0.0040563573129475,0.0002654088311829,-0.0037910772953182,0.0001189401809825,-0.0001427652314305,-0.0001788293011487,,0.0000000000000000,0.0000000000000000,
1559013413.6204507350921631,0.8663098812103271,,0.0018307465509977,-0.0021793128611740,-0.0016541055031422,0.0000124716372072,-0.0000297108117689,0.0000258384521053,0.9999999991470503,-0.0741437308140720,0.2425030032318033,0.0034448409016980,0.0029277022190308,-0.0034108867163862,-0.0023007133566765,0.0001240333574312,0.0001585183174928,0.0000582371647338,,0.0034378551607457,0.0025472472578253,-0.0043545256517963,0.0000600555418070,0.0003908734422606,-0.0000220183470360,0.9999999215632351,-0.0687157343071086,0.2906913252913965,-0.0021000470966965,0.0047460272908211,0.0013947092229500,0.0006963039049879,-0.0011309223482385,-0.0014337574830279,0.0015923746395856,,0.0000000000000000,0.0000000000000000,
1559013413.6537706851959229,0.8996298313140869,,0.0019316247230889,-0.0022847416850498,-0.0017489122961613,0.0000123439608862,-0.0000333561837332,0.0000279908412034,0.9999999989757523,-0.0741573195693250,0.2420855973876605,0.0036920347804263,0.0032915340092784,-0.0041787929435237,-0.0029024664864092,-0.0004136805087354,0.0001528118257518,0.0005857079185455,,0.0036291435458029,0.0025966150466021,-0.0043469637549630,0.0000571760738891,0.0003901364780748,-0.0000200743580797,0.9999999220607196,-0.0690446522828446,0.2906071492304136,-0.0018773020674637,0.0051087369211018,0.0014169181231409,0.0000617773694103,-0.0004234086372890,-0.0003483407199383,-0.0010793746914715,,0.0000000000000000,0.0000000000000000,
1559013413.6870906352996826,0.9329497814178467,,0.0020112137559718,-0.0021793392415841,-0.0018731321535960,0.0000004455126511,-0.0000293058078750,0.0000322385219154,0.9999999990508245,-0.0755186958801685,0.2425504158762502,0.0041782205164823,0.0030588683585271,-0.0043702637975218,-0.0028513516855116,-0.0012110265888988,0.0004180645457328,0.0003135917814294,,0.0030493702962463,0.0032644654958341,0.0008699874413255,0.0000565348685116,0.0004011745245693,-0.0000199703200367,0.9999999177319946,-0.0691181066800932,0.2918720288214725,-0.0018670061042162,0.0025712531059980,0.0029879908543080,0.0095492219552398,0.0001241849677172,-0.0003560954646673,0.0001962994283531,,0.0000000000000000,0.0000000000000000,
1559013413.7204108238220215,0.9662699699401855,,0.0020917694555609,-0.0022801777653599,-0.0019492442070893,-0.0000086926099176,-0.0000273559116682,0.0000328662932936,0.9999999990479497,-0.0765655347315921,0.2427739866308527,0.0042498923916423,0.0038345336298548,-0.0050210805180361,-0.0045130362654874,-0.0004097003673079,-0.0009124190016938,0.0005782410885652,,0.0030493702962463,0.0032644654958341,0.0008699874413255,0.0000565348685116,0.0004011745245693,-0.0000199703200367,0.9999999177319946,-0.0691181066800932,0.2918720288214725,-0.0018670061042162,0.0025712531059980,0.0029879908543080,0.0095492219552398,0.0001241849677172,-0.0003560954646673,0.0001962994283531,,0.0000000000000000,0.0000000000000000,
1559013413.7537307739257812,0.9995899200439453,,0.0021664118435027,-0.0023609528277678,-0.0020113922451488,-0.0000038574402068,-0.0000285997722489,0.0000372260086418,0.9999999988906989,-0.0760093391372186,0.2426320934417687,0.0047496564270842,0.0036104355907964,-0.0048429218957058,-0.0027197114295346,0.0001189234778564,0.0001547659429702,0.0005908316623649,,0.0029821578802633,0.0023954715740928,-0.0033581745908973,0.0000636555501370,0.0004000566115030,-0.0000217090852176,0.9999999177156937,-0.0683030665391002,0.2917436920126553,-0.0020657681279611,0.0022860211320221,-0.0006600108463317,0.0015310561284423,-0.0004109627625439,-0.0006739070522599,-0.0001190709881485,,0.0000000000000000,0.0000000000000000,
1559013413.7870507240295410,1.0329098701477051,,0.0022577242181232,-0.0024655367682280,-0.0020868737882831,0.0000003392057655,-0.0000279655183035,0.0000419838466747,0.9999999987275858,-0.0755261119294503,0.2427054744840513,0.0052947593586294,0.0034251129546244,-0.0027591159385311,-0.0025138112178124,0.0001281481949076,0.0004285783767196,-0.0004724906065655,,0.0029821578802633,0.0023954715740928,-0.0033581745908973,0.0000636555501370,0.0004000566115030,-0.0000217090852176,0.9999999177156937,-0.0683030665391002,0.2917436920126553,-0.0020657681279611,0.0022860211320221,-0.0006600108463317,0.0015310561284423,-0.0004109627625439,-0.0006739070522599,-0.0001190709881485,,0.0000000000000000,0.0000000000000000,
1559013413.8203706741333008,1.0662298202514648,,0.0023523201229148,-0.0025064254819985,-0.0021805011900055,-0.0000041871810467,-0.0000285715694355,0.0000462584308314,0.9999999985131452,-0.0760427117706625,0.2426366960554154,0.0057847009459732,0.0038032525739402,-0.0041081164557340,-0.0039762678536981,-0.0004126854747618,-0.0001134958828519,0.0005838412148205,,0.0028483643782737,0.0054159764026453,-0.0048358352553247,0.0000756474026680,0.0004063720092715,-0.0000323465478623,0.9999999140464770,-0.0669346459473181,0.2924658971404100,-0.0032850968095539,0.0015071481466293,0.0085062691941857,-0.0014686621725559,-0.0004123515100218,-0.0004598114755936,-0.0001185764558613,,0.0000000000000000,0.0000000000000000,
1559013413.8536908626556396,1.0995500087738037,,0.0024661121459981,-0.0025931042493675,-0.0023079866168704,-0.0000056232488280,-0.0000328714856307,0.0000457196829257,0.9999999983987777,-0.0762075559685532,0.2421438882400434,0.0057236217834988,0.0038422040900430,-0.0010432890830719,-0.0045305981484946,0.0006698422021014,-0.0006309459762319,-0.0010074282000747,,0.0028483643782737,0.0054159764026453,-0.0048358352553247,0.0000756474026680,0.0004063720092715,-0.0000323465478623,0.9999999140464770,-0.0669346459473181,0.2924658971404100,-0.0032850968095539,0.0015071481466293,0.0085062691941857,-0.0014686621725559,-0.0004123515100218,-0.0004598114755936,-0.0001185764558613,,0.0000000000000000,0.0000000000000000,
1559013413.8870108127593994,1.1328699588775635,,0.0026231732488788,-0.0027067538212926,-0.0023664480296510,-0.0000120053983828,-0.0000380605533447,0.0000365755970450,0.9999999985347452,-0.0769433775646232,0.2415479043449488,0.0046765936902374,0.0039765667704746,-0.0021625952198186,-0.0043414956238654,0.0004004204030725,-0.0011682908137844,-0.0004811289990324,,0.0028483643782737,0.0054159764026453,-0.0048358352553247,0.0000756474026680,0.0004063720092715,-0.0000323465478623,0.9999999140464770,-0.0669346459473181,0.2924658971404100,-0.0032850968095539,0.0015071481466293,0.0085062691941857,-0.0014686621725559,-0.0004123515100218,-0.0004598114755936,-0.0001185764558613,,0.0000000000000000,0.0000000000000000,
1559013413.9203307628631592,1.1661899089813232,,0.0027930086997199,-0.0028524844995225,-0.0025070608858755,-0.0000318447512882,-0.0000445667476067,0.0000335908658061,0.9999999979356854,-0.0792182753177003,0.2408019713550523,0.0043356594603230,0.0039917635727651,-0.0044410996197296,-0.0035251845768374,-0.0004152404127198,-0.0001153720584666,0.0008501384552930,,0.0054303640759792,0.0028405871846140,-0.0015512931906976,0.0000727297327581,0.0004122941432348,-0.0000389757507913,0.9999999116024042,-0.0672725866643876,0.2931435651078277,-0.0040457387794924,0.0105438055470586,-0.0008907766314223,0.0042810388840735,0.0001138636871474,-0.0001375615538564,-0.0004429370164871,,0.0000000000000000,0.0000000000000000,
1559013413.9536507129669189,1.1995098590850830,,0.0028501622612078,-0.0025863609428307,-0.0026590510457875,-0.0000327823149190,-0.0000315405358082,0.0000432160866859,0.9999999980314421,-0.0793209714350271,0.2422961583744916,0.0054366244534732,0.0032043694720038,-0.0039323307827066,-0.0024483756670468,0.0003786903908324,0.0012190976507627,0.0008671576063419,,0.0042457708010142,0.0032688893773403,-0.0056604679087909,0.0000648888487885,0.0004357793942480,-0.0000388127972930,0.9999999021896570,-0.0681711214985140,0.2958347627029305,-0.0040308126094763,0.0040785656310618,0.0004996526986361,-0.0031115380115807,-0.0004219063557684,-0.0014084292342886,-0.0011841928353533,,0.0000000000000000,0.0000000000000000,
1559013413.9869606494903564,1.2328197956085205,,0.0029827907801403,-0.0027245460821554,-0.0028122869468310,-0.0000323757092074,-0.0000297625231014,0.0000530460298581,0.9999999976260623,-0.0792695691351469,0.2425014234277766,0.0065627852536646,0.0032344509530942,-0.0039601592175136,-0.0046543066186518,-0.0004122553091658,-0.0009142951706437,0.0008445383376310,,0.0016163225134831,0.0018428269025782,0.0076378858718637,0.0000685984619212,0.0004543867289951,-0.0000311516418720,0.9999998939282577,-0.0677419600665057,0.2979681196768502,-0.0031553800325751,-0.0052592363208532,-0.0075239953584969,0.0202106647193432,0.0005249262321740,0.0007250083726831,-0.0012422207510099,,0.0000000000000000,0.0000000000000000,
1559013414.0202808380126953,1.2661399841308594,,0.0030262409297825,-0.0030154709256503,-0.0025427742608765,-0.0000318056603649,-0.0000334043290232,0.0000525104307245,0.9999999975576028,-0.0792045274834207,0.2420840172313764,0.0065019713080006,0.0020788472050177,-0.0017109488658799,-0.0016763222651583,0.0001236031814747,0.0009593176277613,-0.0002024599355017,,0.0016163225134831,0.0018428269025782,0.0076378858718637,0.0000685984619212,0.0004543867289951,-0.0000311516418720,0.9999998939282577,-0.0677419600665057,0.2979681196768502,-0.0031553800325751,-0.0052592363208532,-0.0075239953584969,0.0202106647193432,0.0005249262321740,0.0007250083726831,-0.0012422207510099,,0.0000000000000000,0.0000000000000000,
1559013414.0536007881164551,1.2994599342346191,,0.0031397356197316,-0.0030994074433507,-0.0026677500231346,-0.0000303156914576,-0.0000319771615254,0.0000561915896565,0.9999999974504626,-0.0790319849896804,0.2422481185340168,0.0069235781114157,0.0043346039415230,-0.0026324999918654,-0.0055120727930465,0.0001254585624668,-0.0009085887137991,0.0003170675644762,,-0.0003862388438266,0.0013193463922199,-0.0052756966752279,0.0000762091679498,0.0004512275026457,-0.0000531757478453,0.9999998938791161,-0.0668817920699509,0.2976029888637595,-0.0056783421457382,-0.0093114748597145,-0.0073452508077025,-0.0049650780856609,0.0013335975818336,0.0000820299610496,-0.0005578060518019,,0.0000000000000000,0.0000000000000000,
1559013414.0869207382202148,1.3327798843383789,,0.0032495470026237,-0.0030474810798047,-0.0027468597168248,-0.0000268148749862,-0.0000305299190570,0.0000585531610988,0.9999999974602071,-0.0786296594281012,0.2424143017198583,0.0071939604934937,0.0040967915117893,-0.0020833459862114,-0.0034975747827102,-0.0001387186626974,-0.0001068902820773,-0.0002124886621126,,-0.0003862388438266,0.0013193463922199,-0.0052756966752279,0.0000762091679498,0.0004512275026457,-0.0000531757478453,0.9999998938791161,-0.0668817920699509,0.2976029888637595,-0.0056783421457382,-0.0093114748597145,-0.0073452508077025,-0.0049650780856609,0.0013335975818336,0.0000820299610496,-0.0005578060518019,,0.0000000000000000,0.0000000000000000,
1559013414.1202406883239746,1.3660998344421387,,0.0033698824341191,-0.0031284755659184,-0.0028444101566734,-0.0000329280109609,-0.0000355136935508,0.0000579663248121,0.9999999971472145,-0.0793304895308346,0.2418431539058319,0.0071275067324545,0.0039223680241196,-0.0019491816163819,-0.0037033780086446,-0.0006632276701034,-0.0009040151515741,-0.0007558070174812,,-0.0005695107067441,0.0011753494670631,-0.0053720416089590,0.0000732402329876,0.0004666305450950,-0.0000575712412892,0.9999998867886710,-0.0672245097017332,0.2993674002054934,-0.0061843887103450,-0.0087402760982513,-0.0075568733736873,-0.0051086759194732,-0.0005755241727456,0.0005565957981162,0.0000478677466162,,0.0000000000000000,0.0000000000000000,
1559013414.1535606384277344,1.3994197845458984,,0.0035564772215850,-0.0034283131511683,-0.0028627857807056,-0.0000333163602228,-0.0000279717849160,0.0000469647504408,0.9999999979509558,-0.0793803215114631,0.2427056902111251,0.0058656420947178,0.0033690681437693,-0.0030289505467608,-0.0027704990535232,-0.0004060156955796,0.0001584403710708,-0.0002131838233378,,0.0035230117021185,0.0021938862564966,-0.0040046243308008,0.0000705349383292,0.0004690094979908,-0.0000581311944499,0.9999998858378323,-0.0675348372988754,0.2996399097588268,-0.0062490406365869,0.0058614695444703,-0.0035566396545619,-0.0021732577588409,0.0005393943283707,0.0012497255811468,0.0000916209100978,,0.0000000000000000,0.0000000000000000,
1559013414.1868808269500732,1.4327399730682373,,0.0036564792992557,-0.0035100786676940,-0.0029627434783284,-0.0000314239066677,-0.0000235556425449,0.0000445138462096,0.9999999982380936,-0.0791646402622125,0.2432113529746396,0.0055840975325608,0.0031444779659260,-0.0021430227234941,-0.0031650521362040,-0.0006691978799141,0.0006938310971592,-0.0007446067620615,,0.0054194410451250,0.0039221283223847,-0.0059444888312575,0.0000707223501789,0.0004701856227759,-0.0000471678987493,0.9999998858495028,-0.0675073877342590,0.2997762539914523,-0.0049928816865142,0.0113711925223470,0.0025506995152682,-0.0051999506540596,-0.0004708282649517,0.0001321081072092,-0.0002189685619669,,0.0000000000000000,0.0000000000000000,
1559013414.2202007770538330,1.4660599231719971,,0.0037411973315216,-0.0033301597948011,-0.0030227575083851,-0.0000346580678879,-0.0000201624221351,0.0000508467541505,0.9999999979034513,-0.0795321326803886,0.2436011857507196,0.0063092836394529,0.0029152945101140,-0.0026067750879381,-0.0042996314679243,-0.0004055855213617,-0.0006423589327062,0.0000475132891971,,0.0017337937437958,0.0027914976925686,-0.0073980466569868,0.0000657147087486,0.0004684735527028,-0.0000318904734004,0.9999998875985463,-0.0680728783992629,0.2995822330364225,-0.0032422190918197,-0.0032952094916254,-0.0025957324542105,-0.0077453418634832,-0.0003198916092515,-0.0001808123633964,-0.0010700231650844,,0.0000000000000000,0.0000000000000000,
1559013414.2535207271575928,1.4993798732757568,,0.0038226040755549,-0.0034190641502365,-0.0031249103080528,-0.0000474930369492,-0.0000265449167389,0.0000555233910873,0.9999999969784660,-0.0810006587479421,0.2428706134309650,0.0068462199006869,0.0027902305835776,-0.0034625463692828,-0.0026463108167090,-0.0009478444039803,-0.0001173261823499,0.0008450147186688,,0.0017337937437958,0.0027914976925686,-0.0073980466569868,0.0000657147087486,0.0004684735527028,-0.0000318904734004,0.9999998875985463,-0.0680728783992629,0.2995822330364225,-0.0032422190918197,-0.0032952094916254,-0.0025957324542105,-0.0077453418634832,-0.0003198916092515,-0.0001808123633964,-0.0010700231650844,,0.0000000000000000,0.0000000000000000,
1559013414.2868406772613525,1.5326998233795166,,0.0039164125036282,-0.0034692964495478,-0.0030735131848534,-0.0000617153523457,-0.0000235837124258,0.0000609257321378,0.9999999959615394,-0.0826277565819328,0.2432108872491616,0.0074648622765074,0.0033133180045607,-0.0017521591900448,-0.0033683822845334,-0.0006774275691456,0.0001537109474358,0.0003168488079757,,0.0001515348646201,0.0012294817827928,-0.0051123345942179,0.0000495634790215,0.0004787440758719,-0.0000295359639095,0.9999998837375924,-0.0699224355375030,0.3007594300014954,-0.0029747703706644,-0.0074289659969509,-0.0072463871911168,-0.0031776153482497,0.0000637078628642,-0.0005068728933111,-0.0000599529594183,,0.0000000000000000,0.0000000000000000,
1559013414.3201606273651123,1.5660197734832764,,0.0040331452015179,-0.0035086895262171,-0.0032528843567717,-0.0000715476821442,-0.0000295421122871,0.0000631093143327,0.9999999950127038,-0.0837534294893214,0.2425285221265896,0.0077160600848306,0.0030916681492093,-0.0016110357409449,-0.0060633506776240,-0.0006779924349677,-0.0003807806571697,0.0005794126285554,,0.0033008006095580,0.0011785803558295,0.0061231132623880,0.0000425381149729,0.0005060812556475,-0.0000255228093975,0.9999998707104205,-0.0707253920346598,0.3038926008353187,-0.0025192764290060,0.0057506039738655,-0.0057758740149438,0.0190748348832130,-0.0001634397485759,0.0007278783014044,-0.0009080261806957,,0.0000000000000000,0.0000000000000000,
1559013414.3534808158874512,1.5993399620056152,,0.0041107083214096,-0.0034975885840904,-0.0033536849181247,-0.0000910702338804,-0.0000299070278346,0.0000644356233947,0.9999999933299163,-0.0859899034686221,0.2424870614598598,0.0078681699614117,0.0023765933907490,-0.0007801501670873,-0.0032949945055217,-0.0006691978870739,0.0006938310869482,-0.0007446067526975,,0.0034192999153591,0.0010579430106152,0.0064953994279523,0.0000345271351897,0.0005111463805106,-0.0000263829984575,0.9999998684205874,-0.0716438772364495,0.3044728703048402,-0.0026190585096938,0.0061334241181612,-0.0059950468130410,0.0181544125080109,-0.0012176220770925,0.0004556177300401,-0.0002580562722869,,0.0000000000000000,0.0000000000000000,
1559013414.3868007659912109,1.6326599121093750,,0.0042134651521102,-0.0036008545643828,-0.0034827055486218,-0.0000992388311077,-0.0000327702619047,0.0000641231439704,0.9999999924829935,-0.0869261273320011,0.2421589689172550,0.0078328553055674,0.0022085285079320,-0.0029833701346991,-0.0006226820896123,-0.0004080057733924,0.0006910557852179,-0.0002094503893832,,0.0057367386720548,0.0016183337584161,0.0098573301577264,0.0000261658727469,0.0004975904176237,-0.0000332114235218,0.9999998753080546,-0.0726057057987067,0.3029184345740711,-0.0034000292129137,0.0127253644168377,-0.0035268568899482,0.0208079684525728,-0.0005384065443650,-0.0007062302902341,-0.0015981659526005,,0.0000000000000000,0.0000000000000000,
1559013414.4201207160949707,1.6659798622131348,,0.0042530015237563,-0.0036158446597664,-0.0032334226991003,-0.0000970036101014,-0.0000319665038675,0.0000597789261476,0.9999999929974611,-0.0866721052522030,0.2422503515300320,0.0073349019002521,0.0020569585559987,-0.0035324134394426,-0.0020740874097212,-0.0006789874748389,-0.0001144729427115,0.0005812793459796,,0.0021895927776940,0.0029798482027788,-0.0017919951850399,0.0000030791525065,0.0005051542388313,-0.0000423319240284,0.9999998715088527,-0.0752563039453160,0.3037837185136449,-0.0044476326101652,-0.0012074953410774,0.0004014892037958,0.0003388677432667,0.0008526051533408,0.0004610072937794,-0.0004364303313196,,0.0000000000000000,0.0000000000000000,
1559013414.4534406661987305,1.6992998123168945,,0.0043344941559960,-0.0037351096403397,-0.0033713791804929,-0.0001049329597793,-0.0000413397453616,0.0000739805886432,0.9999999909034860,-0.0875738818951984,0.2411786293377170,0.0089638634252416,0.0030165505296710,-0.0036536723748453,-0.0071778215032898,-0.0004108301080608,-0.0019814022253917,0.0011033687271851,,0.0021895927776940,0.0029798482027788,-0.0017919951850399,0.0000030791525065,0.0005051542388313,-0.0000423319240284,0.9999998715088527,-0.0752563039453160,0.3037837185136449,-0.0044476326101652,-0.0012074953410774,0.0004014892037958,0.0003388677432667,0.0008526051533408,0.0004610072937794,-0.0004364303313196,,0.0000000000000000,0.0000000000000000,
1559013414.4867608547210693,1.7326200008392334,,0.0043874320200832,-0.0035747884958643,-0.0035180605002043,-0.0001037751944346,-0.0000503643440832,0.0000821208651906,0.9999999899751528,-0.0874373254278027,0.2401458044795533,0.0098981431286113,0.0023906291778968,-0.0034115335762326,-0.0047152364965867,0.0003872155361324,-0.0003768724431752,0.0005896600999425,,-0.0014186147277336,0.0028985353920135,-0.0137229153900472,-0.0000057996978002,0.0005104819711338,-0.0000229059692081,0.9999998694249101,-0.0762630878852232,0.3043971376825290,-0.0022228761208905,-0.0113122472539544,-0.0013487567193806,-0.0224984772503376,0.0019746769685298,0.0005661716568284,0.0000881503365235,,0.0000000000000000,0.0000000000000000,
1559013414.5200808048248291,1.7659399509429932,,0.0044949543280604,-0.0036863818059187,-0.0036450024953185,-0.0001008661700590,-0.0000535644106532,0.0000790983915509,0.9999999903501572,-0.0871054718017730,0.2397785852267540,0.0095522942226619,0.0040422723754306,-0.0030709838109862,-0.0022509438032204,0.0001291432130294,0.0001622706527407,-0.0004743573264771,,-0.0014186147277336,0.0028985353920135,-0.0137229153900472,-0.0000057996978002,0.0005104819711338,-0.0000229059692081,0.9999998694249101,-0.0762630878852232,0.3043971376825290,-0.0022228761208905,-0.0113122472539544,-0.0013487567193806,-0.0224984772503376,0.0019746769685298,0.0005661716568284,0.0000881503365235,,0.0000000000000000,0.0000000000000000,
1559013414.5534007549285889,1.7992599010467529,,0.0046385440691170,-0.0036755572929493,-0.0034662678934356,-0.0000976101346786,-0.0000383976558419,0.0000693744664906,0.9999999920925327,-0.0867369703356122,0.2415149579857457,0.0084355244844403,0.0047827941394577,-0.0041958197418619,-0.0007195221865966,-0.0004166656356689,0.0009517349320025,0.0005913080431623,,0.0019871844674433,0.0011427158324406,0.0014052757964757,0.0000145126597581,0.0004981842610422,-0.0000104171448080,0.9999998757466462,-0.0739285600851628,0.3029898472145832,-0.0007887165253009,0.0037218257784843,-0.0071086878888309,0.0082138963043690,0.0013264474691823,-0.0008638858562335,-0.0011839268263429,,0.0000000000000000,0.0000000000000000,
1559013414.5867207050323486,1.8325798511505127,,0.0048178566980372,-0.0037900241976664,-0.0035094850393788,-0.0001082089328868,-0.0000202996542347,0.0000723863665036,0.9999999913194825,-0.0879498972554004,0.2435894108631435,0.0087777529789102,0.0055685295641384,-0.0038523894521529,-0.0028211831961149,-0.0004146755653394,0.0004191195130805,0.0005875746158841,,0.0021569559694145,0.0008463975722888,0.0017737355212673,0.0000397605860765,0.0004972441031336,-0.0000275520140034,0.9999998752041344,-0.0710447551230397,0.3028796325554119,-0.0027506743039883,0.0050291824154556,-0.0075368159450591,0.0100390929728746,0.0008411775343120,0.0002563290181570,-0.0013905941741541,,0.0000000000000000,0.0000000000000000,
1559013414.6200406551361084,1.8658998012542725,,0.0050525719275198,-0.0038541166828726,-0.0032278609383525,-0.0001067846263850,-0.0000108838764537,0.0000794689734029,0.9999999910816336,-0.0877831375826068,0.2446695234239144,0.0095878252704316,0.0046232304464015,-0.0044015736745714,-0.0038305538422915,-0.0001499334735633,0.0001519126795023,0.0008545670178030,,0.0048156837642820,0.0062237242223286,0.0038197723035811,0.0000351297156098,0.0005140273588113,-0.0000062339267155,0.9999998672514491,-0.0715637410734696,0.3048059729383173,-0.0003105032281870,0.0113962255418301,0.0109010646119714,0.0102634755894542,0.0009090397506952,-0.0008152950322255,-0.0005353579181246,,0.0000000000000000,0.0000000000000000,
1559013414.6533608436584473,1.8992199897766113,,0.0051806294226091,-0.0039628804285817,-0.0033391225672950,-0.0001049208735132,-0.0000125208239340,0.0000823233459735,0.9999999910288531,-0.0875681812259432,0.2444823918648914,0.0099151796354314,0.0037950828429602,-0.0032687981509471,-0.0036105663509453,0.0001285783430200,-0.0003722209689282,-0.0002117935035020,,0.0052291259185608,0.0066394057520543,0.0041492087002540,0.0000389100275542,0.0005036717400379,-0.0000269764555915,0.9999998720365213,-0.0711419311843265,0.3036162666879023,-0.0026857110020908,0.0098902173340321,0.0114108640700579,0.0103509873151779,0.0004561709356494,0.0000499343514093,-0.0024497949052602,,0.0000000000000000,0.0000000000000000,
1559013414.6866807937622070,1.9325399398803711,,0.0053402075979934,-0.0044891295532527,-0.0032395283486359,-0.0000979149269171,-0.0000183476809389,0.0000746222138792,0.9999999922537774,-0.0867691813543137,0.2438133678005336,0.0090336236063169,0.0043211748889824,-0.0043657128532190,-0.0031384640972774,0.0001209135283498,-0.0003778495167589,0.0005870982284114,,0.0052291259185608,0.0066394057520543,0.0041492087002540,0.0000389100275542,0.0005036717400379,-0.0000269764555915,0.9999998720365213,-0.0711419311843265,0.3036162666879023,-0.0026857110020908,0.0098902173340321,0.0114108640700579,0.0103509873151779,0.0004561709356494,0.0000499343514093,-0.0024497949052602,,0.0000000000000000,0.0000000000000000,
1559013414.7200007438659668,1.9658598899841309,,0.0055079155389812,-0.0046111389401258,-0.0033349947222835,-0.0000997629137918,-0.0000135838133883,0.0000769532222366,0.9999999919705214,-0.0869797647566478,0.2443596609227008,0.0092999692343156,0.0052862399453159,-0.0044291400808847,-0.0026506782446927,-0.0004182255159602,0.0006835510094563,0.0008557385465179,,0.0054295035858299,0.0068616271978034,0.0043620796852453,0.0000433773458014,0.0005486319143521,-0.0000403310463635,0.9999998477474060,-0.0706375943312313,0.3087663808869311,-0.0042223720328507,0.0098042385652661,0.0111819142475724,0.0111134964972734,0.0008505390142091,-0.0015528250951320,-0.0011219085427001,,0.0000000000000000,0.0000000000000000,
1559013414.7533206939697266,1.9991798400878906,,0.0057103562948744,-0.0045403462209419,-0.0033603463797095,-0.0001043376170440,-0.0000083370132455,0.0000870203767773,0.9999999907358050,-0.0874990027218784,0.2449625810866133,0.0104527411035437,0.0054320883409655,-0.0042368966404113,-0.0020325443432954,-0.0004176606493483,0.0012180426075999,0.0005931747218482,,0.0054295035858299,0.0068616271978034,0.0043620796852453,0.0000433773458014,0.0005486319143521,-0.0000403310463635,0.9999998477474060,-0.0706375943312313,0.3087663808869311,-0.0042223720328507,0.0098042385652661,0.0111819142475724,0.0111134964972734,0.0008505390142091,-0.0015528250951320,-0.0011219085427001,,0.0000000000000000,0.0000000000000000,
1559013414.7866406440734863,2.0324997901916504,,0.0059328388178932,-0.0046584627340996,-0.0034748438191969,-0.0000970912588052,0.0000016225740122,0.0000775862278125,0.9999999922755161,-0.0866731806764430,0.2461022619325432,0.0093700359794548,0.0052643960345495,-0.0021426353365716,-0.0025669052971365,0.0006684169926977,0.0004361609917176,-0.0012662586228574,,0.0052264772958771,-0.0026613178782102,-0.0045826045094389,0.0000475461241026,0.0005503896550055,-0.0000303206917289,0.9999998469456131,-0.0701543412170739,0.3089692817089975,-0.0030752484778133,0.0105025302618742,-0.0202286429703236,-0.0065599353983998,-0.0001585589197930,0.0001465858949814,-0.0005223532207310,,0.0000000000000000,0.0000000000000000,
1559013414.8199608325958252,2.0658199787139893,,0.0060148146558876,-0.0042555273541812,-0.0030954127971640,-0.0000784386344134,0.0000048172686067,0.0000652747104130,0.9999999947816934,-0.0845417831427640,0.2464662098385048,0.0079587206072645,0.0055416921743843,-0.0025323496535272,-0.0033222159015447,0.0009310343154444,-0.0006337213303811,-0.0004722718619482,,0.0035853931829597,0.0016109033633505,0.0015901379357438,0.0000526102442627,0.0005726425298447,-0.0000379765869908,0.9999998339352233,-0.0695783964641965,0.3115181782101862,-0.0039554728880048,0.0037116021849215,-0.0034948575776070,0.0057091480121017,0.0006449705688283,0.0007822083425708,0.0002719526237343,,0.0000000000000000,0.0000000000000000,
1559013414.8532807826995850,2.0991399288177490,,0.0062017804558112,-0.0043611052797346,-0.0031834548134114,-0.0000742498096655,0.0000042554262157,0.0000676349570083,0.9999999949471851,-0.0840606209980509,0.2464021729050813,0.0082292792189728,0.0052914725141136,-0.0029338919226837,-0.0028095161865499,0.0001199184782963,-0.0001115418495442,0.0005889649482641,,0.0036582012536206,0.0015372752793970,0.0017047953600440,0.0000530216236406,0.0005718597671890,-0.0000425448239226,0.9999998341775123,-0.0695337977209180,0.3114278190732913,-0.0044788209026269,0.0037568658590317,-0.0037340580020100,0.0056737796403468,0.0001663342845859,-0.0007586639258079,-0.0003108157834504,,0.0000000000000000,0.0000000000000000,
1559013414.8865907192230225,2.1324498653411865,,0.0062741792327785,-0.0044620562487358,-0.0032544017959413,-0.0000777381860843,0.0000057881847440,0.0000741867319086,0.9999999942098001,-0.0844571219548759,0.2465788893017942,0.0089798165402315,0.0040881956830776,-0.0023367637399615,-0.0023943009210848,-0.0001458186492856,0.0004219726918008,0.0003238392559958,,0.0036582012536206,0.0015372752793970,0.0017047953600440,0.0000530216236406,0.0005718597671890,-0.0000425448239226,0.9999998341775123,-0.0695337977209180,0.3114278190732913,-0.0044788209026269,0.0037568658590317,-0.0037340580020100,0.0056737796403468,0.0001663342845859,-0.0007586639258079,-0.0003108157834504,,0.0000000000000000,0.0000000000000000,
1559013414.9199106693267822,2.1657698154449463,,0.0064376123737309,-0.0045848143740323,-0.0033637935767263,-0.0000953484522630,0.0000101897042779,0.0000811902569367,0.9999999921064924,-0.0864716227668361,0.2470845501884729,0.0097816430055308,0.0041657950906760,-0.0023949105552883,-0.0026904853646999,-0.0014661138293274,0.0001582844319817,-0.0007560257731452,,0.0037245920093585,0.0014593189274381,0.0018194195298815,0.0000452053608667,0.0005873934933458,-0.0000412583801236,0.9999998256115376,-0.0704288468814915,0.3132080009324146,-0.0043341840155431,0.0031235220376402,-0.0038933986797929,0.0055238688364625,0.0007684917072766,-0.0006610307609662,0.0011769605334848,,0.0000000000000000,0.0000000000000000,
1559013414.9532308578491211,2.1990900039672852,,0.0065263952586765,-0.0047246618570151,-0.0029277713953454,-0.0000981622846289,0.0000091859958770,0.0000839961640868,0.9999999916122140,-0.0867926898552697,0.2469700154742157,0.0101033385661149,0.0041618826399886,-0.0038553757002172,-0.0019148338720830,0.0001214783829412,0.0001566420423326,0.0003245344083305,,0.0017819703080484,0.0027485697378166,0.0002144086046948,0.0000582800221329,0.0005613600279983,-0.0000004010503061,0.9999998407390859,-0.0689077309125702,0.3102307548704150,0.0003524282589109,-0.0039354576729238,0.0009255666518584,0.0008877887739800,-0.0007359915180132,0.0003025436890312,0.0002885470166802,,0.0000000000000000,0.0000000000000000,
1559013414.9865508079528809,2.2324099540710449,,0.0067452304116364,-0.0048703820890470,-0.0030301048365540,-0.0000959881078061,0.0000121242110165,0.0000812897679449,0.9999999920156303,-0.0865448561697784,0.2473062501889961,0.0097927318990535,0.0048083736955769,-0.0025385037103302,-0.0012769430399849,0.0001226081228574,0.0012256251996474,-0.0002005932559509,,0.0029704976370324,0.0010159144944673,-0.0068657866970963,0.0000582245274008,0.0005601235302483,0.0000018985634455,0.9999998414339528,-0.0689128105575490,0.3100893950405605,0.0006161232992979,0.0019557164050639,-0.0059154736809433,-0.0117896087467670,-0.0002207496145274,0.0013766620540991,-0.0006734695052728,,0.0000000000000000,0.0000000000000000,
1559013415.0198707580566406,2.2657299041748047,,0.0068368896855615,-0.0044634987468932,-0.0030863654150033,-0.0000922136642482,0.0000144820691169,0.0000875389456490,0.9999999918119215,-0.0861092325132799,0.2475774156121211,0.0105084650145693,0.0060952113890957,-0.0026707288865825,-0.0035705393073804,0.0006550774138270,-0.0001077115908092,0.0003277914189350,,0.0028302361133023,0.0011308112806345,-0.0055005617195409,0.0000614221750839,0.0005673859537669,0.0000062026473458,0.9999998371309983,-0.0685439934837356,0.3109222268541514,0.0011085002659068,0.0022205500863492,-0.0049788719043136,-0.0089428108185530,-0.0010673586511984,-0.0010183617705479,-0.0010928818956017,,0.0000000000000000,0.0000000000000000,
1559013415.0531907081604004,2.2990498542785645,,0.0070380257085891,-0.0045969722123130,-0.0031970062609931,-0.0000974472820542,0.0000145149890799,0.0000958253144815,0.9999999905554259,-0.0867048713276841,0.2475825848864131,0.0114580067540119,0.0052229620870917,-0.0030948760545402,-0.0024195786385200,0.0001265882287962,0.0001603943724853,-0.0002080600767294,,0.0028302361133023,0.0011308112806345,-0.0055005617195409,0.0000614221750839,0.0005673859537669,0.0000062026473458,0.9999998371309983,-0.0685439934837356,0.3109222268541514,0.0011085002659068,0.0022205500863492,-0.0049788719043136,-0.0089428108185530,-0.0010673586511984,-0.0010183617705479,-0.0010928818956017,,0.0000000000000000,0.0000000000000000,
1559013415.0865106582641602,2.3323698043823242,,0.0071963545093703,-0.0045979870150480,-0.0032035640466552,-0.0000931361971418,0.0000154023442215,0.0000834732385888,0.9999999920603176,-0.0862169452548966,0.2476822228514308,0.0100424150069273,0.0049246562763745,-0.0019036889285438,-0.0026722683221556,-0.0003963608733095,-0.0003685466088146,-0.0010158089631411,,0.0028766087913366,0.0010297415697562,-0.0056836033403937,0.0000569626382634,0.0005607710527644,0.0000032872704970,0.9999998411401264,-0.0690566409579077,0.3101637966448825,0.0007750849285141,0.0025603268295527,-0.0052084838971496,-0.0091717131435871,-0.0000992011046037,0.0009429195779376,0.0003931522369385,,0.0000000000000000,0.0000000000000000,
1559013415.1198308467864990,2.3656899929046631,,0.0073405687606154,-0.0046934692404171,-0.0032785927348784,-0.0001026084415054,0.0000150827856096,0.0000828856600299,0.9999999911869925,-0.0873026774177455,0.2476455990648944,0.0099751180953526,0.0048832488216359,-0.0020054073894242,-0.0025253247019318,-0.0001371588318899,0.0001612935030436,-0.0004769192052824,,0.0029519888838059,0.0008384119710609,-0.0059934795015772,0.0000581090590179,0.0005500910080263,-0.0000013667004831,0.9999998470106645,-0.0689278484126669,0.3089392815590514,0.0002433889468124,0.0020987750031054,-0.0055223274976015,-0.0086310729384422,-0.0007987834396772,0.0002558300329838,-0.0004012739227619,,0.0000000000000000,0.0000000000000000,
1559013415.1531507968902588,2.3990099430084229,,0.0075250632173667,-0.0045936558273356,-0.0033448197185767,-0.0001038530417454,0.0000204941715935,0.0000892394055697,0.9999999904154316,-0.0874421106006456,0.2482667449869600,0.0107023256275318,0.0047773702118103,-0.0020674766318987,-0.0031221678116526,0.0001240332858570,0.0001585181946218,0.0000582371502584,,0.0046368757536828,0.0024083626879825,-0.0023725760559474,0.0000458798311537,0.0005587346913442,0.0000202892320099,0.9999998426494540,-0.0703171895108751,0.3099329308591345,0.0027229777647251,0.0063844979740679,-0.0001243474544026,-0.0025399073492736,-0.0001940629445016,0.0010972442105412,0.0014111992204562,,0.0000000000000000,0.0000000000000000,
1559013415.1864707469940186,2.4323298931121826,,0.0077024840716220,-0.0046829268509795,-0.0034689255427106,-0.0001129954563960,0.0000125438642337,0.0000900765123443,0.9999999894804502,-0.0884894169780299,0.2473559385805404,0.0107995342990997,0.0046846926038371,-0.0006529745094542,-0.0027804770627703,0.0001362430938237,-0.0003665924876868,-0.0010106852451509,,0.0046368757536828,0.0024083626879825,-0.0023725760559474,0.0000458798311537,0.0005587346913442,0.0000202892320099,0.9999998426494540,-0.0703171895108751,0.3099329308591345,0.0027229777647251,0.0063844979740679,-0.0001243474544026,-0.0025399073492736,-0.0001940629445016,0.0010972442105412,0.0014111992204562,,0.0000000000000000,0.0000000000000000,
1559013415.2197906970977783,2.4656498432159424,,0.0077629992335315,-0.0046178996148854,-0.0033518483635363,-0.0001204717807062,0.0000122340896971,0.0000888373380840,0.9999999887224024,-0.0893467548732433,0.2473203139006530,0.0106575744330608,0.0042708516315116,-0.0029614660398688,-0.0010327338544362,-0.0001442587964867,0.0006901565561404,0.0000594087017377,,0.0036304880783306,0.0051519430538680,-0.0003610028637882,0.0000409396240160,0.0005788687692688,0.0000372948730190,0.9999998309219795,-0.0708737745339409,0.3122426262887678,0.0046684425669311,0.0018805343424901,0.0090315490961075,0.0019654412753880,-0.0017144266748801,0.0002639917656779,-0.0012922289315611,,0.0000000000000000,0.0000000000000000,
1559013415.2531106472015381,2.4989697933197021,,0.0079396233595017,-0.0047130443881759,-0.0034262678841648,-0.0001156370493620,0.0000197086200406,0.0000899181860115,0.9999999890771815,-0.0887921306185612,0.2481769595138220,0.0107802100337462,0.0054665071119303,-0.0029291117829174,-0.0032763507887451,0.0001214783180551,0.0001566420096837,0.0003245343930012,,0.0024800863660486,0.0033513649754405,0.0010116650675939,0.0000366415274969,0.0005791132241942,0.0000401312039316,0.9999998308373650,-0.0713647175366044,0.3122710734938550,0.0049931456007309,-0.0014716660371050,0.0013657244853675,0.0051734177395701,-0.0005957818357274,0.0004247363540344,-0.0011405874975026,,0.0000000000000000,0.0000000000000000,
1559013415.2864308357238770,2.5322899818420410,,0.0081439690218288,-0.0046622253195057,-0.0033539220539966,-0.0001149982900571,0.0000181494754911,0.0000800662040379,0.9999999900176963,-0.0887238152013433,0.2479966699774405,0.0096515041997033,0.0066651266391403,-0.0013322316605814,-0.0050159214791667,-0.0003979208100214,-0.0006367304967727,-0.0007513784470323,,0.0024800863660486,0.0033513649754405,0.0010116650675939,0.0000366415274969,0.0005791132241942,0.0000401312039316,0.9999998308373650,-0.0713647175366044,0.3122710734938550,0.0049931456007309,-0.0014716660371050,0.0013657244853675,0.0051734177395701,-0.0005957818357274,0.0004247363540344,-0.0011405874975026,,0.0000000000000000,0.0000000000000000,
1559013415.3197507858276367,2.5656099319458008,,0.0083433817969427,-0.0047555871149648,-0.0034684736060671,-0.0001128637489164,0.0000282777413393,0.0000831489861549,0.9999999897741949,-0.0884776028566330,0.2491577686303509,0.0100031111525903,0.0054425763792237,-0.0022125072691369,-0.0031409827909038,0.0003918951413074,0.0004276791200334,-0.0002036315115238,,-0.0004187368762987,0.0000351582624904,-0.0101975856681350,0.0000339133369935,0.0005851228979050,0.0000428547801781,0.9999998273222590,-0.0716758011117047,0.3129601442598663,0.0053041828621122,-0.0091990232467651,-0.0111310230568051,-0.0174473952502012,-0.0002537416294217,0.0002517852990422,0.0007231563213281,,0.0000000000000000,0.0000000000000000,
1559013415.3530707359313965,2.5989298820495605,,0.0084223060989104,-0.0048388994218134,-0.0031744177783414,-0.0000972720439685,0.0000264320569018,0.0000815851412021,0.9999999915916803,-0.0866917150308543,0.2489458667850192,0.0098242563814496,0.0050069714122579,-0.0020991979151544,-0.0021659943642472,0.0006581971355011,0.0004286561768320,-0.0002010696439253,,-0.0004187368762987,0.0000351582624904,-0.0101975856681350,0.0000339133369935,0.0005851228979050,0.0000428547801781,0.9999998273222590,-0.0716758011117047,0.3129601442598663,0.0053041828621122,-0.0091990232467651,-0.0111310230568051,-0.0174473952502012,-0.0002537416294217,0.0002517852990422,0.0007231563213281,,0.0000000000000000,0.0000000000000000,
1559013415.3863906860351562,2.6322498321533203,,0.0085970251950398,-0.0049278350929704,-0.0033019584985327,-0.0001007260641152,0.0000154122718139,0.0000849918177042,0.9999999911965565,-0.0870859303408968,0.2476836800161601,0.0102164176932165,0.0054251566523178,-0.0020567158455884,-0.0030279744870356,-0.0004070108392735,0.0004247479075362,-0.0002113171295766,,-0.0014185691403290,-0.0004501569395737,-0.0120030723032950,0.0000434684384757,0.0005856383472689,0.0000345169022151,0.9999998269733873,-0.0705855220237378,0.3130179456839972,0.0043492845201148,-0.0107360417023301,-0.0110346311703324,-0.0169592592865229,-0.0017026001587510,0.0004706384497695,-0.0002738574403338,,0.0000000000000000,0.0000000000000000,
1559013415.4197106361389160,2.6655697822570801,,0.0086559107251765,-0.0049095239243371,-0.0035070896215786,-0.0001068831724182,0.0000224725212180,0.0000831445157665,0.9999999905789814,-0.0877923325893460,0.2484924823976145,0.0100035665531938,0.0054587862303955,-0.0013030902854933,-0.0038885136258654,-0.0006682029570204,0.0004275232159580,-0.0007464734851173,,0.0034025515714207,0.0019694676577049,0.0014925504697577,0.0000218994381274,0.0006415251941719,0.0000333035632454,0.9999997934283349,-0.0730576655340355,0.3194220055325690,0.0042004903961273,0.0078299734741449,-0.0012851294595748,0.0068843513727188,0.0005175640108064,-0.0001538863434689,-0.0014675890561193,,0.0000000000000000,0.0000000000000000,
1559013415.4530308246612549,2.6988899707794189,,0.0088737893758581,-0.0049943866637431,-0.0036575276039180,-0.0001063469169456,0.0000256856595120,0.0000789470668625,0.9999999908989705,-0.0877329307061599,0.2488599900928812,0.0095220470472788,0.0049785740236022,-0.0036277948427252,-0.0026187404284326,-0.0001483736702727,0.0004200964336103,0.0005901364619509,,0.0034025515714207,0.0019694676577049,0.0014925504697577,0.0000218994381274,0.0006415251941719,0.0000333035632454,0.9999997934283349,-0.0730576655340355,0.3194220055325690,0.0042004903961273,0.0078299734741449,-0.0012851294595748,0.0068843513727188,0.0005175640108064,-0.0001538863434689,-0.0014675890561193,,0.0000000000000000,0.0000000000000000,
1559013415.4863507747650146,2.7322099208831787,,0.0089576679668071,-0.0046337711319616,-0.0033483718109103,-0.0001061257936598,0.0000189828178885,0.0000769409160428,0.9999999912285321,-0.0877086387904911,0.2480915722888003,0.0092932521035171,0.0063889720072936,-0.0016640181887802,-0.0045747869763719,0.0003978653476196,-0.0011701671515618,-0.0002148317926694,,0.0034025515714207,0.0019694676577049,0.0014925504697577,0.0000218994381274,0.0006415251941719,0.0000333035632454,0.9999997934283349,-0.0730576655340355,0.3194220055325690,0.0042004903961273,0.0078299734741449,-0.0012851294595748,0.0068843513727188,0.0005175640108064,-0.0001538863434689,-0.0014675890561193,,0.0000000000000000,0.0000000000000000,
