#Time(sec),Dtime(sec),,x(m),y(m),z(m),qx,qy,qz,qw,roll_x_G(deg),pitch_y_G(deg),yaw_z_G(deg),vx(m/s),vy(m/s),vz(m/s),wx(rad/s),wy(rad/s),wz(rad/s),,gt_x(m),gt_y(m),gt_z(m),gt_qx,gt_qy,gt_qz,gt_qw,gt_groll_x_G(deg),gt_pitch_y_G(deg),gt_yaw_z_G(deg),gt_vx(m/s),gt_vy(m/s),gt_vz(m/s),gt_wx(rad/s),gt_wy(rad/s),gt_wz(rad/s),,Sr,Sr_avg,
1559013412.7541408538818359,0.0000000000000000,,0.0000000000000002,0.0000000000000001,-0.0000000000000001,0.0000000000000000,-0.0000000000000001,0.0000000000000000,1.0000000000000000,-0.0755855138669150,0.2459037397968158,0.0004794994091153,0.0000000000000000,0.0000000000000000,0.0000000000000000,0.0000000000000000,0.0000000000000000,0.0000000000000000,,0.0000000000000000,0.0000000000000000,0.0000000000000000,0.0000000000000000,0.0000000000000000,0.0000000000000000,1.0000000000000000,-0.0755855138669150,0.2459037397968215,0.0004794994091152,-0.0098102642223239,-0.0059528849087656,-0.0021041124127805,0.0008114594966173,-0.0000641869410174,-0.0007574954070151,,0.0000000000000000,0.0000000000000000,
1559013412.7874608039855957,0.0333199501037598,,0.0000219726581638,-0.0000260111889973,-0.0000459141663904,-0.0000208610050351,-0.0000137221306289,-0.0000034844792411,0.9999999996821901,-0.0779777081630646,0.2443307657790641,0.0000823114382821,0.0005549145090711,-0.0009140744155948,-0.0007645881653806,-0.0006713226546122,-0.0001088443910840,-0.0002176123651700,,0.0000000000000000,0.0000000000000000,0.0000000000000000,0.0000000000000000,0.0000000000000000,0.0000000000000000,1.0000000000000000,-0.0755855138669150,0.2459037397968215,0.0004794994091152,-0.0098102642223239,-0.0059528849087656,-0.0021041124127805,0.0008114594966173,-0.0000641869410174,-0.0007574954070151,,0.0000000000000000,0.0000000000000000,
1559013412.8207807540893555,0.0666399002075195,,0.0000608926743231,-0.0000640802948601,-0.0001140602429562,-0.0000373096937066,-0.0000189844924195,-0.0000087132854731,0.9999999990858274,-0.0798651435414091,0.2437269247291102,-0.0005160265755550,0.0011061855532015,-0.0033799717536283,-0.0017536299372295,-0.0014824384616985,0.0004133351236126,0.0008436244272202,,0.0026245542083911,0.0026448552001494,-0.0084863851899029,-0.0000333937179824,0.0001718520074773,-0.0000101301488424,0.9999999846245635,-0.0794174526191618,0.2655949411350161,-0.0007079784706163,0.0011400097282603,-0.0002242026966996,-0.0186141021549702,-0.0007273238734342,-0.0001038627669914,-0.0002373664610786,,0.0000000000000000,0.0000000000000000,
1559013412.8541007041931152,0.0999598503112793,,0.0001262903034411,-0.0001468154741993,-0.0002142065874932,-0.0000378024141703,-0.0000235806923088,-0.0000050935236011,0.9999999989944923,-0.0799198270708824,0.2432008019201591,-0.0001005132246582,0.0021184657892204,-0.0024107857097970,-0.0026184181863062,0.0001285783637746,-0.0003722209284548,-0.0002117934720251,,0.0026245542083911,0.0026448552001494,-0.0084863851899029,-0.0000333937179824,0.0001718520074773,-0.0000101301488424,0.9999999846245635,-0.0794174526191618,0.2655949411350161,-0.0007079784706163,0.0011400097282603,-0.0002242026966996,-0.0186141021549702,-0.0007273238734342,-0.0001038627669914,-0.0002373664610786,,0.0000000000000000,0.0000000000000000,
1559013412.8874206542968750,0.1332798004150391,,0.0001876071963411,-0.0002485065635448,-0.0002723575101359,-0.0000332340376668,-0.0000278667317498,-0.0000049033733097,0.9999999990474505,-0.0793962315090670,0.2427096905476230,-0.0000780715043153,0.0016332172232536,-0.0030002443095807,-0.0000183282768429,0.0009260591413560,0.0006978172556181,-0.0004629382745979,,0.0013044971720459,0.0006642558835833,-0.0097306379038952,-0.0000438730574526,0.0002087906767953,-0.0000009822662857,0.9999999772403214,-0.0806136494002281,0.2698292134783979,0.0003343256994272,-0.0023964915890247,-0.0079505480825901,-0.0198433436453342,0.0003404117596801,-0.0015395777300000,-0.0001423610374331,,0.0000000000000000,0.0000000000000000,
1559013412.9207408428192139,0.1665999889373779,,0.0002510355284044,-0.0003552317527220,-0.0002739830334416,-0.0000129934686530,-0.0000142844809747,-0.0000089746469803,0.9999999997732896,-0.0770788454877928,0.2442654901962383,-0.0005467471256826,0.0015572095440772,-0.0016274100853720,0.0003069651755764,0.0011929260021615,0.0012332859105604,-0.0007229402316692,,0.0013044971720459,0.0006642558835833,-0.0097306379038952,-0.0000438730574526,0.0002087906767953,-0.0000009822662857,0.9999999772403214,-0.0806136494002281,0.2698292134783979,0.0003343256994272,-0.0023964915890247,-0.0079505480825901,-0.0198433436453342,0.0003404117596801,-0.0015395777300000,-0.0001423610374331,,0.0000000000000000,0.0000000000000000,
1559013412.9540607929229736,0.1999199390411377,,0.0003049992330981,-0.0004089312959995,-0.0003164140705479,-0.0000144173017045,-0.0000098617901226,-0.0000141313640163,0.9999999997475956,-0.0772445424394733,0.2447715032002950,-0.0011383418386656,0.0011389741805766,-0.0019570558982999,-0.0014499054642399,-0.0004121206084769,0.0004209957160276,0.0003212774096721,,0.0018767528659337,-0.0015868478416372,-0.0062711862608355,-0.0000291626588616,0.0002160709066437,-0.0000033503031968,0.9999999762258388,-0.0789291896576434,0.2706631018623400,0.0000621929295683,-0.0001832428679336,-0.0139995729550719,-0.0103720519691706,-0.0000324573375110,0.0006396181997843,0.0005033669876866,,0.0000000000000000,0.0000000000000000,
1559013412.9873807430267334,0.2332398891448975,,0.0003431363790865,-0.0004716913804853,-0.0004165912864769,-0.0000362799963632,-0.0000178833168929,-0.0000100745123364,0.9999999991312265,-0.0797478174257171,0.2438528996089663,-0.0006721862495950,0.0008971832518353,-0.0020463925252434,-0.0023451758404527,-0.0009427345252527,-0.0001135738131031,0.0003124202551737,,0.0003195640245647,0.0012565451760955,0.0004369553676586,-0.0000203842576571,0.0002228644697758,0.0000059252942832,0.9999999749404003,-0.0779184667913354,0.2714430136939749,0.0011242835076430,-0.0063411630690098,-0.0023399125784636,0.0026414536405355,0.0006563157658093,0.0000575598314754,0.0000708336956450,,0.0000000000000000,0.0000000000000000,
1559013413.0207006931304932,0.2665598392486572,,0.0003903418709308,-0.0005530731092706,-0.0004847153840386,-0.0000454537236579,-0.0000198192877273,-0.0000091906053814,0.9999999987283439,-0.0807986128321173,0.2436311815676687,-0.0005705755700852,0.0017486898863368,-0.0027608805572256,-0.0017974615562203,0.0003923254197449,-0.0003731200542663,0.0000570656395446,,-0.0012296630497877,0.0025351477552150,0.0010995718084875,-0.0000417926695341,0.0002369557506546,0.0000081066828663,0.9999999710198130,-0.0803705614379537,0.2730581080783792,0.0013715104470487,-0.0104640517383814,0.0027693663723767,0.0022680787369609,-0.0004222550487611,-0.0009954593842849,-0.0014647236093879,,0.0000000000000000,0.0000000000000000,
1559013413.0540206432342529,0.2998797893524170,,0.0004235872202076,-0.0005965748351161,-0.0004860828954608,-0.0000408711339922,-0.0000194034472439,-0.0000116515620541,0.9999999989086489,-0.0802746923386964,0.2436784545687420,-0.0008526579506624,0.0017243345694446,-0.0031871352068556,-0.0011770822702877,0.0001260234255512,-0.0003740971110650,0.0000545037719461,,-0.0012296630497877,0.0025351477552150,0.0010995718084875,-0.0000417926695341,0.0002369557506546,0.0000081066828663,0.9999999710198130,-0.0803705614379537,0.2730581080783792,0.0013715104470487,-0.0104640517383814,0.0027693663723767,0.0022680787369609,-0.0004222550487611,-0.0009954593842849,-0.0014647236093879,,0.0000000000000000,0.0000000000000000,
1559013413.0873408317565918,0.3331999778747559,,0.0004876573212480,-0.0007130828609396,-0.0005474264631897,-0.0000410329302268,-0.0000277651764730,-0.0000041843998660,0.9999999987639423,-0.0802895674752899,0.2427214356377836,0.0000043265264618,0.0027634447614510,-0.0047802079945283,-0.0033724457554856,0.0001177937451189,-0.0009142172566524,0.0011159593239193,,-0.0016435135824158,0.0026275468295871,0.0012304795801690,-0.0000513339756734,0.0002473163494147,-0.0000056877855006,0.9999999680835472,-0.0814710891680904,0.2742431862158812,-0.0002111219548778,-0.0103930579498410,0.0014988548355177,0.0039006241131574,0.0011318795150146,0.0002227528020740,-0.0000919199519558,,0.0000000000000000,0.0000000000000000,
1559013413.1206507682800293,0.3665099143981934,,0.0005992952801239,-0.0008560974354771,-0.0007329425954766,-0.0000265380889997,-0.0000211866663491,-0.0000015461567676,0.9999999994222323,-0.0786272975678912,0.2434756904304919,0.0003055887235310,0.0026080228740882,-0.0025285544477398,-0.0020222585726505,0.0006597571480119,0.0006968401992063,-0.0004655001468063,,0.0005616575788509,0.0023248454925954,-0.0068295751898612,-0.0000481098627072,0.0002468529497336,0.0000022816723702,0.9999999683719276,-0.0810974870624488,0.2741913355012083,0.0007022842045371,-0.0015323208644986,-0.0002488680183887,-0.0116802686825395,0.0004793090629391,0.0004433808790054,-0.0012041983427480,,0.0000000000000000,0.0000000000000000,
1559013413.1539707183837891,0.3998298645019531,,0.0006706003557944,-0.0009368495037483,-0.0007888216486415,-0.0000239242864800,-0.0000153891335832,-0.0000099970379766,0.9999999995454313,-0.0783319240232298,0.2441387378600594,-0.0006637175230645,0.0014397402450796,-0.0019536052633555,0.0001420554332761,0.0001302729644834,0.0012312538768455,-0.0009994849524950,,0.0013329283684650,-0.0002645851969253,-0.0013593500048340,-0.0000230157938096,0.0002529160120719,0.0000307535759244,0.9999999672789903,-0.0782070900445297,0.2748904838150207,0.0039647358401133,0.0011904048733413,-0.0095880255103111,-0.0023563199210912,0.0018597589805722,0.0016142132226378,-0.0009464622708037,,0.0000000000000000,0.0000000000000000,
1559013413.1872906684875488,0.4331498146057129,,0.0007281308898679,-0.0008878324623581,-0.0007319107524995,-0.0000182412989725,-0.0000186754910894,-0.0000192786377098,0.9999999994734077,-0.0776852406371885,0.2437607332206154,-0.0017268255035236,0.0022543694097272,-0.0001467385981855,-0.0023626896119720,0.0012059961659278,-0.0008934233754832,-0.0012704684032773,,0.0013329283684650,-0.0002645851969253,-0.0013593500048340,-0.0000230157938096,0.0002529160120719,0.0000307535759244,0.9999999672789903,-0.0782070900445297,0.2748904838150207,0.0039647358401133,0.0011904048733413,-0.0095880255103111,-0.0023563199210912,0.0018597589805722,0.0016142132226378,-0.0009464622708037,,0.0000000000000000,0.0000000000000000,
1559013413.2206108570098877,0.4664700031280518,,0.0008169056982656,-0.0010110406940110,-0.0008239333125886,-0.0000074805845187,-0.0000191323042620,-0.0000098930063280,0.9999999997400623,-0.0764475570567601,0.2437098370893129,-0.0006512561910392,0.0023064141105559,-0.0030383164711749,-0.0029501940875136,-0.0001473785159810,0.0001537888844675,0.0005882698133224,,-0.0003187015053108,0.0000959066590073,-0.0209231593457670,-0.0000160718343075,0.0002776230263452,0.0000108136414350,0.9999999612751075,-0.0774217422934056,0.2777186218234659,0.0016761845038021,-0.0058840299025178,-0.0058508231304586,-0.0372426919639111,0.0013397382572293,0.0005982400616631,-0.0003023762255907,,0.0000000000000000,0.0000000000000000,
1559013413.2539308071136475,0.4997899532318115,,0.0008929157570849,-0.0010915053367427,-0.0009071074515301,-0.0000056884520281,-0.0000201548630026,0.0000003036643617,0.9999999997806654,-0.0762372007382773,0.2435942107534479,0.0005173570617124,0.0028398473501181,-0.0024707055771975,-0.0030092495183621,0.0006566373430469,0.0001604724200839,0.0000633609281757,,0.0034269625326508,0.0011286720590091,-0.0090409392735334,-0.0000107213567495,0.0003332832900764,0.0000064883889218,0.9999999443825994,-0.0768108869699027,0.2840961473448347,0.0011722296041699,0.0091384267434478,-0.0020928373560309,-0.0114530222490430,0.0010196233633906,0.0007099295035005,-0.0002983235754073,,0.0000000000000000,0.0000000000000000,
1559013413.2872507572174072,0.5331099033355713,,0.0009945503261559,-0.0012085346886206,-0.0010012737454657,-0.0000014850135666,-0.0000206997534696,0.0000006544953641,0.9999999997844432,-0.0757553501714239,0.2435318238956617,0.0005576324181919,0.0028824066956089,-0.0036696676494028,-0.0020669946931313,0.0001275833293885,-0.0001059132194494,-0.0002099267705959,,0.0038770528996077,0.0016472316239445,-0.0017817424349745,-0.0000074296579382,0.0003350296155490,0.0000100847786441,0.9999999437991255,-0.0764317786616396,0.2842968057608064,0.0015842104441551,0.0097196577116847,-0.0004313084064052,0.0031110367272049,0.0015891643706709,0.0003474377153907,-0.0016894822474569,,0.0000000000000000,0.0000000000000000,
1559013413.3205707073211670,0.5664298534393311,,0.0010991922684673,-0.0014180331935145,-0.0010359450808854,0.0000043933893508,-0.0000162810751583,0.0000009100427293,0.9999999998573984,-0.0750816121732139,0.2440382047378523,0.0005862365317917,0.0023097828375816,-0.0042622214325564,-0.0012314173078352,0.0006530873697176,0.0004249039444608,0.0003315248718447,,0.0038770528996077,0.0016472316239445,-0.0017817424349745,-0.0000074296579382,0.0003350296155490,0.0000100847786441,0.9999999437991255,-0.0764317786616396,0.2842968057608064,0.0015842104441551,0.0097196577116847,-0.0004313084064052,0.0031110367272049,0.0015891643706709,0.0003474377153907,-0.0016894822474569,,0.0000000000000000,0.0000000000000000,
1559013413.3538906574249268,0.5997498035430908,,0.0011837779107153,-0.0015636736271171,-0.0011051429404806,0.0000078473668549,-0.0000121961763018,0.0000079803197123,0.9999999998629934,-0.0746823503634247,0.2445073613270587,0.0013958169843808,0.0025640162651328,-0.0044201218747069,-0.0033215674439082,-0.0001479433812701,-0.0003807027096331,0.0008508336236520,,0.0040371625405149,0.0010407715328566,-0.0011724512895224,0.0000182179897012,0.0003403120708404,-0.0000080441169780,0.9999999418955441,-0.0735023907927335,0.2848993990187070,-0.0004930345491329,0.0076945354230702,-0.0024773650802672,0.0028743059374392,0.0014570327475667,-0.0012100221356377,0.0000713423796697,,0.0000000000000000,0.0000000000000000,
1559013413.3872108459472656,0.6330699920654297,,0.0012627386102924,-0.0016625440428197,-0.0011313965840500,-0.0000012826339902,-0.0000167952326559,0.0000061576062622,0.9999999998391794,-0.0757294655035760,0.2439800813181470,0.0011876563360777,0.0025365316348998,-0.0042052626170082,-0.0041810627949722,-0.0001469483454644,-0.0006470104173998,0.0008489669140014,,0.0040371625405149,0.0010407715328566,-0.0011724512895224,0.0000182179897012,0.0003403120708404,-0.0000080441169780,0.9999999418955441,-0.0735023907927335,0.2848993990187070,-0.0004930345491329,0.0076945354230702,-0.0024773650802672,0.0028743059374392,0.0014570327475667,-0.0012100221356377,0.0000713423796697,,0.0000000000000000,0.0000000000000000,
1559013413.4205307960510254,0.6663899421691895,,0.0013462459904281,-0.0017589777224481,-0.0012527502394577,-0.0000100271850367,-0.0000277923706446,0.0000034958701985,0.9999999995574094,-0.0767328184100813,0.2427195040136575,0.0008843332380670,0.0031089979151727,-0.0022259938214387,-0.0040982029610045,0.0001356783142904,-0.0009010839794542,-0.0007481214003580,,0.0009705727291415,0.0016289898501757,-0.0079331041607371,0.0000413433631328,0.0003589990839138,-0.0000095545487231,0.9999999346595452,-0.0708532497001342,0.2870405726501778,-0.0006679541082759,-0.0035913039464504,0.0022433528210968,-0.0086488155648112,-0.0000468759790238,-0.0001395221770508,-0.0007117160712369,,0.0000000000000000,0.0000000000000000,
1559013413.4538507461547852,0.6997098922729492,,0.0014521058607972,-0.0017429386270941,-0.0013579760506396,0.0000029372275407,-0.0000222055233256,-0.0000060437370835,0.9999999997308804,-0.0752518750692175,0.2433582648428673,-0.0002097181055376,0.0034331690821387,-0.0046309141871849,-0.0027005382254743,0.0001189234799503,0.0001547659385614,0.0005908316581002,,0.0009705727291415,0.0016289898501757,-0.0079331041607371,0.0000413433631328,0.0003589990839138,-0.0000095545487231,0.9999999346595452,-0.0708532497001342,0.2870405726501778,-0.0006679541082759,-0.0035913039464504,0.0022433528210968,-0.0086488155648112,-0.0000468759790238,-0.0001395221770508,-0.0007117160712369,,0.0000000000000000,0.0000000000000000,
1559013413.4871706962585449,0.7330298423767090,,0.0015801885800555,-0.0018977830623980,-0.0014622656210941,0.0000037036084068,-0.0000214918441292,0.0000036419889171,0.9999999997555600,-0.0751593155711314,0.2434415070133019,0.0009000838542670,0.0038179570858795,-0.0054475354018667,-0.0033784080130571,0.0003785556951999,-0.0001161932510035,0.0013904185550644,,0.0008416231557927,0.0017042349993819,-0.0082787919112038,0.0000540832522323,0.0003709936414145,-0.0000274513881228,0.9999999293425681,-0.0694029478739007,0.2884124663842267,-0.0027200200000634,-0.0031365249305964,0.0013117705238983,-0.0091546773910522,-0.0008535996312276,-0.0001344025076833,-0.0015033677918836,,0.0000000000000000,0.0000000000000000,
1559013413.5204906463623047,0.7663497924804688,,0.0016811320398669,-0.0020626167488669,-0.0015650856138791,0.0000041225037223,-0.0000292368727949,0.0000197872282403,0.9999999993683379,-0.0751034256352040,0.2425564255734048,0.0027513730935741,0.0035005551631543,-0.0056078305078770,-0.0038654292796724,0.0006458527251994,-0.0003815239019716,0.0013911137130123,,0.0008416231557927,0.0017042349993819,-0.0082787919112038,0.0000540832522323,0.0003709936414145,-0.0000274513881228,0.9999999293425681,-0.0694029478739007,0.2884124663842267,-0.0027200200000634,-0.0031365249305964,0.0013117705238983,-0.0091546773910522,-0.0008535996312276,-0.0001344025076833,-0.0015033677918836,,0.0000000000000000,0.0000000000000000,
1559013413.5538108348846436,0.7996699810028076,,0.0017914120282914,-0.0022045912138129,-0.0016675780817258,0.0000116321489184,-0.0000291244195593,0.0000235144680123,0.9999999992317656,-0.0742410629290947,0.2425698530963096,0.0031784447873401,0.0025157472175091,-0.0034474710607929,-0.0014076447394174,0.0011872512625743,0.0006950419602301,0.0000722180546723,,0.0034378551607457,0.0025472472578253,-0.0043545256517963,0.0000600555418070,0.0003908734422606,-0.0000220183470360,0.9999999215632351,-0.0687157343071086,0.2906913252913965,-0.0021000470966965,0.0047460272908211,0.0013947092229500,0.0006963039049879,-0.0011309223482385,-0.0014337574830279,0.0015923746395856,,0.0000000000000000,0.0000000000000000,
1559013413.5871307849884033,0.8329899311065674,,0.0018292887078546,-0.0021717676565725,-0.0016553303197083,0.0000124715962198,-0.0000297109249829,0.0000258388784281,0.9999999991470363,-0.0741437353029205,0.2425029903223869,0.0034448897721782,0.0029259505305129,-0.0034018204158950,-0.0023021845944632,0.0001240333574111,0.0001585183175021,0.0000582371649769,,0.0034378551607457,0.0025472472578253,-0.0043545256517963,0.0000600555418070,0.0003908734422606,-0.0000220183470360,0.9999999215632351,-0.0687157343071086,0.2906913252913965,-0.0021000470966965,0.0047460272908211,0.0013947092229500,0.0006963039049879,-0.0011309223482385,-0.0014337574830279,0.0015923746395856,,0.0000000000000000,0.0000000000000000,
1559013413.6204507350921631,0.8663098812103271,,0.0019301141068306,-0.0022769234055796,-0.0017501814226011,0.0000123439198998,-0.0000333562969483,0.0000279912675313,0.9999999989757371,-0.0741573240582617,0.2420855844781368,0.0036920836515070,0.0032897822778474,-0.0041697266094437,-0.0029039377124309,-0.0004136805087557,0.0001528118256723,0.0005857079188747,,0.0034378551607457,0.0025472472578253,-0.0043545256517963,0.0000600555418070,0.0003908734422606,-0.0000220183470360,0.9999999215632351,-0.0687157343071086,0.2906913252913965,-0.0021000470966965,0.0047460272908211,0.0013947092229500,0.0006963039049879,-0.0011309223482385,-0.0014337574830279,0.0015923746395856,,0.0000000000000000,0.0000000000000000,
1559013413.6537706851959229,0.8996298313140869,,0.0019941335171447,-0.0021490688106734,-0.0018613926167481,0.0000034851258122,-0.0000303551117063,0.0000314519619441,0.9999999990385977,-0.0751707692292350,0.2424300448094731,0.0040882346350088,0.0033276812097918,-0.0039136958231365,-0.0036606259627191,-0.0006764325289202,-0.0001125967562828,0.0003149820976544,,0.0036291435458029,0.0025966150466021,-0.0043469637549630,0.0000571760738891,0.0003901364780748,-0.0000200743580797,0.9999999220607196,-0.0690446522828446,0.2906071492304136,-0.0018773020674637,0.0051087369211018,0.0014169181231409,0.0000617773694103,-0.0004234086372890,-0.0003483407199383,-0.0010793746914715,,0.0000000000000000,0.0000000000000000,
1559013413.6870906352996826,0.9329497814178467,,0.0020899338181357,-0.0022711616972745,-0.0019519310805205,-0.0000086926717695,-0.0000273559920689,0.0000328667449274,0.9999999990479320,-0.0765655415988390,0.2427739774865633,0.0042499441579057,0.0038325438637453,-0.0050113075518953,-0.0045159477291913,-0.0004097003673431,-0.0009124190017371,0.0005782410889197,,0.0036291435458029,0.0025966150466021,-0.0043469637549630,0.0000571760738891,0.0003901364780748,-0.0000200743580797,0.9999999220607196,-0.0690446522828446,0.2906071492304136,-0.0018773020674637,0.0051087369211018,0.0014169181231409,0.0000617773694103,-0.0004234086372890,-0.0003483407199383,-0.0010793746914715,,0.0000000000000000,0.0000000000000000,
1559013413.7204108238220215,0.9662699699401855,,0.0021539196068987,-0.0023302689745892,-0.0019649057936916,-0.0000038573444201,-0.0000286033695929,0.0000372245645892,0.9999999988906499,-0.0760093288793930,0.2426316809975770,0.0047494914944735,0.0035973965066876,-0.0048108868942888,-0.0026711641910823,0.0001189234778211,0.0001547659429270,0.0005908316627195,,0.0029954825554080,0.0032025419981495,0.0006789376870445,0.0000544467831987,0.0004025603575399,-0.0000166703444748,0.9999999173513996,-0.0693556131155782,0.2920313069036726,-0.0014891490537248,0.0025517339818180,0.0034124318044633,0.0093907183036208,0.0006610900745727,-0.0005176760023460,0.0005640679155476,,0.0000000000000000,0.0000000000000000,
1559013413.7537307739257812,0.9995899200439453,,0.0022977848135297,-0.0024903938715061,-0.0020846759095765,-0.0000000764936786,-0.0000267898517508,0.0000437448746239,0.9999999986843420,-0.0755728819601645,0.2428404639893359,0.0054963835730368,0.0038152451249862,-0.0029843501208821,-0.0039328110319678,-0.0001377236298325,-0.0003731979894446,-0.0002143553604099,,0.0029821578802633,0.0023954715740928,-0.0033581745908973,0.0000636555501370,0.0004000566115030,-0.0000217090852176,0.9999999177156937,-0.0683030665391002,0.2917436920126553,-0.0020657681279611,0.0022860211320221,-0.0006600108463317,0.0015310561284423,-0.0004109627625439,-0.0006739070522599,-0.0001190709881485,,0.0000000000000000,0.0000000000000000,
1559013413.7870507240295410,1.0329098701477051,,0.0023118682923196,-0.0023894270364064,-0.0020254671305805,-0.0000041884869799,-0.0000285804227255,0.0000462528919207,0.9999999985131430,-0.0760428641668354,0.2426356807112021,0.0057840675749214,0.0037635362364638,-0.0039931763790989,-0.0038239466818460,-0.0004126854745021,-0.0001134958863072,0.0005838412135556,,0.0028483643782737,0.0054159764026453,-0.0048358352553247,0.0000756474026680,0.0004063720092715,-0.0000323465478623,0.9999999140464770,-0.0669346459473181,0.2924658971404100,-0.0032850968095539,0.0015071481466293,0.0085062691941857,-0.0014686621725559,-0.0004123515100218,-0.0004598114755936,-0.0001185764558613,,0.0000000000000000,0.0000000000000000,
1559013413.8203706741333008,1.0662298202514648,,0.0024244634046033,-0.0024726438793681,-0.0021483647530648,-0.0000056245547851,-0.0000328803390474,0.0000457141439380,0.9999999983987324,-0.0762077083642387,0.2421428728802988,0.0057229884057686,0.0038024837796770,-0.0009283484878315,-0.0043782761841474,0.0006698422017724,-0.0006309459851235,-0.0010074282047182,,0.0057014196614884,0.0028114904979939,-0.0014366798554570,0.0000670268578753,0.0004080379712614,-0.0000425387834079,0.9999999136014294,-0.0679279860917434,0.2926553068483795,-0.0044536957041438,0.0102461967617273,-0.0009650264400989,0.0047005051746964,0.0002842464891728,-0.0014189003268257,-0.0000187277801160,,0.0000000000000000,0.0000000000000000,
1559013413.8536908626556396,1.0995500087738037,,0.0025800900191359,-0.0025860374309722,-0.0022089558588719,-0.0000120065960930,-0.0000380692143527,0.0000365700796793,0.9999999985346031,-0.0769435175322987,0.2415469110309848,0.0046759627677667,0.0039368033978044,-0.0020511494521941,-0.0041960795039761,0.0004004204027435,-0.0011682908226760,-0.0004811290036759,,0.0057014196614884,0.0028114904979939,-0.0014366798554570,0.0000670268578753,0.0004080379712614,-0.0000425387834079,0.9999999136014294,-0.0679279860917434,0.2926553068483795,-0.0044536957041438,0.0102461967617273,-0.0009650264400989,0.0047005051746964,0.0002842464891728,-0.0014189003268257,-0.0000187277801160,,0.0000000000000000,0.0000000000000000,
1559013413.8870108127593994,1.1328699588775635,,0.0025800900191359,-0.0025860374309722,-0.0022089558588719,-0.0000120065960930,-0.0000380692143527,0.0000365700796793,0.9999999985346031,-0.0769435175322987,0.2415469110309848,0.0046759627677667,0.0039368033978044,-0.0020511494521941,-0.0041960795039761,0.0004004204027435,-0.0011682908226760,-0.0004811290036759,,0.0042457708010142,0.0032688893773403,-0.0056604679087909,0.0000648888487885,0.0004357793942480,-0.0000388127972930,0.9999999021896570,-0.0681711214985140,0.2958347627029305,-0.0040308126094763,0.0040785656310618,0.0004996526986361,-0.0031115380115807,-0.0004219063557684,-0.0014084292342886,-0.0011841928353533,,0.0000000000000000,0.0000000000000000,
1559013413.9203307628631592,1.1661899089813232,,0.0028038027039716,-0.0027872376019418,-0.0023834193216379,-0.0000323105440059,-0.0000407504188285,0.0000393768032000,0.9999999978724498,-0.0792688203890809,0.2412401876979686,0.0049980957656944,0.0034380149760386,-0.0035351248654942,-0.0023097065467765,0.0011785914089575,0.0009557211047296,0.0008729764948383,,0.0037830777864451,0.0059721551358482,-0.0016152676663159,0.0000616365717948,0.0004380310634883,-0.0000290971533605,0.9999999017415333,-0.0685385516296640,0.2960941705912740,-0.0029179549245959,0.0020071996841580,0.0080442428588867,0.0036611172836274,0.0013339569559321,0.0007723305607215,-0.0004502651281655,,0.0000000000000000,0.0000000000000000,
1559013413.9536507129669189,1.1995098590850830,,0.0029855935932477,-0.0029910701609860,-0.0025599471810672,-0.0000323688279347,-0.0000297811340548,0.0000530319642593,0.9999999976264770,-0.0792687875702426,0.2424992885519531,0.0065611762999198,0.0032367537557707,-0.0041826751084735,-0.0044437595188600,-0.0004122553055642,-0.0009142951904291,0.0008445383216925,,0.0000121213038593,0.0015928919038833,-0.0050828893196578,0.0000748137299263,0.0004453782290903,-0.0000428664643663,0.9999998971017973,-0.0670360616612345,0.2969341739491855,-0.0044962081267990,-0.0103412009775639,-0.0070697003975511,-0.0045804427936673,-0.0004666797758546,-0.0001374986022711,0.0000456533380202,,0.0000000000000000,0.0000000000000000,
1559013413.9869606494903564,1.2328197956085205,,0.0029984718203599,-0.0033756892324401,-0.0017198284664403,-0.0000317939604106,-0.0000334611038100,0.0000524803369499,0.9999999975576565,-0.0792032017576371,0.2420775065981230,0.0064985315298428,0.0020562758674168,-0.0020043703845514,-0.0010064379856093,0.0001236031850763,0.0009593176079759,-0.0002024599514402,,0.0000121213038593,0.0015928919038833,-0.0050828893196578,0.0000748137299263,0.0004453782290903,-0.0000428664643663,0.9999998971017973,-0.0670360616612345,0.2969341739491855,-0.0044962081267990,-0.0103412009775639,-0.0070697003975511,-0.0045804427936673,-0.0004666797758546,-0.0001374986022711,0.0000456533380202,,0.0000000000000000,0.0000000000000000,
1559013414.0202808380126953,1.2661399841308594,,0.0031111721965298,-0.0034699353296336,-0.0018212638408219,-0.0000303039915356,-0.0000320339375199,0.0000561614953998,0.9999999974506908,-0.0790306592967505,0.2422416077625936,0.0069201382701759,0.0043119902555306,-0.0029259276810616,-0.0048421867407392,0.0001254585700763,-0.0009085887775194,0.0003170675312711,,-0.0003862388438266,0.0013193463922199,-0.0052756966752279,0.0000762091679498,0.0004512275026457,-0.0000531757478453,0.9999998938791161,-0.0668817920699509,0.2976029888637595,-0.0056783421457382,-0.0093114748597145,-0.0073452508077025,-0.0049650780856609,0.0013335975818336,0.0000820299610496,-0.0005578060518019,,0.0000000000000000,0.0000000000000000,
1559013414.0536007881164551,1.2994599342346191,,0.0032147732561056,-0.0034181713979318,-0.0019100472731675,-0.0000268036671552,-0.0000305861268273,0.0000585234214419,0.9999999974605308,-0.0786283899684750,0.2424078561289977,0.0071905611798083,0.0040699581649060,-0.0023689609836918,-0.0028532477886711,-0.0001387186550880,-0.0001068903457975,-0.0002124886953177,,-0.0003862388438266,0.0013193463922199,-0.0052756966752279,0.0000762091679498,0.0004512275026457,-0.0000531757478453,0.9999998938791161,-0.0668817920699509,0.2976029888637595,-0.0056783421457382,-0.0093114748597145,-0.0073452508077025,-0.0049650780856609,0.0013335975818336,0.0000820299610496,-0.0005578060518019,,0.0000000000000000,0.0000000000000000,
1559013414.0869207382202148,1.3327798843383789,,0.0033342995371060,-0.0035077706004468,-0.0019881837630774,-0.0000329168031358,-0.0000355699020785,0.0000579365842629,0.9999999971473092,-0.0793292200515053,0.2418367082079965,0.0071241073498205,0.0038955089116987,-0.0022348113875805,-0.0030590534181611,-0.0006632276628520,-0.0009040152143330,-0.0007558070501948,,-0.0005695107067441,0.0011753494670631,-0.0053720416089590,0.0000732402329876,0.0004666305450950,-0.0000575712412892,0.9999998867886710,-0.0672245097017332,0.2993674002054934,-0.0061843887103450,-0.0087402760982513,-0.0075568733736873,-0.0051086759194732,-0.0005755241727456,0.0005565957981162,0.0000478677466162,,0.0000000000000000,0.0000000000000000,
1559013414.1202406883239746,1.3660998344421387,,0.0035159911002036,-0.0038048749257857,-0.0020079054429479,-0.0000333056025817,-0.0000280275809411,0.0000469353908004,0.9999999979511304,-0.0793791033858997,0.2426992918565038,0.0058622863114511,0.0033392592038876,-0.0033052216497098,-0.0021437601731438,-0.0004060156883282,0.0001584403083120,-0.0002131838560514,,0.0054194410451250,0.0039221283223847,-0.0059444888312575,0.0000707223501789,0.0004701856227759,-0.0000471678987493,0.9999998858495028,-0.0675073877342590,0.2997762539914523,-0.0049928816865142,0.0113711925223470,0.0025506995152682,-0.0051999506540596,-0.0004708282649517,0.0001321081072092,-0.0002189685619669,,0.0000000000000000,0.0000000000000000,
1559013414.1535606384277344,1.3994197845458984,,0.0036150945787761,-0.0038949606289124,-0.0020889853057801,-0.0000314131486558,-0.0000236114395335,0.0000444844862372,0.9999999982384222,-0.0791634220934389,0.2432049545188732,0.0055807417047272,0.0031146325622499,-0.0024192981817220,-0.0025383117016620,-0.0006691978729844,0.0006938310351315,-0.0007446067942789,,0.0017337937437958,0.0027914976925686,-0.0073980466569868,0.0000657147087486,0.0004684735527028,-0.0000318904734004,0.9999998875985463,-0.0680728783992629,0.2995822330364225,-0.0032422190918197,-0.0032952094916254,-0.0025957324542105,-0.0077453418634832,-0.0003198916092515,-0.0001808123633964,-0.0010700231650844,,0.0000000000000000,0.0000000000000000,
1559013414.1868808269500732,1.4327399730682373,,0.0036953011299201,-0.0037200801652793,-0.0021500178006654,-0.0000346477099896,-0.0000202179638942,0.0000508175341388,0.9999999979041742,-0.0795309603432340,0.2435948165476393,0.0063059438358515,0.0028829740419190,-0.0028797878573895,-0.0036890145816279,-0.0004055855144320,-0.0006423589947339,0.0000475132569796,,0.0016039150001529,0.0026808541271728,-0.0077449373068534,0.0000509286114285,0.0004870076570089,-0.0000417809085965,0.9999998792420798,-0.0697727422121326,0.3017045906296459,-0.0043790822358526,-0.0030165864154696,-0.0030540812294930,-0.0095399990677834,0.0000660082805553,-0.0000287355851469,0.0002058113022940,,0.0000000000000000,0.0000000000000000,
1559013414.2202007770538330,1.4660599231719971,,0.0037757346390557,-0.0038172011574959,-0.0022337904184718,-0.0000474826793973,-0.0000266004590964,0.0000554941698159,0.9999999969791040,-0.0809994864593322,0.2428642441108189,0.0068428800269382,0.0027578832334915,-0.0037355808384420,-0.0020356998048378,-0.0009478443973472,-0.0001173262438035,0.0008450146867237,,0.0016039150001529,0.0026808541271728,-0.0077449373068534,0.0000509286114285,0.0004870076570089,-0.0000417809085965,0.9999998792420798,-0.0697727422121326,0.3017045906296459,-0.0043790822358526,-0.0030165864154696,-0.0030540812294930,-0.0095399990677834,0.0000660082805553,-0.0000287355851469,0.0002058113022940,,0.0000000000000000,0.0000000000000000,
1559013414.2535207271575928,1.4993798732757568,,0.0038667767824987,-0.0038705200651061,-0.0021877863696207,-0.0000617052889106,-0.0000236388464544,0.0000608967263150,0.9999999959626256,-0.0826266179325664,0.2432045647024066,0.0074615471214851,0.0032797223616230,-0.0020217609343622,-0.0027737523755981,-0.0006774275625125,0.0001537108859823,0.0003168487760307,,0.0001515348646201,0.0012294817827928,-0.0051123345942179,0.0000495634790215,0.0004787440758719,-0.0000295359639095,0.9999998837375924,-0.0699224355375030,0.3007594300014954,-0.0029747703706644,-0.0074289659969509,-0.0072463871911168,-0.0031776153482497,0.0000637078628642,-0.0005068728933111,-0.0000599529594183,,0.0000000000000000,0.0000000000000000,
1559013414.2868406772613525,1.5326998233795166,,0.0039823284573648,-0.0039193846514910,-0.0023462610851356,-0.0000715376188896,-0.0000295972471190,0.0000630803073522,0.9999999950136235,-0.0837522908550987,0.2425221994525406,0.0077127448526223,0.0030580411824378,-0.0018806562061514,-0.0054687248851559,-0.0006779924285588,-0.0003807807178774,0.0005794125969247,,0.0034192999153591,0.0010579430106152,0.0064953994279523,0.0000345271351897,0.0005111463805106,-0.0000263829984575,0.9999998684205874,-0.0716438772364495,0.3044728703048402,-0.0026190585096938,0.0061334241181612,-0.0059950468130410,0.0181544125080109,-0.0012176220770925,0.0004556177300401,-0.0002580562722869,,0.0000000000000000,0.0000000000000000,
1559013414.3201606273651123,1.5660197734832764,,0.0040554794825769,-0.0039096426618383,-0.0024592116002604,-0.0000910606213537,-0.0000299617199612,0.0000644068150734,0.9999999933310103,-0.0859888163906959,0.2424807894852417,0.0078648775470353,0.0023407368473108,-0.0010454417467908,-0.0027197157555162,-0.0006691978806650,0.0006938310262404,-0.0007446067843282,,0.0057367386720548,0.0016183337584161,0.0098573301577264,0.0000261658727469,0.0004975904176237,-0.0000332114235218,0.9999998753080546,-0.0726057057987067,0.3029184345740711,-0.0034000292129137,0.0127253644168377,-0.0035268568899482,0.0208079684525728,-0.0005384065443650,-0.0007062302902341,-0.0015981659526005,,0.0000000000000000,0.0000000000000000,
1559013414.3534808158874512,1.5993399620056152,,0.0041567954560755,-0.0040235589379365,-0.0025651270539919,-0.0000992292185248,-0.0000328249549929,0.0000640943345465,0.9999999924840004,-0.0869250402366045,0.2421526968057159,0.0078295628131753,0.0021726332016745,-0.0032486789621438,-0.0000474066638347,-0.0004080057673363,0.0006910557254535,-0.0002094504206798,,0.0022111221916410,0.0029646511388286,-0.0017833396769710,0.0000185365011763,0.0004818561479727,-0.0000336051731494,0.9999998831708647,-0.0734801127318041,0.3011153330944943,-0.0034432393792792,-0.0009461367153563,0.0011392958695069,-0.0013011145638302,-0.0016917627071962,-0.0016743621090427,-0.0005205086199567,,0.0000000000000000,0.0000000000000000,
1559013414.3868007659912109,1.6326599121093750,,0.0041890298975085,-0.0040331787309370,-0.0023378491098142,-0.0000969949407765,-0.0000320206839982,0.0000597502019335,0.9999999929982853,-0.0866711261768749,0.2422441382313345,0.0073316190795604,0.0020173069626464,-0.0037886949964332,-0.0015247148797649,-0.0006789874687828,-0.0001144730024759,0.0005812793146830,,0.0021895927776940,0.0029798482027788,-0.0017919951850399,0.0000030791525065,0.0005051542388313,-0.0000423319240284,0.9999998715088527,-0.0752563039453160,0.3037837185136449,-0.0044476326101652,-0.0012074953410774,0.0004014892037958,0.0003388677432667,0.0008526051533408,0.0004610072937794,-0.0004364303313196,,0.0000000000000000,0.0000000000000000,
1559013414.4201207160949707,1.6659798622131348,,0.0042691287731287,-0.0041614434217250,-0.0024565044469863,-0.0001049242913994,-0.0000413939264163,0.0000739518633738,0.9999999909042790,-0.0875729029861304,0.2411724158932280,0.0089605805232855,0.0029768653529209,-0.0039099676767445,-0.0066284517049608,-0.0004108301027288,-0.0019814022839452,0.0011033686961906,,-0.0014186147277336,0.0028985353920135,-0.0137229153900472,-0.0000057996978002,0.0005104819711338,-0.0000229059692081,0.9999998694249101,-0.0762630878852232,0.3043971376825290,-0.0022228761208905,-0.0113122472539544,-0.0013487567193806,-0.0224984772503376,0.0019746769685298,0.0005661716568284,0.0000881503365235,,0.0000000000000000,0.0000000000000000,
1559013414.4534406661987305,1.6992998123168945,,0.0043174223879143,-0.0040022232480276,-0.0026146014597090,-0.0001037671910168,-0.0000504182013649,0.0000820922408221,0.9999999899756196,-0.0874364226870442,0.2401396281553073,0.0098948717238780,0.0023488703956101,-0.0036639148988963,-0.0041823638549355,0.0003872155414644,-0.0003768725017287,0.0005896600689479,,-0.0014186147277336,0.0028985353920135,-0.0137229153900472,-0.0000057996978002,0.0005104819711338,-0.0000229059692081,0.9999998694249101,-0.0762630878852232,0.3043971376825290,-0.0022228761208905,-0.0113122472539544,-0.0013487567193806,-0.0224984772503376,0.0019746769685298,0.0005661716568284,0.0000881503365235,,0.0000000000000000,0.0000000000000000,
1559013414.4867608547210693,1.7326200008392334,,0.0044234762258548,-0.0041226817059070,-0.0027228165794185,-0.0001008581664855,-0.0000536182690074,0.0000790697667740,0.9999999903503418,-0.0871045690143396,0.2397724087917406,0.0095490227506533,0.0040004821211743,-0.0033233679647225,-0.0017180689244400,0.0001291432178345,0.0001622705950732,-0.0004743573571829,,0.0019871844674433,0.0011427158324406,0.0014052757964757,0.0000145126597581,0.0004981842610422,-0.0000104171448080,0.9999998757466462,-0.0739285600851628,0.3029898472145832,-0.0007887165253009,0.0037218257784843,-0.0071086878888309,0.0082138963043690,0.0013264474691823,-0.0008638858562335,-0.0011839268263429,,0.0000000000000000,0.0000000000000000,
1559013414.5200808048248291,1.7659399509429932,,0.0045609103759552,-0.0041073491347748,-0.0025581231917448,-0.0000976030460648,-0.0000384513087298,0.0000693460624301,0.9999999920931331,-0.0867361722751431,0.2415088051578330,0.0084322782694072,0.0047381666364588,-0.0044413095295076,-0.0002037425129629,-0.0004166656308638,0.0009517348743351,0.0005913080124565,,0.0019871844674433,0.0011427158324406,0.0014052757964757,0.0000145126597581,0.0004981842610422,-0.0000104171448080,0.9999998757466462,-0.0739285600851628,0.3029898472145832,-0.0007887165253009,0.0037218257784843,-0.0071086878888309,0.0082138963043690,0.0013264474691823,-0.0008638858562335,-0.0011839268263429,,0.0000000000000000,0.0000000000000000,
1559013414.5534007549285889,1.7992599010467529,,0.0047386539556526,-0.0042304393369864,-0.0025832142328520,-0.0001082018438488,-0.0000203533078425,0.0000723579614718,0.9999999913212146,-0.0879490992235944,0.2435832579158278,0.0087745067319308,0.0055238456253426,-0.0040978949176826,-0.0023054099377401,-0.0004146755612547,0.0004191194561792,0.0005875745856566,,0.0021569559694145,0.0008463975722888,0.0017737355212673,0.0000397605860765,0.0004972441031336,-0.0000275520140034,0.9999998752041344,-0.0710447551230397,0.3028796325554119,-0.0027506743039883,0.0050291824154556,-0.0075368159450591,0.0100390929728746,0.0008411775343120,0.0002563290181570,-0.0013905941741541,,0.0000000000000000,0.0000000000000000,
1559013414.5867207050323486,1.8325798511505127,,0.0049670028477544,-0.0042922815076681,-0.0023159336346240,-0.0001067783868614,-0.0000109373068222,0.0000794408059806,0.9999999910839551,-0.0877824368536272,0.2446633961035457,0.0095846062145464,0.0045758650118160,-0.0046411230431733,-0.0033325188343297,-0.0001499334694786,0.0001519126226009,0.0008545669875755,,0.0048156837642820,0.0062237242223286,0.0038197723035811,0.0000351297156098,0.0005140273588113,-0.0000062339267155,0.9999998672514491,-0.0715637410734696,0.3048059729383173,-0.0003105032281870,0.0113962255418301,0.0109010646119714,0.0102634755894542,0.0009090397506952,-0.0008152950322255,-0.0005353579181246,,0.0000000000000000,0.0000000000000000,
1559013414.6200406551361084,1.8658998012542725,,0.0050936340579544,-0.0044082575410671,-0.0024121929753184,-0.0001049146341369,-0.0000125742552177,0.0000822951781928,0.9999999910311556,-0.0875674805263195,0.2444762644436299,0.0099119605259335,0.0037476866843426,-0.0035083491640352,-0.0031125300326336,0.0001285783464276,-0.0003722210250452,-0.0002117935332408,,0.0052992022006456,0.0021277216428973,0.0025175264658012,0.0000476123484674,0.0005473681313105,-0.0000393663722158,0.9999998482857294,-0.0701517556464427,0.3086217226336049,-0.0041113765776248,0.0099888993427157,-0.0060158413834870,0.0076656071469188,-0.0002192421816289,-0.0002745102974586,-0.0012161586200818,,0.0000000000000000,0.0000000000000000,
1559013414.6533608436584473,1.8992199897766113,,0.0052478765675488,-0.0049258148932568,-0.0023176497288790,-0.0000979094982751,-0.0000184009777479,0.0000745943404982,0.9999999922554094,-0.0867685733470391,0.2438072558714788,0.0090304381661529,0.0042718063809131,-0.0045962239764935,-0.0026523183648332,0.0001209135317574,-0.0003778495728759,0.0005870981986725,,0.0048463070129249,-0.0018530932854782,-0.0043371194688543,0.0000496536779303,0.0005462905973898,-0.0000412375629876,0.9999998487002679,-0.0699188675543722,0.3084979834910337,-0.0043255173052810,0.0092678898945451,-0.0197609998285770,-0.0056686224415898,0.0003229734138586,0.0009426797041669,0.0000063279644564,,0.0000000000000000,0.0000000000000000,
1559013414.6866807937622070,1.9325399398803711,,0.0054138496463514,-0.0050559214384501,-0.0023960313806063,-0.0000997574850925,-0.0000136371111344,0.0000769253482694,0.9999999919724821,-0.0869791567724275,0.2443535488789023,0.0092967837411337,0.0052368296553449,-0.0046596565812878,-0.0021645336044961,-0.0004182255131866,0.0006835509539118,0.0008557385172817,,0.0048463070129249,-0.0018530932854782,-0.0043371194688543,0.0000496536779303,0.0005462905973898,-0.0000412375629876,0.9999998487002679,-0.0699188675543722,0.3084979834910337,-0.0043255173052810,0.0092678898945451,-0.0197609998285770,-0.0056686224415898,0.0003229734138586,0.0009426797041669,0.0000063279644564,,0.0000000000000000,0.0000000000000000,
1559013414.7200007438659668,1.9658598899841309,,0.0056432085017175,-0.0050040334295040,-0.0024539625748982,-0.0001067059278557,-0.0000086799515360,0.0000884451792022,0.9999999903579769,-0.0877696949671330,0.2449235396006691,0.0106160709971042,0.0061791501586836,-0.0048871020574730,-0.0034838860898798,-0.0009452894559333,-0.0001154501003754,0.0005787174091615,,0.0050306412913612,-0.0022553857574116,-0.0044513011141840,0.0000528530867372,0.0005470135817998,-0.0000352669572085,0.9999998483694555,-0.0695489346579165,0.3085817133850298,-0.0036412316935952,0.0100358575582504,-0.0200687516480684,-0.0060759009793401,0.0004965229309164,0.0002437760995235,0.0009104041382670,,0.0000000000000000,0.0000000000000000,
1559013414.7533206939697266,1.9991798400878906,,0.0058327881708196,-0.0051070394946395,-0.0025318159510330,-0.0000970869510446,0.0000015694634678,0.0000775584670360,0.9999999922781725,-0.0866727011373192,0.2460961713769252,0.0093668634191624,0.0052135067366567,-0.0023674995722049,-0.0020946229593329,0.0006684169945427,0.0004361609370085,-0.0012662586516977,,0.0050306412913612,-0.0022553857574116,-0.0044513011141840,0.0000528530867372,0.0005470135817998,-0.0000352669572085,0.9999998483694555,-0.0695489346579165,0.3085817133850298,-0.0036412316935952,0.0100358575582504,-0.0200687516480684,-0.0060759009793401,0.0004965229309164,0.0002437760995235,0.0009104041382670,,0.0000000000000000,0.0000000000000000,
1559013414.7866406440734863,2.0324997901916504,,0.0059263759152504,-0.0047540739564313,-0.0022422493584111,-0.0000784320250247,0.0000047667985921,0.0000652488524903,0.9999999947841411,-0.0845410388371877,0.2464604222173633,0.0079557655668136,0.0054972236602979,-0.0027785660126082,-0.0029013147418696,0.0009310343172894,-0.0006337213850903,-0.0004722718907885,,0.0052264772958771,-0.0026613178782102,-0.0045826045094389,0.0000475461241026,0.0005503896550055,-0.0000303206917289,0.9999998469456131,-0.0701543412170739,0.3089692817089975,-0.0030752484778133,0.0105025302618742,-0.0202286429703236,-0.0065599353983998,-0.0001585589197930,0.0001465858949814,-0.0005223532207310,,0.0000000000000000,0.0000000000000000,
1559013414.8199608325958252,2.0658199787139893,,0.0060850439770626,-0.0048519438250888,-0.0023036150074357,-0.0000745442293751,0.0000044848031603,0.0000661307356596,0.9999999950248851,-0.0840950979874577,0.2464282196779848,0.0080568699557884,0.0051094975871319,-0.0028288184144877,-0.0015436907338092,-0.0004095657019397,0.0004228717680040,0.0000549801178096,,0.0017678621869116,0.0015124191525959,-0.0011558191354735,0.0000500246131654,0.0005711314993747,-0.0000341708840095,0.9999998350693360,-0.0698725603466937,0.3113455691600101,-0.0035193152565481,-0.0028836037963629,-0.0044308807700872,0.0001653605722822,-0.0004792680847459,0.0003601763455663,-0.0004656376258936,,0.0000000000000000,0.0000000000000000,
1559013414.8532807826995850,2.0991399288177490,,0.0062490867306066,-0.0049859689590642,-0.0024275391367065,-0.0000781793103365,0.0000095767729335,0.0000779498316910,0.9999999938600524,-0.0845057865276461,0.2470136351560044,0.0094104329074647,0.0036862899658698,-0.0027700165541052,-0.0015860904415193,-0.0012094667203265,0.0006862483053747,0.0000491612246647,,0.0037245920093585,0.0014593189274381,0.0018194195298815,0.0000452053608667,0.0005873934933458,-0.0000412583801236,0.9999998256115376,-0.0704288468814915,0.3132080009324146,-0.0043341840155431,0.0031235220376402,-0.0038933986797929,0.0055238688364625,0.0007684917072766,-0.0006610307609662,0.0011769605334848,,0.0000000000000000,0.0000000000000000,
1559013414.8865907192230225,2.1324498653411865,,0.0063726114311995,-0.0050950538549894,-0.0025014385214669,-0.0000963810523109,0.0000111979304723,0.0000819751429469,0.9999999919326876,-0.0865895543045232,0.2472002211467849,0.0098714203746055,0.0039744995208848,-0.0038454754819371,-0.0017857239207078,-0.0004121206402003,0.0004209955871245,0.0003212773607917,,0.0018623154410093,0.0027256348443475,0.0001956494993356,0.0000609717752342,0.0005685389954785,-0.0000005049907428,0.9999998365227858,-0.0685993416432927,0.3110533887813620,0.0003396554353508,-0.0041805850341916,0.0011643896577880,0.0006084713968448,-0.0011163554154336,-0.0002244176284876,-0.0005613433313556,,0.0000000000000000,0.0000000000000000,
1559013414.9199106693267822,2.1657698154449463,,0.0064608637785846,-0.0051543388915224,-0.0022862039551516,-0.0000981655628560,0.0000091447374611,0.0000839802268504,0.9999999916136089,-0.0867930737358961,0.2469652850571182,0.0101015189725519,0.0041304034724545,-0.0040550442089520,-0.0016168963597149,0.0001214783839928,0.0001566419929551,0.0003245343863381,,0.0018623154410093,0.0027256348443475,0.0001956494993356,0.0000609717752342,0.0005685389954785,-0.0000005049907428,0.9999998365227858,-0.0685993416432927,0.3110533887813620,0.0003396554353508,-0.0041805850341916,0.0011643896577880,0.0006084713968448,-0.0011163554154336,-0.0002244176284876,-0.0005613433313556,,0.0000000000000000,0.0000000000000000,
1559013414.9532308578491211,2.1990900039672852,,0.0066782776503134,-0.0053090777015801,-0.0023750747728362,-0.0000959913860019,0.0000120829518545,0.0000812738305559,0.9999999920171103,-0.0865452400394738,0.2473015196892753,0.0097909122768003,0.0047768577976905,-0.0027381681866878,-0.0009790063635939,0.0001226081172216,0.0012256251685510,-0.0002005932662536,,0.0017819703080484,0.0027485697378166,0.0002144086046948,0.0000582800221329,0.0005613600279983,-0.0000004010503061,0.9999998407390859,-0.0689077309125702,0.3102307548704150,0.0003524282589109,-0.0039354576729238,0.0009255666518584,0.0008877887739800,-0.0007359915180132,0.0003025436890312,0.0002885470166802,,0.0000000000000000,0.0000000000000000,
1559013414.9865508079528809,2.2324099540710449,,0.0067618244070744,-0.0048900077725689,-0.0024474578093329,-0.0000922193367022,0.0000144406196127,0.0000875232034849,0.9999999918133757,-0.0861098906841355,0.2475726633656894,0.0105066677713546,0.0060604274640802,-0.0028621634102055,-0.0032838778367041,0.0006550774081911,-0.0001077116219055,0.0003277914086324,,0.0017819703080484,0.0027485697378166,0.0002144086046948,0.0000582800221329,0.0005613600279983,-0.0000004010503061,0.9999998407390859,-0.0689077309125702,0.3102307548704150,0.0003524282589109,-0.0039354576729238,0.0009255666518584,0.0008877887739800,-0.0007359915180132,0.0003025436890312,0.0002885470166802,,0.0000000000000000,0.0000000000000000,
1559013415.0198707580566406,2.2657299041748047,,0.0069617390995005,-0.0050302065475029,-0.0025480240899054,-0.0000974529549864,0.0000144735391691,0.0000958095719332,0.9999999905569821,-0.0867055295928819,0.2475778325894398,0.0114562094913427,0.0051881467711751,-0.0032863089973267,-0.0021329205102154,0.0001265882210971,0.0001603943419833,-0.0002080600862394,,0.0029704976370324,0.0010159144944673,-0.0068657866970963,0.0000582245274008,0.0005601235302483,0.0000018985634455,0.9999998414339528,-0.0689128105575490,0.3100893950405605,0.0006161232992979,0.0019557164050639,-0.0059154736809433,-0.0117896087467670,-0.0002207496145274,0.0013766620540991,-0.0006734695052728,,0.0000000000000000,0.0000000000000000,
1559013415.0531907081604004,2.2990498542785645,,0.0071173788927810,-0.0050255887339711,-0.0025586439011411,-0.0000931432031415,0.0000153607970312,0.0000834577155011,0.9999999920615997,-0.0862177561138791,0.2476774594548341,0.0100406428856145,0.0048891672115851,-0.0020897066377691,-0.0023917656219549,-0.0003963608810086,-0.0003685466393167,-0.0010158089726511,,0.0028302361133023,0.0011308112806345,-0.0055005617195409,0.0000614221750839,0.0005673859537669,0.0000062026473458,0.9999998371309983,-0.0685439934837356,0.3109222268541514,0.0011085002659068,0.0022205500863492,-0.0049788719043136,-0.0089428108185530,-0.0010673586511984,-0.0010183617705479,-0.0010928818956017,,0.0000000000000000,0.0000000000000000,
1559013415.0865106582641602,2.3323698043823242,,0.0072605250499627,-0.0051266723392005,-0.0026252228057043,-0.0001026154476186,0.0000150412381068,0.0000828701364168,0.9999999911881858,-0.0873034882864350,0.2476408356151353,0.0099733459592848,0.0048477359151382,-0.0021914261954621,-0.0022448267134664,-0.0001371588407200,0.0001612934728156,-0.0004769192141925,,0.0029878107440885,0.0007288817112278,-0.0061651333612094,0.0000439352569584,0.0005723284094916,-0.0000032104520452,0.9999998352497754,-0.0705530997770213,0.3114872255928340,0.0000279644039502,0.0016421368345618,-0.0055081960745156,-0.0084120603278279,0.0010094176977873,-0.0009097846341319,-0.0008456847863272,,0.0000000000000000,0.0000000000000000,
1559013415.1198308467864990,2.3656899929046631,,0.0074427799901560,-0.0050158421810600,-0.0026933375522247,-0.0001038620571067,0.0000204524981934,0.0000892240072290,0.9999999904167225,-0.0874431516913354,0.2482619671543790,0.0107005678637486,0.0047413926909604,-0.0022460141429409,-0.0028466465229601,0.0001240332770269,0.0001585181643938,0.0000582371413483,,0.0035860365057522,0.0049728162104847,-0.0003948088862355,0.0000461034086983,0.0005572411736923,0.0000432721577387,0.9999998427421228,-0.0702788005443683,0.3097651381373013,0.0053568951747581,0.0022059706971049,0.0089474814012647,0.0013144835829735,-0.0006860076682642,-0.0004370108363219,-0.0000765325530665,,0.0000000000000000,0.0000000000000000,
1559013415.1531507968902588,2.3990099430084229,,0.0076189379775171,-0.0051113833414667,-0.0028077629622778,-0.0001130044720996,0.0000125021904548,0.0000900611135482,0.9999999894813402,-0.0884904580980476,0.2473511606893101,0.0107977765351909,0.0046486907948900,-0.0008315105771975,-0.0025049599537698,0.0001362430832805,-0.0003665925176898,-0.0010106852534644,,0.0036304880783306,0.0051519430538680,-0.0003610028637882,0.0000409396240160,0.0005788687692688,0.0000372948730190,0.9999998309219795,-0.0708737745339409,0.3122426262887678,0.0046684425669311,0.0018805343424901,0.0090315490961075,0.0019654412753880,-0.0017144266748801,0.0002639917656779,-0.0012922289315611,,0.0000000000000000,0.0000000000000000,
1559013415.1864707469940186,2.4323298931121826,,0.0076786196576735,-0.0050411671267797,-0.0026945775566677,-0.0001204820792397,0.0000121924433277,0.0000888221415099,0.9999999887230201,-0.0893479428881242,0.2473155391822673,0.0106558398720380,0.0042349200642759,-0.0031356179202812,-0.0007622455797806,-0.0001442588070299,0.0006901565261374,0.0000594086934242,,0.0036304880783306,0.0051519430538680,-0.0003610028637882,0.0000409396240160,0.0005788687692688,0.0000372948730190,0.9999998309219795,-0.0708737745339409,0.3122426262887678,0.0046684425669311,0.0018805343424901,0.0090315490961075,0.0019654412753880,-0.0017144266748801,0.0002639917656779,-0.0012922289315611,,0.0000000000000000,0.0000000000000000,
1559013415.2197906970977783,2.4656498432159424,,0.0078539819706027,-0.0051424294152247,-0.0027594906146512,-0.0001156473480319,0.0000196669730883,0.0000899029894259,0.9999999890781767,-0.0887933186672829,0.2481721847383040,0.0107784754394308,0.0054305427556525,-0.0031032536205083,-0.0030058629210863,0.0001214783063943,0.0001566419800602,0.0003245343852643,,0.0025138590955969,0.0033192539606244,0.0009078161052141,0.0000365193240325,0.0005775845015205,0.0000439068098541,0.9999998315673231,-0.0713766200413169,0.3120964502441695,0.0054260206836029,-0.0019299490377307,0.0016534070018679,0.0051813190802932,0.0001960064255400,0.0007469583069906,-0.0014681906905025,,0.0000000000000000,0.0000000000000000,
1559013415.2531106472015381,2.4989697933197021,,0.0080525604547139,-0.0050934251836267,-0.0026893649662924,-0.0001150090925959,0.0000181075429294,0.0000800510399360,0.9999999900184283,-0.0887250609258159,0.2479918624728313,0.0096497733728824,0.0066272502587278,-0.0015049799182341,-0.0047495959020654,-0.0003979208216822,-0.0006367305263962,-0.0007513784547692,,0.0025138590955969,0.0033192539606244,0.0009078161052141,0.0000365193240325,0.0005775845015205,0.0000439068098541,0.9999998315673231,-0.0713766200413169,0.3120964502441695,0.0054260206836029,-0.0019299490377307,0.0016534070018679,0.0051813190802932,0.0001960064255400,0.0007469583069906,-0.0014681906905025,,0.0000000000000000,0.0000000000000000,
1559013415.2864308357238770,2.5322899818420410,,0.0082506430677072,-0.0051928552925893,-0.0027945563929330,-0.0001128745516437,0.0000282358082577,0.0000831338218998,0.9999999897754213,-0.0884788486351727,0.2491529610736810,0.0100013802852054,0.0054046649603652,-0.0023852464423262,-0.0028746588562134,0.0003918951291945,0.0004276790903809,-0.0002036315191146,,0.0024622045541892,0.0033692700341506,0.0010831382365003,0.0000311932746903,0.0005793344129262,0.0000361975982775,0.9999998310441615,-0.0719912381284506,0.3122958639970193,0.0045419871211058,-0.0010414639255032,0.0009290307061747,0.0048048202879727,0.0009482172317803,0.0003190914285369,-0.0010488524567336,,0.0000000000000000,0.0000000000000000,
1559013415.3197507858276367,2.5656099319458008,,0.0083252862458618,-0.0052734660457992,-0.0025000080926534,-0.0000972839786443,0.0000263899869052,0.0000815699755512,0.9999999915928677,-0.0866930905126411,0.2489410435744382,0.0098225253003049,0.0049678717150816,-0.0022684719696546,-0.0019031287014019,0.0006581971233882,0.0004286561471795,-0.0002010696515161,,-0.0004187368762987,0.0000351582624904,-0.0101975856681350,0.0000339133369935,0.0005851228979050,0.0000428547801781,0.9999998273222590,-0.0716758011117047,0.3129601442598663,0.0053041828621122,-0.0091990232467651,-0.0111310230568051,-0.0174473952502012,-0.0002537416294217,0.0002517852990422,0.0007231563213281,,0.0000000000000000,0.0000000000000000,
1559013415.3530707359313965,2.5989298820495605,,0.0084988285411882,-0.0053674988239479,-0.0026196302144381,-0.0001007379992994,0.0000153702014656,0.0000849766519281,0.9999999911972907,-0.0870873058783026,0.2476788567640244,0.0102146866295397,0.0053860370094193,-0.0022259841383804,-0.0027651105599294,-0.0004070108524167,0.0004247478780079,-0.0002113171369753,,-0.0014185691403290,-0.0004501569395737,-0.0120030723032950,0.0000434684384757,0.0005856383472689,0.0000345169022151,0.9999998269733873,-0.0705855220237378,0.3130179456839972,0.0043492845201148,-0.0107360417023301,-0.0110346311703324,-0.0169592592865229,-0.0017026001587510,0.0004706384497695,-0.0002738574403338,,0.0000000000000000,0.0000000000000000,
1559013415.3863906860351562,2.6322498321533203,,0.0085534453576901,-0.0053436883231459,-0.0028283419590136,-0.0001068965462942,0.0000224302016693,0.0000831293945799,0.9999999905797592,-0.0877938729720272,0.2484876305970015,0.0100018406561450,0.0054184451852395,-0.0014682789638675,-0.0036300414396514,-0.0006682029701636,0.0004275231864297,-0.0007464734925161,,0.0034025515714207,0.0019694676577049,0.0014925504697577,0.0000218994381274,0.0006415251941719,0.0000333035632454,0.9999997934283349,-0.0730576655340355,0.3194220055325690,0.0042004903961273,0.0078299734741449,-0.0012851294595748,0.0068843513727188,0.0005175640108064,-0.0001538863434689,-0.0014675890561193,,0.0000000000000000,0.0000000000000000,
1559013415.4197106361389160,2.6655697822570801,,0.0087697048208686,-0.0054351829104673,-0.0029683981807109,-0.0001063602908856,0.0000256433393095,0.0000789319455139,0.9999999908998278,-0.0877344710814384,0.2488551382117428,0.0095203211243706,0.0049381997093978,-0.0037929726470824,-0.0023602703213740,-0.0001483736847272,0.0004200964042361,0.0005901364548849,,0.0034025515714207,0.0019694676577049,0.0014925504697577,0.0000218994381274,0.0006415251941719,0.0000333035632454,0.9999997934283349,-0.0730576655340355,0.3194220055325690,0.0042004903961273,0.0078299734741449,-0.0012851294595748,0.0068843513727188,0.0005175640108064,-0.0001538863434689,-0.0014675890561193,,0.0000000000000000,0.0000000000000000,
1559013415.4530308246612549,2.6988899707794189,,0.0088475327808650,-0.0050699871632478,-0.0026648444159323,-0.0001061404724020,0.0000189400354530,0.0000769259271477,0.9999999912289385,-0.0877103286021105,0.2480866674701325,0.0092915414408025,0.0063466886881955,-0.0018259098157724,-0.0043208191336334,0.0003978653331651,-0.0011701671809361,-0.0002148317997354,,0.0034025515714207,0.0019694676577049,0.0014925504697577,0.0000218994381274,0.0006415251941719,0.0000333035632454,0.9999997934283349,-0.0730576655340355,0.3194220055325690,0.0042004903961273,0.0078299734741449,-0.0012851294595748,0.0068843513727188,0.0005175640108064,-0.0001538863434689,-0.0014675890561193,,0.0000000000000000,0.0000000000000000,
1559013415.4863507747650146,2.7322099208831787,,0.0089080289724124,-0.0050918859651355,-0.0026957150750545,-0.0001061722516288,0.0000177327346101,0.0000765295217222,0.9999999912781178,-0.0877141757937601,0.2479482566872885,0.0092463133836881,0.0059864472885893,-0.0018619450243148,-0.0026707475888586,0.0001265881055614,0.0001603942659799,-0.0002080600917833,,0.0037135629902421,0.0019103409075589,0.0018008935112557,0.0000195839435346,0.0006464741633310,0.0000105849228906,0.9999997907877705,-0.0733358442692406,0.3199857409696575,0.0015961810339752,0.0079284692183137,-0.0015257764607668,0.0084439404308796,-0.0005314225563779,-0.0005884833517484,-0.0003906534984708,,0.0000000000000000,0.0000000000000000,
