#Time(sec),Dtime(sec),,x(m),y(m),z(m),qx,qy,qz,qw,roll_x_G(deg),pitch_y_G(deg),yaw_z_G(deg),vx(m/s),vy(m/s),vz(m/s),wx(rad/s),wy(rad/s),wz(rad/s),,gt_x(m),gt_y(m),gt_z(m),gt_qx,gt_qy,gt_qz,gt_qw,gt_groll_x_G(deg),gt_pitch_y_G(deg),gt_yaw_z_G(deg),gt_vx(m/s),gt_vy(m/s),gt_vz(m/s),gt_wx(rad/s),gt_wy(rad/s),gt_wz(rad/s),,Sr,Sr_avg,
1559013412.7541408538818359,0.0000000000000000,,0.0000000000000002,0.0000000000000001,-0.0000000000000001,0.0000000000000000,-0.0000000000000001,0.0000000000000000,1.0000000000000000,-0.0755855138669150,0.2459037397968158,0.0004794994091153,0.0000000000000000,0.0000000000000000,0.0000000000000000,0.0000000000000000,0.0000000000000000,0.0000000000000000,,0.0000000000000000,0.0000000000000000,0.0000000000000000,0.0000000000000000,0.0000000000000000,0.0000000000000000,1.0000000000000000,-0.0755855138669150,0.2459037397968215,0.0004794994091152,-0.0098102642223239,-0.0059528849087656,-0.0021041124127805,0.0008114594966173,-0.0000641869410174,-0.0007574954070151,,0.0000000000000000,0.0000000000000000,
1559013412.7874608039855957,0.0333199501037598,,0.0000000000000002,0.0000000000000001,-0.0000000000000001,0.0000000000000000,-0.0000000000000001,0.0000000000000000,1.0000000000000000,-0.0755855138669150,0.2459037397968158,0.0004794994091153,0.0000000000000000,0.0000000000000000,0.0000000000000000,0.0000000000000000,0.0000000000000000,0.0000000000000000,,0.0000000000000000,0.0000000000000000,0.0000000000000000,0.0000000000000000,0.0000000000000000,0.0000000000000000,1.0000000000000000,-0.0755855138669150,0.2459037397968215,0.0004794994091152,-0.0098102642223239,-0.0059528849087656,-0.0021041124127805,0.0008114594966173,-0.0000641869410174,-0.0007574954070151,,0.0000000000000000,0.0000000000000000,
1559013412.8207807540893555,0.0666399002075195,,0.0000219726581638,-0.0000260111889973,-0.0000459141663904,-0.0000208610050351,-0.0000137221306289,-0.0000034844792411,0.9999999996821901,-0.0779777081630646,0.2443307657790641,0.0000823114382821,0.0005549145090711,-0.0009140744155948,-0.0007645881653806,-0.0006713226546122,-0.0001088443910840,-0.0002176123651700,,0.0026245542083911,0.0026448552001494,-0.0084863851899029,-0.0000333937179824,0.0001718520074773,-0.0000101301488424,0.9999999846245635,-0.0794174526191618,0.2655949411350161,-0.0007079784706163,0.0011400097282603,-0.0002242026966996,-0.0186141021549702,-0.0007273238734342,-0.0001038627669914,-0.0002373664610786,,0.0000000000000000,0.0000000000000000,
1559013412.8541007041931152,0.0999598503112793,,0.0000608926743231,-0.0000640802948601,-0.0001140602429562,-0.0000373096937066,-0.0000189844924195,-0.0000087132854731,0.9999999990858274,-0.0798651435414091,0.2437269247291102,-0.0005160265755550,0.0011061855532015,-0.0033799717536283,-0.0017536299372295,-0.0014824384616985,0.0004133351236126,0.0008436244272202,,0.0013593040360304,0.0008173975454188,-0.0093296534036653,-0.0000343508870352,0.0001711666929228,0.0000003936259792,0.9999999847609122,-0.0795217528043334,0.2655180411741611,0.0004980565774619,-0.0027831455226988,-0.0074895452708006,-0.0201553516089916,-0.0013698628172278,0.0006960678729229,-0.0001766680798028,,0.0000000000000000,0.0000000000000000,
1559013412.8874206542968750,0.1332798004150391,,0.0001262903034411,-0.0001468154741993,-0.0002142065874932,-0.0000378024141703,-0.0000235806923088,-0.0000050935236011,0.9999999989944923,-0.0799198270708824,0.2432008019201591,-0.0001005132246582,0.0021184657892204,-0.0024107857097970,-0.0026184181863062,0.0001285783637746,-0.0003722209284548,-0.0002117934720251,,0.0013593040360304,0.0008173975454188,-0.0093296534036653,-0.0000343508870352,0.0001711666929228,0.0000003936259792,0.9999999847609122,-0.0795217528043334,0.2655180411741611,0.0004980565774619,-0.0027831455226988,-0.0074895452708006,-0.0201553516089916,-0.0013698628172278,0.0006960678729229,-0.0001766680798028,,0.0000000000000000,0.0000000000000000,
1559013412.9207408428192139,0.1665999889373779,,0.0001876071963411,-0.0002485065635448,-0.0002723575101359,-0.0000332340376668,-0.0000278667317498,-0.0000049033733097,0.9999999990474505,-0.0793962315090670,0.2427096905476230,-0.0000780715043153,0.0016332172232536,-0.0030002443095807,-0.0000183282768429,0.0009260591413560,0.0006978172556181,-0.0004629382745979,,0.0018767528659337,-0.0015868478416372,-0.0062711862608355,-0.0000291626588616,0.0002160709066437,-0.0000033503031968,0.9999999762258388,-0.0789291896576434,0.2706631018623400,0.0000621929295683,-0.0001832428679336,-0.0139995729550719,-0.0103720519691706,-0.0000324573375110,0.0006396181997843,0.0005033669876866,,0.0000000000000000,0.0000000000000000,
1559013412.9540607929229736,0.1999199390411377,,0.0002510355284044,-0.0003552317527220,-0.0002739830334416,-0.0000129934686530,-0.0000142844809747,-0.0000089746469803,0.9999999997732896,-0.0770788454877928,0.2442654901962383,-0.0005467471256826,0.0015572095440772,-0.0016274100853720,0.0003069651755764,0.0011929260021615,0.0012332859105604,-0.0007229402316692,,0.0018767528659337,-0.0015868478416372,-0.0062711862608355,-0.0000291626588616,0.0002160709066437,-0.0000033503031968,0.9999999762258388,-0.0789291896576434,0.2706631018623400,0.0000621929295683,-0.0001832428679336,-0.0139995729550719,-0.0103720519691706,-0.0000324573375110,0.0006396181997843,0.0005033669876866,,0.0000000000000000,0.0000000000000000,
1559013412.9873807430267334,0.2332398891448975,,0.0003049992330981,-0.0004089312959995,-0.0003164140705479,-0.0000144173017045,-0.0000098617901226,-0.0000141313640163,0.9999999997475956,-0.0772445424394733,0.2447715032002950,-0.0011383418386656,0.0011389741805766,-0.0019570558982999,-0.0014499054642399,-0.0004121206084769,0.0004209957160276,0.0003212774096721,,0.0001864124072654,0.0012166738894161,0.0004830618136631,-0.0000185716344986,0.0002542559187380,0.0000077107003256,0.9999999674747831,-0.0777098268087173,0.2750404781751465,0.0013241122817303,-0.0062631070613861,-0.0018153276760131,0.0017081610858440,-0.0014693180564791,-0.0002084249572363,0.0000913238181965,,0.0000000000000000,0.0000000000000000,
1559013413.0207006931304932,0.2665598392486572,,0.0003431363790865,-0.0004716913804853,-0.0004165912864769,-0.0000362799963632,-0.0000178833168929,-0.0000100745123364,0.9999999991312265,-0.0797478174257171,0.2438528996089663,-0.0006721862495950,0.0008971832518353,-0.0020463925252434,-0.0023451758404527,-0.0009427345252527,-0.0001135738131031,0.0003124202551737,,-0.0010225131958147,0.0024724658105414,0.0010622308195479,-0.0000320924467910,0.0002477205379965,0.0000169963066860,0.9999999686578672,-0.0792543701405591,0.2742930285337097,0.0023887935773854,-0.0104457912966609,0.0031094646546990,0.0015212101861835,-0.0004041187057737,-0.0025469835381955,-0.0005066208541393,,0.0000000000000000,0.0000000000000000,
1559013413.0540206432342529,0.2998797893524170,,0.0003903418709308,-0.0005530731092706,-0.0004847153840386,-0.0000454537236579,-0.0000198192877273,-0.0000091906053814,0.9999999987283439,-0.0807986128321173,0.2436311815676687,-0.0005705755700852,0.0017486898863368,-0.0027608805572256,-0.0017974615562203,0.0003923254197449,-0.0003731200542663,0.0000570656395446,,-0.0012296630497877,0.0025351477552150,0.0010995718084875,-0.0000417926695341,0.0002369557506546,0.0000081066828663,0.9999999710198130,-0.0803705614379537,0.2730581080783792,0.0013715104470487,-0.0104640517383814,0.0027693663723767,0.0022680787369609,-0.0004222550487611,-0.0009954593842849,-0.0014647236093879,,0.0000000000000000,0.0000000000000000,
1559013413.0873408317565918,0.3331999778747559,,0.0004235874397329,-0.0005977400770242,-0.0004865177557676,-0.0000408711846025,-0.0000194033002519,-0.0000116517162950,0.9999999989086480,-0.0802746982140187,0.2436784713886644,-0.0008526756483052,0.0017243360283605,-0.0031910812980223,-0.0011785562839092,0.0001260234255512,-0.0003740971110650,0.0000545037719461,,-0.0012296630497877,0.0025351477552150,0.0010995718084875,-0.0000417926695341,0.0002369557506546,0.0000081066828663,0.9999999710198130,-0.0803705614379537,0.2730581080783792,0.0013715104470487,-0.0104640517383814,0.0027693663723767,0.0022680787369609,-0.0004222550487611,-0.0009954593842849,-0.0014647236093879,,0.0000000000000000,0.0000000000000000,
1559013413.1206507682800293,0.3665099143981934,,0.0004876575849266,-0.0007143669618985,-0.0005479057109075,-0.0000410329808378,-0.0000277650294793,-0.0000041845541078,0.9999999987639436,-0.0802895733504135,0.2427214524579455,0.0000043088287585,0.0027634462239311,-0.0047841540547983,-0.0033739197695062,0.0001177937450882,-0.0009142172565645,0.0011159593238271,,-0.0014363898402221,0.0025876484190226,0.0011550211790302,-0.0000418582528761,0.0002337708489089,-0.0000012871724713,0.9999999717987096,-0.0803829489886726,0.2726916805008144,0.0002955376929486,-0.0104716969653964,0.0020642662420869,0.0032653859816492,0.0001245724561159,0.0002189587830799,0.0001310294464929,,0.0000000000000000,0.0000000000000000,
1559013413.1539707183837891,0.3998298645019531,,0.0005992897967622,-0.0008576743340194,-0.0007333826875866,-0.0000265381307768,-0.0000211865988019,-0.0000015463263735,0.9999999994222324,-0.0786273024382508,0.2434756981446572,0.0003055692776587,0.0026080082544415,-0.0025328681427888,-0.0020234629333699,0.0006597571479813,0.0006968401992942,-0.0004655001468985,,-0.0016435135824158,0.0026275468295871,0.0012304795801690,-0.0000513339756734,0.0002473163494147,-0.0000056877855006,0.9999999680835472,-0.0814710891680904,0.2742431862158812,-0.0002111219548778,-0.0103930579498410,0.0014988548355177,0.0039006241131574,0.0011318795150146,0.0002227528020740,-0.0000919199519558,,0.0000000000000000,0.0000000000000000,
1559013413.1872906684875488,0.4331498146057129,,0.0006705944338077,-0.0009385563319088,-0.0007892980090964,-0.0000239243282570,-0.0000153890660361,-0.0000099972075845,0.9999999995454295,-0.0783319288937645,0.2441387455742295,-0.0006637369691696,0.0014397257532674,-0.0019579189397085,0.0001408510949582,0.0001302729644582,0.0012312538768835,-0.0009994849525969,,0.0013329283684650,-0.0002645851969253,-0.0013593500048340,-0.0000230157938096,0.0002529160120719,0.0000307535759244,0.9999999672789903,-0.0782070900445297,0.2748904838150207,0.0039647358401133,0.0011904048733413,-0.0095880255103111,-0.0023563199210912,0.0018597589805722,0.0016142132226378,-0.0009464622708037,,0.0000000000000000,0.0000000000000000,
1559013413.2206108570098877,0.4664700031280518,,0.0007277499870788,-0.0008891502741752,-0.0007322301957660,-0.0000182413423474,-0.0000186755221778,-0.0000192788266558,0.9999999994734027,-0.0776852457000235,0.2437607296290864,-0.0017268471504541,0.0022534645336264,-0.0001498708272880,-0.0023634484586070,0.0012059961659026,-0.0008934233754452,-0.0012704684033793,,0.0013329283684650,-0.0002645851969253,-0.0013593500048340,-0.0000230157938096,0.0002529160120719,0.0000307535759244,0.9999999672789903,-0.0782070900445297,0.2748904838150207,0.0039647358401133,0.0011904048733413,-0.0095880255103111,-0.0023563199210912,0.0018597589805722,0.0016142132226378,-0.0009464622708037,,0.0000000000000000,0.0000000000000000,
1559013413.2539308071136475,0.4997899532318115,,0.0008164839083151,-0.0010125000190043,-0.0008242870369870,-0.0000074806278946,-0.0000191323353525,-0.0000098931952762,0.9999999997400594,-0.0764475621197310,0.2437098334978322,-0.0006512778382616,0.0023055091497994,-0.0030414486594312,-0.0029509528671829,-0.0001473785160068,0.0001537888844405,0.0005882698132079,,-0.0003187015053108,0.0000959066590073,-0.0209231593457670,-0.0000160718343075,0.0002776230263452,0.0000108136414350,0.9999999612751075,-0.0774217422934056,0.2777186218234659,0.0016761845038021,-0.0058840299025178,-0.0058508231304586,-0.0372426919639111,0.0013397382572293,0.0005982400616631,-0.0003023762255907,,0.0000000000000000,0.0000000000000000,
1559013413.2872507572174072,0.5331099033355713,,0.0008923245121344,-0.0010921005868637,-0.0009072250882468,-0.0000056884760199,-0.0000201550242371,0.0000003035627145,0.9999999997806621,-0.0762372035371931,0.2435941922619179,0.0005173454382500,0.0028386552872659,-0.0024719055520456,-0.0030094855693728,0.0006566373430211,0.0001604724200568,0.0000633609280613,,-0.0003187015053108,0.0000959066590073,-0.0209231593457670,-0.0000160718343075,0.0002776230263452,0.0000108136414350,0.9999999612751075,-0.0774217422934056,0.2777186218234659,0.0016761845038021,-0.0058840299025178,-0.0058508231304586,-0.0372426919639111,0.0013397382572293,0.0005982400616631,-0.0003023762255907,,0.0000000000000000,0.0000000000000000,
1559013413.3205707073211670,0.5664298534393311,,0.0009939171905189,-0.0012091721057348,-0.0010013996782350,-0.0000014850375588,-0.0000206999147067,0.0000006543937168,0.9999999997844401,-0.0757553529703770,0.2435318054038849,0.0005576207946272,0.0028812145223976,-0.0036708676075015,-0.0020672307349109,0.0001275833293773,-0.0001059132195666,-0.0002099267706490,,-0.0005509754171336,-0.0001456836824130,-0.0224293881837500,-0.0000085451778506,0.0002747311364235,0.0000002491187608,0.9999999622248595,-0.0765647796794137,0.2773856195816288,0.0004662457421669,-0.0052228411659598,-0.0065887318924069,-0.0385861136019230,-0.0007309849024750,-0.0003088524681516,-0.0003365832380950,,0.0000000000000000,0.0000000000000000,
1559013413.3538906574249268,0.5997498035430908,,0.0010982032653406,-0.0014171058944060,-0.0010363961155458,0.0000043933537863,-0.0000162811895141,0.0000009099977408,0.9999999998573966,-0.0750816162705828,0.2440381916268717,0.0005862313937487,0.0023080207251632,-0.0042605693583277,-0.0012322200459926,0.0006530873697063,0.0004249039443436,0.0003315248717916,,-0.0005509754171336,-0.0001456836824130,-0.0224293881837500,-0.0000085451778506,0.0002747311364235,0.0000002491187608,0.9999999622248595,-0.0765647796794137,0.2773856195816288,0.0004662457421669,-0.0052228411659598,-0.0065887318924069,-0.0385861136019230,-0.0007309849024750,-0.0003088524681516,-0.0003365832380950,,0.0000000000000000,0.0000000000000000,
1559013413.3872108459472656,0.6330699920654297,,0.0011827270039770,-0.0015626882900069,-0.0011056221768601,0.0000078473312895,-0.0000121962906589,0.0000079802747239,0.9999999998629927,-0.0746823544610136,0.2445073482159786,0.0013958118462844,0.0025622541043267,-0.0044184697541679,-0.0033223702097640,-0.0001479433812870,-0.0003807027097152,0.0008508336236425,,0.0040371625405149,0.0010407715328566,-0.0011724512895224,0.0000182179897012,0.0003403120708404,-0.0000080441169780,0.9999999418955441,-0.0735023907927335,0.2848993990187070,-0.0004930345491329,0.0076945354230702,-0.0024773650802672,0.0028743059374392,0.0014570327475667,-0.0012100221356377,0.0000713423796697,,0.0000000000000000,0.0000000000000000,
1559013413.4205307960510254,0.6663899421691895,,0.0012618608630846,-0.0016625283208733,-0.0011314567672686,-0.0000012826342858,-0.0000167954228303,0.0000061575127251,0.9999999998391769,-0.0757294655832846,0.2439800595116344,0.0011876456462012,0.0025351413938802,-0.0042052378384043,-0.0041811570735683,-0.0001469483454812,-0.0006470104174819,0.0008489669139919,,0.0040371625405149,0.0010407715328566,-0.0011724512895224,0.0000182179897012,0.0003403120708404,-0.0000080441169780,0.9999999418955441,-0.0735023907927335,0.2848993990187070,-0.0004930345491329,0.0076945354230702,-0.0024773650802672,0.0028743059374392,0.0014570327475667,-0.0012100221356377,0.0000713423796697,,0.0000000000000000,0.0000000000000000,
1559013413.4538507461547852,0.6997098922729492,,0.0013453263674215,-0.0017589612546735,-0.0012528132637647,-0.0000100271853327,-0.0000277925608203,0.0000034957766590,0.9999999995574045,-0.0767328184896622,0.2427194822069039,0.0008843225481100,0.0031076075612486,-0.0022259690465305,-0.0040982972103435,0.0001356783142979,-0.0009010839795952,-0.0007481214004065,,0.0028244609372718,-0.0020864745447010,-0.0040981470072898,0.0000272535559166,0.0003338402301539,-0.0000050454464155,0.9999999438912424,-0.0724653892738492,0.2841582340357628,-0.0001480977271716,0.0034915832802653,-0.0125113883987069,-0.0027146551292390,0.0007540810620412,0.0003361692652106,-0.0002933166106232,,0.0000000000000000,0.0000000000000000,
1559013413.4871706962585449,0.7330298423767090,,0.0014505925137482,-0.0017406520546906,-0.0013584681791901,0.0000029372057642,-0.0000222057082271,-0.0000060438074877,0.9999999997308759,-0.0752518775988201,0.2433582436441031,-0.0002097261453766,0.0034309965922744,-0.0046276328116078,-0.0027012435100572,0.0001189234799578,0.0001547659384204,0.0005908316580518,,0.0009705727291415,0.0016289898501757,-0.0079331041607371,0.0000413433631328,0.0003589990839138,-0.0000095545487231,0.9999999346595452,-0.0708532497001342,0.2870405726501778,-0.0006679541082759,-0.0035913039464504,0.0022433528210968,-0.0086488155648112,-0.0000468759790238,-0.0001395221770508,-0.0007117160712369,,0.0000000000000000,0.0000000000000000,
1559013413.5204906463623047,0.7663497924804688,,0.0015785988919199,-0.0018953811809434,-0.0014627825360768,0.0000037035866285,-0.0000214920290329,0.0000036419185127,0.9999999997555563,-0.0751593181011505,0.2434414858143188,0.0009000758143752,0.0038157845340790,-0.0054442539656498,-0.0033791133084401,0.0003785556951973,-0.0001161932511376,0.0013904185550406,,0.0009049911250469,0.0016716632260573,-0.0081049924384131,0.0000501230371511,0.0003626649995588,-0.0000170555534951,0.9999999328354414,-0.0698511788821507,0.2874595744438982,-0.0015276880078354,-0.0032216487452388,0.0018814789364114,-0.0086492393165827,0.0019662324339151,0.0004521511436906,-0.0012100221356377,,0.0000000000000000,0.0000000000000000,
1559013413.5538108348846436,0.7996699810028076,,0.0016796408402169,-0.0020616937147813,-0.0015653320887226,0.0000041224996329,-0.0000292370536667,0.0000197870520739,0.9999999993683362,-0.0751034261901606,0.2425564048205065,0.0027513529334906,0.0034985976667621,-0.0056066197344379,-0.0038657518226183,0.0006458527251967,-0.0003815239021056,0.0013911137129884,,0.0030406504889629,0.0022882742342330,-0.0062925504181727,0.0000611729674452,0.0003626874159403,-0.0000190422897520,0.9999999321765465,-0.0685860076404653,0.2874618788989146,-0.0017548979202029,0.0040563573129475,0.0002654088311829,-0.0037910772953182,0.0001189401809825,-0.0001427652314305,-0.0001788293011487,,0.0000000000000000,0.0000000000000000,
1559013413.5871307849884033,0.8329899311065674,,0.0017898520389601,-0.0022036256356495,-0.0016678358944057,0.0000116321448284,-0.0000291246004345,0.0000235142918452,0.9999999992317644,-0.0742410634841962,0.2425698323431791,0.0031784246270227,0.0025137896077935,-0.0034462602707953,-0.0014079673030125,0.0011872512625802,0.0006950419600977,0.0000722180545563,,0.0034378551607457,0.0025472472578253,-0.0043545256517963,0.0000600555418070,0.0003908734422606,-0.0000220183470360,0.9999999215632351,-0.0687157343071086,0.2906913252913965,-0.0021000470966965,0.0047460272908211,0.0013947092229500,0.0006963039049879,-0.0011309223482385,-0.0014337574830279,0.0015923746395856,,0.0000000000000000,0.0000000000000000,
1559013413.6204507350921631,0.8663098812103271,,0.0018279239278511,-0.0021700286238176,-0.0016549465633540,0.0000124715789694,-0.0000297110899146,0.0000258387543417,0.9999999991470349,-0.0741437373406650,0.2425029714041034,0.0034448755775598,0.0029243101917998,-0.0033997311814793,-0.0023017228444473,0.0001240333574169,0.0001585183173697,0.0000582371648608,,0.0036291435458029,0.0025966150466021,-0.0043469637549630,0.0000571760738891,0.0003901364780748,-0.0000200743580797,0.9999999220607196,-0.0690446522828446,0.2906071492304136,-0.0018773020674637,0.0051087369211018,0.0014169181231409,0.0000617773694103,-0.0004234086372890,-0.0003483407199383,-0.0010793746914715,,0.0000000000000000,0.0000000000000000,
1559013413.6537706851959229,0.8996298313140869,,0.0019286999144801,-0.0022751214480247,-0.0017497837597258,0.0000123439026485,-0.0000333564618817,0.0000279911434439,0.9999999989757352,-0.0741573260960913,0.2420855655596556,0.0036920694567846,0.0032881418556715,-0.0041676373543662,-0.0029034759507433,-0.0004136805087576,0.0001528118255500,0.0005857079188059,,0.0029954825554080,0.0032025419981495,0.0006789376870445,0.0000544467831987,0.0004025603575399,-0.0000166703444748,0.9999999173513996,-0.0693556131155782,0.2920313069036726,-0.0014891490537248,0.0025517339818180,0.0034124318044633,0.0093907183036208,0.0006610900745727,-0.0005176760023460,0.0005640679155476,,0.0000000000000000,0.0000000000000000,
1559013413.6870906352996826,0.9329497814178467,,0.0020078928306988,-0.0021686419568125,-0.0018745457793321,0.0000004454358682,-0.0000293060555370,0.0000322389165033,0.9999999990508045,-0.0755187044868565,0.2425503875561981,0.0041782657709645,0.0030551676161302,-0.0043583444334346,-0.0028529255126604,-0.0012110265889210,0.0004180645455310,0.0003135917816898,,0.0029821578802633,0.0023954715740928,-0.0033581745908973,0.0000636555501370,0.0004000566115030,-0.0000217090852176,0.9999999177156937,-0.0683030665391002,0.2917436920126553,-0.0020657681279611,0.0022860211320221,-0.0006600108463317,0.0015310561284423,-0.0004109627625439,-0.0006739070522599,-0.0001190709881485,,0.0000000000000000,0.0000000000000000,
1559013413.7204108238220215,0.9662699699401855,,0.0020883556232489,-0.0022691813100150,-0.0019506973410452,-0.0000086926867019,-0.0000273561593359,0.0000328666878834,0.9999999990479294,-0.0765655433383635,0.2427739583105770,0.0042499376465879,0.0038308327831910,-0.0050091610786558,-0.0045146098930043,-0.0004097003673425,-0.0009124190018648,0.0005782410889105,,0.0029821578802633,0.0023954715740928,-0.0033581745908973,0.0000636555501370,0.0004000566115030,-0.0000217090852176,0.9999999177156937,-0.0683030665391002,0.2917436920126553,-0.0020657681279611,0.0022860211320221,-0.0006600108463317,0.0015310561284423,-0.0004109627625439,-0.0006739070522599,-0.0001190709881485,,0.0000000000000000,0.0000000000000000,
1559013413.7537307739257812,0.9995899200439453,,0.0021631188687330,-0.0023514517446700,-0.0020124076477349,-0.0000038574789338,-0.0000286000260994,0.0000372263330157,0.9999999988906794,-0.0760093434174623,0.2426320644020038,0.0047496936364986,0.0036069966451145,-0.0048330016008238,-0.0027207703985635,0.0001189234778217,0.0001547659427992,0.0005908316627102,,0.0029821578802633,0.0023954715740928,-0.0033581745908973,0.0000636555501370,0.0004000566115030,-0.0000217090852176,0.9999999177156937,-0.0683030665391002,0.2917436920126553,-0.0020657681279611,0.0022860211320221,-0.0006600108463317,0.0015310561284423,-0.0004109627625439,-0.0006739070522599,-0.0001190709881485,,0.0000000000000000,0.0000000000000000,
1559013413.7870507240295410,1.0329098701477051,,0.0022543449073298,-0.0024557866921034,-0.0020879157778264,0.0000003391670369,-0.0000279657721548,0.0000419841710531,0.9999999987275650,-0.0755261162099872,0.2427054454440599,0.0052947965684274,0.0034216739771524,-0.0027491955979300,-0.0025148702774667,0.0001281481948945,0.0004285783765385,-0.0004724906062945,,0.0028483643782737,0.0054159764026453,-0.0048358352553247,0.0000756474026680,0.0004063720092715,-0.0000323465478623,0.9999999140464770,-0.0669346459473181,0.2924658971404100,-0.0032850968095539,0.0015071481466293,0.0085062691941857,-0.0014686621725559,-0.0004123515100218,-0.0004598114755936,-0.0001185764558613,,0.0000000000000000,0.0000000000000000,
1559013413.8203706741333008,1.0662298202514648,,0.0023483969192712,-0.0024946342975255,-0.0021820411831106,-0.0000041872519931,-0.0000285718236212,0.0000462587826550,0.9999999985131215,-0.0760427197298192,0.2426366669816172,0.0057847413010808,0.0037993979564333,-0.0040965329204943,-0.0039777794327989,-0.0004126854747749,-0.0001134958830330,0.0005838412150916,,0.0028483643782737,0.0054159764026453,-0.0048358352553247,0.0000756474026680,0.0004063720092715,-0.0000323465478623,0.9999999140464770,-0.0669346459473181,0.2924658971404100,-0.0032850968095539,0.0015071481466293,0.0085062691941857,-0.0014686621725559,-0.0004123515100218,-0.0004598114755936,-0.0001185764558613,,0.0000000000000000,0.0000000000000000,
1559013413.8536908626556396,1.0995500087738037,,0.0024620728098059,-0.0025809641803707,-0.0023095721481357,-0.0000056233197732,-0.0000328717398194,0.0000457200347538,0.9999999983987528,-0.0762075639277284,0.2421438591659598,0.0057236621392049,0.0038383492929936,-0.0010317055004319,-0.0045321096657621,0.0006698422020717,-0.0006309459764076,-0.0010074281997680,,0.0028483643782737,0.0054159764026453,-0.0048358352553247,0.0000756474026680,0.0004063720092715,-0.0000323465478623,0.9999999140464770,-0.0669346459473181,0.2924658971404100,-0.0032850968095539,0.0015071481466293,0.0085062691941857,-0.0014686621725559,-0.0004123515100218,-0.0004598114755936,-0.0001185764558613,,0.0000000000000000,0.0000000000000000,
1559013413.8870108127593994,1.1328699588775635,,0.0026199064308343,-0.0026984176465624,-0.0023676285801518,-0.0000120053595612,-0.0000380607595794,0.0000365758601834,0.9999999985347282,-0.0769433729884533,0.2415478807521791,0.0046766238752055,0.0039735498960056,-0.0021549005867499,-0.0043425843019858,0.0004004204030428,-0.0011682908139601,-0.0004811289987256,,0.0028483643782737,0.0054159764026453,-0.0048358352553247,0.0000756474026680,0.0004063720092715,-0.0000323465478623,0.9999999140464770,-0.0669346459473181,0.2924658971404100,-0.0032850968095539,0.0015071481466293,0.0085062691941857,-0.0014686621725559,-0.0004123515100218,-0.0004598114755936,-0.0001185764558613,,0.0000000000000000,0.0000000000000000,
1559013413.9203307628631592,1.1661899089813232,,0.0026199064308343,-0.0026984176465624,-0.0023676285801518,-0.0000120053595612,-0.0000380607595794,0.0000365758601834,0.9999999985347282,-0.0769433729884533,0.2415478807521791,0.0046766238752055,0.0039735498960056,-0.0021549005867499,-0.0043425843019858,0.0004004204030428,-0.0011682908139601,-0.0004811289987256,,0.0054303640759792,0.0028405871846140,-0.0015512931906976,0.0000727297327581,0.0004122941432348,-0.0000389757507913,0.9999999116024042,-0.0672725866643876,0.2931435651078277,-0.0040457387794924,0.0105438055470586,-0.0008907766314223,0.0042810388840735,0.0001138636871474,-0.0001375615538564,-0.0004429370164871,,0.0000000000000000,0.0000000000000000,
1559013413.9536507129669189,1.1995098590850830,,0.0028458337827184,-0.0029058668541714,-0.0025509157224510,-0.0000323093074241,-0.0000407419639188,0.0000393825840353,0.9999999978726066,-0.0792686758384709,0.2412411574478455,0.0049987568909949,0.0034747699570507,-0.0036388721509107,-0.0024562160005101,0.0011785914092566,0.0009557211132525,0.0008729764996806,,0.0042457708010142,0.0032688893773403,-0.0056604679087909,0.0000648888487885,0.0004357793942480,-0.0000388127972930,0.9999999021896570,-0.0681711214985140,0.2958347627029305,-0.0040308126094763,0.0040785656310618,0.0004996526986361,-0.0031115380115807,-0.0004219063557684,-0.0014084292342886,-0.0011841928353533,,0.0000000000000000,0.0000000000000000,
1559013413.9869606494903564,1.2328197956085205,,0.0030296560054850,-0.0031154297739739,-0.0027355347587320,-0.0000323675912926,-0.0000297726789270,0.0000530377452423,0.9999999976264622,-0.0792686429921519,0.2425002583248816,0.0065618374437949,0.0032735181504990,-0.0042864251178796,-0.0045902684030208,-0.0004122553052651,-0.0009142951819062,0.0008445383265349,,0.0037830777864451,0.0059721551358482,-0.0016152676663159,0.0000616365717948,0.0004380310634883,-0.0000290971533605,0.9999999017415333,-0.0685385516296640,0.2960941705912740,-0.0029179549245959,0.0020071996841580,0.0080442428588867,0.0036611172836274,0.0013339569559321,0.0007723305607215,-0.0004502651281655,,0.0000000000000000,0.0000000000000000,
1559013414.0202808380126953,1.2661399841308594,,0.0030487956398959,-0.0035120534300581,-0.0018449055316948,-0.0000317925617485,-0.0000334539499929,0.0000524859303448,0.9999999975576467,-0.0792030387149076,0.2420783272216591,0.0064991713783192,0.0020972425576824,-0.0021153533501845,-0.0011082487251908,0.0001236031853754,0.0009593176164988,-0.0002024599465978,,0.0037830777864451,0.0059721551358482,-0.0016152676663159,0.0000616365717948,0.0004380310634883,-0.0000290971533605,0.9999999017415333,-0.0685385516296640,0.2960941705912740,-0.0029179549245959,0.0020071996841580,0.0080442428588867,0.0036611172836274,0.0013339569559321,0.0007723305607215,-0.0004502651281655,,0.0000000000000000,0.0000000000000000,
1559013414.0536007881164551,1.2994599342346191,,0.0031629363210777,-0.0036101995690910,-0.0019499181981117,-0.0000303025928480,-0.0000320267835777,0.0000561670888678,0.9999999974506482,-0.0790304962471175,0.2422424283989124,0.0069207781284955,0.0043529612916762,-0.0030369124751983,-0.0049439971029276,0.0001254585704859,-0.0009085887705799,0.0003170675359245,,0.0000121213038593,0.0015928919038833,-0.0050828893196578,0.0000748137299263,0.0004453782290903,-0.0000428664643663,0.9999998971017973,-0.0670360616612345,0.2969341739491855,-0.0044962081267990,-0.0103412009775639,-0.0070697003975511,-0.0045804427936673,-0.0004666797758546,-0.0001374986022711,0.0000456533380202,,0.0000000000000000,0.0000000000000000,
1559013414.0869207382202148,1.3327798843383789,,0.0032679703649983,-0.0035536684224892,-0.0020367717568858,-0.0000268024528727,-0.0000305790771677,0.0000585291794141,0.9999999974604419,-0.0786282479675382,0.2424086648393941,0.0071912199089197,0.0041109306449941,-0.0024732748247601,-0.0029508184622823,-0.0001387186546783,-0.0001068903388580,-0.0002124886906643,,-0.0001918267742289,0.0014583252582462,-0.0051793105503548,0.0000672918954053,0.0004469704203664,-0.0000485581158316,0.9999998966656715,-0.0679011019789145,0.2971157712807340,-0.0051490438799222,-0.0097791878506541,-0.0069832173176110,-0.0047325701452792,0.0013753385283053,0.0003016986011062,-0.0014640276785940,,0.0000000000000000,0.0000000000000000,
1559013414.1202406883239746,1.3660998344421387,,0.0033887317527372,-0.0036464106171068,-0.0021178478010406,-0.0000329155888243,-0.0000355628523509,0.0000579423423453,0.9999999971472663,-0.0793290780509601,0.2418375169303142,0.0071247660858796,0.0039364846567148,-0.0023391249193427,-0.0031566258268360,-0.0006632276625516,-0.0009040152075453,-0.0007558070453393,,-0.0005695107067441,0.0011753494670631,-0.0053720416089590,0.0000732402329876,0.0004666305450950,-0.0000575712412892,0.9999998867886710,-0.0672245097017332,0.2993674002054934,-0.0061843887103450,-0.0087402760982513,-0.0075568733736873,-0.0051086759194732,-0.0005755241727456,0.0005565957981162,0.0000478677466162,,0.0000000000000000,0.0000000000000000,
1559013414.1535606384277344,1.3994197845458984,,0.0035732840304019,-0.0039513472796920,-0.0021366500375281,-0.0000333044384320,-0.0000280205717098,0.0000469410300667,0.9999999979511008,-0.0793789671956719,0.2427000959220078,0.0058629314392102,0.0033812851976472,-0.0034125887051325,-0.0022381450546513,-0.0004060156880278,0.0001584403150996,-0.0002131838511959,,0.0054194410451250,0.0039221283223847,-0.0059444888312575,0.0000707223501789,0.0004701856227759,-0.0000471678987493,0.9999998858495028,-0.0675073877342590,0.2997762539914523,-0.0049928816865142,0.0113711925223470,0.0025506995152682,-0.0051999506540596,-0.0004708282649517,0.0001321081072092,-0.0002189685619669,,0.0000000000000000,0.0000000000000000,
1559013414.1868808269500732,1.4327399730682373,,0.0036736538519619,-0.0040446669500949,-0.0022205724790709,-0.0000314119845444,-0.0000236044301875,0.0000444901255671,0.9999999982383735,-0.0791632859066871,0.2432057585966386,0.0055813868418822,0.0031566640083809,-0.0025266662889787,-0.0026326958496345,-0.0006691978727323,0.0006938310418339,-0.0007446067895118,,0.0017337937437958,0.0027914976925686,-0.0073980466569868,0.0000657147087486,0.0004684735527028,-0.0000318904734004,0.9999998875985463,-0.0680728783992629,0.2995822330364225,-0.0032422190918197,-0.0032952094916254,-0.0025957324542105,-0.0077453418634832,-0.0003198916092515,-0.0001808123633964,-0.0010700231650844,,0.0000000000000000,0.0000000000000000,
1559013414.2202007770538330,1.4660599231719971,,0.0037544041592266,-0.0038617980597016,-0.0022801084595008,-0.0000346467213681,-0.0000202110097890,0.0000508234321595,0.9999999979040494,-0.0795308441325204,0.2435956143376349,0.0063066186239176,0.0029243578374887,-0.0029789270907644,-0.0037800314194113,-0.0004055855141799,-0.0006423589880315,0.0000475132617467,,0.0017337937437958,0.0027914976925686,-0.0073980466569868,0.0000657147087486,0.0004684735527028,-0.0000318904734004,0.9999998875985463,-0.0680728783992629,0.2995822330364225,-0.0032422190918197,-0.0032952094916254,-0.0025957324542105,-0.0077453418634832,-0.0003198916092515,-0.0001808123633964,-0.0010700231650844,,0.0000000000000000,0.0000000000000000,
1559013414.2535207271575928,1.4993798732757568,,0.0038360838001148,-0.0039619032274208,-0.0023666204386174,-0.0000474816907034,-0.0000265935049718,0.0000555000679955,0.9999999969790087,-0.0809993702408562,0.2428650419111667,0.0068435548222430,0.0027992689947934,-0.0038347189114088,-0.0021267197536259,-0.0009478443971991,-0.0001173262371870,0.0008450146917711,,0.0001515348646201,0.0012294817827928,-0.0051123345942179,0.0000495634790215,0.0004787440758719,-0.0000295359639095,0.9999998837375924,-0.0699224355375030,0.3007594300014954,-0.0029747703706644,-0.0074289659969509,-0.0072463871911168,-0.0031776153482497,0.0000637078628642,-0.0005068728933111,-0.0000599529594183,,0.0000000000000000,0.0000000000000000,
1559013414.2868406772613525,1.5326998233795166,,0.0039271725045016,-0.0040063927884083,-0.0023171971703503,-0.0000617047988689,-0.0000236321533019,0.0000609028241454,0.9999999959624427,-0.0826265587531430,0.2432053326415999,0.0074622448269350,0.0033203055104406,-0.0021129573837586,-0.0028606376309499,-0.0006774275623644,0.0001537108925988,0.0003168487810781,,0.0001515348646201,0.0012294817827928,-0.0051123345942179,0.0000495634790215,0.0004787440758719,-0.0000295359639095,0.9999998837375924,-0.0699224355375030,0.3007594300014954,-0.0029747703706644,-0.0074289659969509,-0.0072463871911168,-0.0031776153482497,0.0000637078628642,-0.0005068728933111,-0.0000599529594183,,0.0000000000000000,0.0000000000000000,
1559013414.3201606273651123,1.5660197734832764,,0.0040441508858302,-0.0040584622326564,-0.0024787245764428,-0.0000715371288004,-0.0000295905539164,0.0000630864053401,0.9999999950134719,-0.0837522316726530,0.2425229674042151,0.0077134425682075,0.0030986274486892,-0.0019718516790151,-0.0055556124606830,-0.0006779924287520,-0.0003807807115507,0.0005794126023114,,0.0033008006095580,0.0011785803558295,0.0061231132623880,0.0000425381149729,0.0005060812556475,-0.0000255228093975,0.9999998707104205,-0.0707253920346598,0.3038926008353187,-0.0025192764290060,0.0057506039738655,-0.0057758740149438,0.0190748348832130,-0.0001634397485759,0.0007278783014044,-0.0009080261806957,,0.0000000000000000,0.0000000000000000,
1559013414.3534808158874512,1.5993399620056152,,0.0041181451573500,-0.0040434577378588,-0.0025895779507025,-0.0000910604217720,-0.0000299551560882,0.0000644131028373,0.9999999933308202,-0.0859887904054264,0.2424815426632023,0.0078655970164095,0.0023810839119515,-0.0011314787528270,-0.0028035738905807,-0.0006691978808582,0.0006938310325672,-0.0007446067789414,,0.0034192999153591,0.0010579430106152,0.0064953994279523,0.0000345271351897,0.0005111463805106,-0.0000263829984575,0.9999998684205874,-0.0716438772364495,0.3044728703048402,-0.0026190585096938,0.0061334241181612,-0.0059950468130410,0.0181544125080109,-0.0012176220770925,0.0004556177300401,-0.0002580562722869,,0.0000000000000000,0.0000000000000000,
1559013414.3868007659912109,1.6326599121093750,,0.0042210822254929,-0.0041608296865439,-0.0026988604379636,-0.0000992290189349,-0.0000328183910481,0.0000641006224773,0.9999999924838326,-0.0869250142526420,0.2421534499978206,0.0078302822954102,0.0022129849375415,-0.0033347149634656,-0.0001312664771866,-0.0004080057677270,0.0006910557315948,-0.0002094504150153,,0.0057367386720548,0.0016183337584161,0.0098573301577264,0.0000261658727469,0.0004975904176237,-0.0000332114235218,0.9999998753080546,-0.0726057057987067,0.3029184345740711,-0.0034000292129137,0.0127253644168377,-0.0035268568899482,0.0208079684525728,-0.0005384065443650,-0.0007062302902341,-0.0015981659526005,,0.0000000000000000,0.0000000000000000,
1559013414.4201207160949707,1.6659798622131348,,0.0042520830987685,-0.0041608116735623,-0.0024619974872022,-0.0000969952830599,-0.0000320144551926,0.0000597565920843,0.9999999929980697,-0.0866711622418561,0.2422448530381609,0.0073323503334796,0.0020560361389931,-0.0038669566258155,-0.0016008856075166,-0.0006789874691735,-0.0001144729963346,0.0005812793203475,,0.0021895927776940,0.0029798482027788,-0.0017919951850399,0.0000030791525065,0.0005051542388313,-0.0000423319240284,0.9999998715088527,-0.0752563039453160,0.3037837185136449,-0.0044476326101652,-0.0012074953410774,0.0004014892037958,0.0003388677432667,0.0008526051533408,0.0004610072937794,-0.0004364303313196,,0.0000000000000000,0.0000000000000000,
1559013414.4534406661987305,1.6992998123168945,,0.0043335431055667,-0.0042918260517404,-0.0025833280847669,-0.0001049246335481,-0.0000413876975548,0.0000739582536806,0.9999999909040282,-0.0875729390323054,0.2411731307127584,0.0089613117897941,0.0030155951029551,-0.0039882291421340,-0.0067046244283555,-0.0004108301035087,-0.0019814022781694,0.0011033687020769,,0.0021895927776940,0.0029798482027788,-0.0017919951850399,0.0000030791525065,0.0005051542388313,-0.0000423319240284,0.9999998715088527,-0.0752563039453160,0.3037837185136449,-0.0044476326101652,-0.0012074953410774,0.0004014892037958,0.0003388677432667,0.0008526051533408,0.0004610072937794,-0.0004364303313196,,0.0000000000000000,0.0000000000000000,
1559013414.4867608547210693,1.7326200008392334,,0.0043795778693878,-0.0041090437856963,-0.0027407545305110,-0.0001037685822958,-0.0000504122337447,0.0000820990134986,0.9999999899752201,-0.0874365787718557,0.2401403131104343,0.0098956468568592,0.0023855820480825,-0.0037268701738120,-0.0042567845004359,0.0003872155406845,-0.0003768724959529,0.0005896600748342,,-0.0014186147277336,0.0028985353920135,-0.0137229153900472,-0.0000057996978002,0.0005104819711338,-0.0000229059692081,0.9999998694249101,-0.0762630878852232,0.3043971376825290,-0.0022228761208905,-0.0113122472539544,-0.0013487567193806,-0.0224984772503376,0.0019746769685298,0.0005661716568284,0.0000881503365235,,0.0000000000000000,0.0000000000000000,
1559013414.5200808048248291,1.7659399509429932,,0.0044869224543598,-0.0042317148095023,-0.0028515842067448,-0.0001008595577877,-0.0000536123012756,0.0000790765395524,0.9999999903499860,-0.0871047251062956,0.2397730937569644,0.0095497978977597,0.0040371977149788,-0.0033863226265507,-0.0017924894712779,0.0001291432163101,0.0001622706005437,-0.0004743573506471,,-0.0014186147277336,0.0028985353920135,-0.0137229153900472,-0.0000057996978002,0.0005104819711338,-0.0000229059692081,0.9999998694249101,-0.0762630878852232,0.3043971376825290,-0.0022228761208905,-0.0113122472539544,-0.0013487567193806,-0.0224984772503376,0.0019746769685298,0.0005661716568284,0.0000881503365235,,0.0000000000000000,0.0000000000000000,
1559013414.5534007549285889,1.7992599010467529,,0.0046272941468273,-0.0042082081302078,-0.0026801423610668,-0.0000976048423551,-0.0000384454272508,0.0000693530942075,0.9999999920926962,-0.0867363746446355,0.2415094802804656,0.0084330831114831,0.0047759306637147,-0.0044985366994422,-0.0002730546326837,-0.0004166656323882,0.0009517348798055,0.0005913080189923,,0.0021569559694145,0.0008463975722888,0.0017737355212673,0.0000397605860765,0.0004972441031336,-0.0000275520140034,0.9999998752041344,-0.0710447551230397,0.3028796325554119,-0.0027506743039883,0.0050291824154556,-0.0075368159450591,0.0100390929728746,0.0008411775343120,0.0002563290181570,-0.0013905941741541,,0.0000000000000000,0.0000000000000000,
1559013414.5867207050323486,1.8325798511505127,,0.0048063652933958,-0.0043333095665361,-0.0027076685400689,-0.0001082036402805,-0.0000203474263389,0.0000723649934009,0.9999999913206311,-0.0879493015926669,0.2435839330504243,0.0087753115806479,0.0055616157942959,-0.0041551197256715,-0.0023747219258813,-0.0004146755630631,0.0004191194615055,0.0005875745925940,,0.0047568128774480,0.0037095875125719,0.0024648328165501,0.0000356404946868,0.0005075731344468,-0.0000260096516513,0.9999998702113747,-0.0715160763899768,0.3040634651266995,-0.0025756846490801,0.0136421741917729,0.0022794245742261,0.0105858491733670,0.0010575925698504,0.0012645954266191,-0.0008035744540393,,0.0000000000000000,0.0000000000000000,
1559013414.6200406551361084,1.8658998012542725,,0.0050371894014878,-0.0043917479567379,-0.0024294917889962,-0.0001067804046993,-0.0000109316518343,0.0000794479543250,0.9999999910832335,-0.0877826645264240,0.2446640453026664,0.0095854244399835,0.0046142644084465,-0.0046953874193712,-0.0033945487842634,-0.0001499334712871,0.0001519126279272,0.0008545669945130,,0.0048156837642820,0.0062237242223286,0.0038197723035811,0.0000351297156098,0.0005140273588113,-0.0000062339267155,0.9999998672514491,-0.0715637410734696,0.3048059729383173,-0.0003105032281870,0.0113962255418301,0.0109010646119714,0.0102634755894542,0.0009090397506952,-0.0008152950322255,-0.0005353579181246,,0.0000000000000000,0.0000000000000000,
1559013414.6533608436584473,1.8992199897766113,,0.0051649775479992,-0.0045093586246857,-0.0025276190921290,-0.0001049166519767,-0.0000125686001348,0.0000823023266372,0.9999999910304268,-0.0875677081987559,0.2444769136527742,0.0099127787644087,0.0037860888447408,-0.0035626128914479,-0.0031745599188393,0.0001285783444546,-0.0003722210199681,-0.0002117935261186,,0.0052291259185608,0.0066394057520543,0.0041492087002540,0.0000389100275542,0.0005036717400379,-0.0000269764555915,0.9999998720365213,-0.0711419311843265,0.3036162666879023,-0.0026857110020908,0.0098902173340321,0.0114108640700579,0.0103509873151779,0.0004561709356494,0.0000499343514093,-0.0024497949052602,,0.0000000000000000,0.0000000000000000,
1559013414.6866807937622070,1.9325399398803711,,0.0053208565205487,-0.0050352050680750,-0.0024268620018553,-0.0000979119144376,-0.0000183955710941,0.0000746012969757,0.9999999922547532,-0.0867688467695948,0.2438078765775648,0.0090312344536392,0.0043103611722192,-0.0046538445996340,-0.0027099224103131,0.0001209135297844,-0.0003778495677987,0.0005870982057948,,0.0052291259185608,0.0066394057520543,0.0041492087002540,0.0000389100275542,0.0005036717400379,-0.0000269764555915,0.9999998720365213,-0.0711419311843265,0.3036162666879023,-0.0026857110020908,0.0098902173340321,0.0114108640700579,0.0103509873151779,0.0004561709356494,0.0000499343514093,-0.0024497949052602,,0.0000000000000000,0.0000000000000000,
1559013414.7200007438659668,1.9658598899841309,,0.0054881848578872,-0.0051673365687476,-0.0025072674168961,-0.0000997599013159,-0.0000136317044040,0.0000769323048693,0.9999999919717797,-0.0869794301966775,0.2443541695958812,0.0092975800402057,0.0052753883794810,-0.0047172755995659,-0.0022221375062625,-0.0004182255154862,0.0006835509586997,0.0008557385243319,,0.0048463070129249,-0.0018530932854782,-0.0043371194688543,0.0000496536779303,0.0005462905973898,-0.0000412375629876,0.9999998487002679,-0.0699188675543722,0.3084979834910337,-0.0043255173052810,0.0092678898945451,-0.0197609998285770,-0.0056686224415898,0.0003229734138586,0.0009426797041669,0.0000063279644564,,0.0000000000000000,0.0000000000000000,
1559013414.7533206939697266,1.9991798400878906,,0.0057172186499668,-0.0051092140579060,-0.0025629327440714,-0.0001067085197597,-0.0000086746625277,0.0000884522519923,0.9999999903571206,-0.0877699884559048,0.2449241468571046,0.0106168806245063,0.0062169540707438,-0.0049406531938095,-0.0035394492395463,-0.0009452894582328,-0.0001154500955874,0.0005787174162118,,0.0048463070129249,-0.0018530932854782,-0.0043371194688543,0.0000496536779303,0.0005462905973898,-0.0000412375629876,0.9999998487002679,-0.0699188675543722,0.3084979834910337,-0.0043255173052810,0.0092678898945451,-0.0197609998285770,-0.0056686224415898,0.0003229734138586,0.0009426797041669,0.0000063279644564,,0.0000000000000000,0.0000000000000000,
1559013414.7866406440734863,2.0324997901916504,,0.0059081271800827,-0.0052141020614230,-0.0026427381882348,-0.0000970895431213,0.0000015747525970,0.0000775655398751,0.9999999922773640,-0.0866729946441630,0.2460967786362773,0.0093676730549796,0.0052513165228467,-0.0024210492533463,-0.0021501843069721,0.0006684169921250,0.0004361609416231,-0.0012662586444996,,0.0052264772958771,-0.0026613178782102,-0.0045826045094389,0.0000475461241026,0.0005503896550055,-0.0000303206917289,0.9999998469456131,-0.0701543412170739,0.3089692817089975,-0.0030752484778133,0.0105025302618742,-0.0202286429703236,-0.0065599353983998,-0.0001585589197930,0.0001465858949814,-0.0005223532207310,,0.0000000000000000,0.0000000000000000,
1559013414.8199608325958252,2.0658199787139893,,0.0060029396795047,-0.0048459731964520,-0.0023420935864469,-0.0000784348839030,0.0000047718686808,0.0000652562026999,0.9999999947834132,-0.0845413627870159,0.2464610044042623,0.0079566070324635,0.0055350798755304,-0.0028238338454277,-0.0029505815040994,0.0009310343148717,-0.0006337213804757,-0.0004722718835905,,0.0017678621869116,0.0015124191525959,-0.0011558191354735,0.0000500246131654,0.0005711314993747,-0.0000341708840095,0.9999998350693360,-0.0698725603466937,0.3113455691600101,-0.0035193152565481,-0.0028836037963629,-0.0044308807700872,0.0001653605722822,-0.0004792680847459,0.0003601763455663,-0.0004656376258936,,0.0000000000000000,0.0000000000000000,
1559013414.8532807826995850,2.0991399288177490,,0.0061896739818115,-0.0049617948433339,-0.0024170710120588,-0.0000742460592598,0.0000042100254075,0.0000676164491479,0.9999999949489071,-0.0840602006655881,0.2463969673776003,0.0082271656053040,0.0052848284887399,-0.0032253758017583,-0.0024378795130429,0.0001199184790218,-0.0001115418948070,0.0005889649291844,,0.0035131014967832,0.0016804778614988,0.0014754773829679,0.0000542418079358,0.0005692923406826,-0.0000303833826693,0.9999998360204401,-0.0693871855706775,0.3111353832455008,-0.0030847509308920,0.0037567571271211,-0.0033495931420475,0.0056101325899363,0.0010071452707052,-0.0009120524046011,-0.0011193995596841,,0.0000000000000000,0.0000000000000000,
1559013414.8865907192230225,2.1324498653411865,,0.0062972490777686,-0.0050810282997802,-0.0025227976125339,-0.0000751451455597,0.0000078596451380,0.0000778312208389,0.9999999941168671,-0.0841581694408857,0.2468168209561036,0.0093971185962154,0.0039080148766821,-0.0036694276616285,-0.0020613208543149,0.0001128185309635,0.0004173211555059,0.0011252928364280,,0.0035131014967832,0.0016804778614988,0.0014754773829679,0.0000542418079358,0.0005692923406826,-0.0000303833826693,0.9999998360204401,-0.0693871855706775,0.3111353832455008,-0.0030847509308920,0.0037567571271211,-0.0033495931420475,0.0056101325899363,0.0010071452707052,-0.0009120524046011,-0.0011193995596841,,0.0000000000000000,0.0000000000000000,
1559013414.9199106693267822,2.1657698154449463,,0.0064203398477234,-0.0051866007973335,-0.0025969689960876,-0.0000953461795393,0.0000101442464085,0.0000811719102048,0.9999999921086608,-0.0864713717679413,0.2470793381119453,0.0097795479751592,0.0041568243722658,-0.0026786277596987,-0.0023292068913498,-0.0014661138298352,0.0001582843872262,-0.0007560257917099,,0.0036582012536206,0.0015372752793970,0.0017047953600440,0.0000530216236406,0.0005718597671890,-0.0000425448239226,0.9999998341775123,-0.0695337977209180,0.3114278190732913,-0.0044788209026269,0.0037568658590317,-0.0037340580020100,0.0056737796403468,0.0001663342845859,-0.0007586639258079,-0.0003108157834504,,0.0000000000000000,0.0000000000000000,
1559013414.9532308578491211,2.1990900039672852,,0.0065310741465092,-0.0052531489076775,-0.0023660170260681,-0.0000981681478058,0.0000091487297490,0.0000839857488641,0.9999999916128548,-0.0867933671919931,0.2469657434604506,0.0101021511031084,0.0041631076615521,-0.0041008817470199,-0.0016539787972259,0.0001214783824334,0.0001566419975772,0.0003245343897657,,0.0045404922881018,0.0010672725907045,0.0060357796653052,0.0000506259437657,0.0005752212636053,-0.0000184199946330,0.9999998331090938,-0.0697948873717366,0.3118165138721259,-0.0017149266609181,0.0057761906646192,-0.0050965617410839,0.0126369763165712,0.0013868110254407,-0.0000644646570436,-0.0002140401920769,,0.0000000000000000,0.0000000000000000,
1559013414.9865508079528809,2.2324099540710449,,0.0066761871920051,-0.0053599646543781,-0.0024323657921366,-0.0000969189549142,0.0000068778468819,0.0000814816749704,0.9999999919600742,-0.0866514740604104,0.2467051015436321,0.0098155726523298,0.0048802573418399,-0.0038652012771394,-0.0016949596764044,-0.0001432637100075,0.0004238488086023,0.0000575419860502,,0.0045404922881018,0.0010672725907045,0.0060357796653052,0.0000506259437657,0.0005752212636053,-0.0000184199946330,0.9999998331090938,-0.0697948873717366,0.3118165138721259,-0.0017149266609181,0.0057761906646192,-0.0050965617410839,0.0126369763165712,0.0013868110254407,-0.0000644646570436,-0.0002140401920769,,0.0000000000000000,0.0000000000000000,
1559013415.0198707580566406,2.2657299041748047,,0.0068842755077634,-0.0052346062608531,-0.0027031525394625,-0.0000921983164998,0.0000144537302362,0.0000875257759774,0.9999999918148994,-0.0861074805543803,0.2475741659360474,0.0105069604754754,0.0061154556398078,-0.0030173319408695,-0.0033987482664401,0.0006550774059617,-0.0001077116191454,0.0003277914135156,,0.0029704976370324,0.0010159144944673,-0.0068657866970963,0.0000582245274008,0.0005601235302483,0.0000018985634455,0.9999998414339528,-0.0689128105575490,0.3100893950405605,0.0006161232992979,0.0019557164050639,-0.0059154736809433,-0.0117896087467670,-0.0002207496145274,0.0013766620540991,-0.0006734695052728,,0.0000000000000000,0.0000000000000000,
1559013415.0531907081604004,2.2990498542785645,,0.0070861248870373,-0.0053802583337627,-0.0028077544369239,-0.0000974319343756,0.0000144866499151,0.0000958121444197,0.9999999905585941,-0.0867031194038985,0.2475793351553824,0.0114565021870986,0.0052431814234541,-0.0034414926061898,-0.0022477928197530,0.0001265882381647,0.0001603943596235,-0.0002080600905290,,0.0029221986643147,0.0009211528264380,-0.0058647508733388,0.0000569818828218,0.0005542338034713,0.0000084162661342,0.9999998447535492,-0.0690515848017236,0.3094154253685485,0.0013637793337315,0.0021712789312005,-0.0055115297436714,-0.0089211678132415,0.0002103293809341,-0.0018684096867219,-0.0012658763444051,,0.0000000000000000,0.0000000000000000,
1559013415.0865106582641602,2.3323698043823242,,0.0072400005665261,-0.0053656563106765,-0.0028152761498706,-0.0000931234752423,0.0000153736676015,0.0000834603131687,0.9999999920630224,-0.0862154940667137,0.2476789345436506,0.0100409385119085,0.0049426042472794,-0.0022381586550528,-0.0025035296609328,-0.0003963608639410,-0.0003685466216765,-0.0010158089769407,,0.0029519888838059,0.0008384119710609,-0.0059934795015772,0.0000581090590179,0.0005500910080263,-0.0000013667004831,0.9999998470106645,-0.0689278484126669,0.3089392815590514,0.0002433889468124,0.0020987750031054,-0.0055223274976015,-0.0086310729384422,-0.0007987834396772,0.0002558300329838,-0.0004012739227619,,0.0000000000000000,0.0000000000000000,
1559013415.1198308467864990,2.3656899929046631,,0.0073847569979886,-0.0054712118166496,-0.0028852206035321,-0.0001025957194860,0.0000150541089249,0.0000828727341390,0.9999999911898010,-0.0873012262135145,0.2476423107364858,0.0099736415770966,0.0049011806626036,-0.0023398884248627,-0.0023565938339807,-0.0001371588247709,0.0001612934901382,-0.0004769192182389,,0.0051925544355761,0.0023813793912971,-0.0010522355678721,0.0000469439347328,0.0005700122294068,-0.0000046649478309,0.9999998364302685,-0.0702091373472664,0.3112216003752460,-0.0001381758148190,0.0089325234293938,0.0004224320291542,0.0012637828476727,-0.0005778026534244,-0.0005969690391794,-0.0000826702453196,,0.0000000000000000,0.0000000000000000,
1559013415.1531507968902588,2.3990099430084229,,0.0075663729289688,-0.0053509067882070,-0.0029512945580129,-0.0001038431718201,0.0000204651686135,0.0000892268039085,0.9999999904181750,-0.0874409860940391,0.2482634193388875,0.0107008863217658,0.0047937811974602,-0.0023882537338815,-0.0029558851911865,0.0001240332929760,0.0001585181817164,0.0000582371373019,,0.0046368757536828,0.0024083626879825,-0.0023725760559474,0.0000458798311537,0.0005587346913442,0.0000202892320099,0.9999998426494540,-0.0703171895108751,0.3099329308591345,0.0027229777647251,0.0063844979740679,-0.0001243474544026,-0.0025399073492736,-0.0001940629445016,0.0010972442105412,0.0014111992204562,,0.0000000000000000,0.0000000000000000,
1559013415.1864707469940186,2.4323298931121826,,0.0077443722115562,-0.0054514455350964,-0.0030695565752378,-0.0001129855865124,0.0000125148611319,0.0000900639101295,0.9999999894830639,-0.0884882924677771,0.2473526129043140,0.0107980949514130,0.0047010860575571,-0.0009737621007987,-0.0026142023176661,0.0001362430985283,-0.0003665925007020,-0.0010106852571045,,0.0036304880783306,0.0051519430538680,-0.0003610028637882,0.0000409396240160,0.0005788687692688,0.0000372948730190,0.9999998309219795,-0.0708737745339409,0.3122426262887678,0.0046684425669311,0.0018805343424901,0.0090315490961075,0.0019654412753880,-0.0017144266748801,0.0002639917656779,-0.0012922289315611,,0.0000000000000000,0.0000000000000000,
1559013415.2197906970977783,2.4656498432159424,,0.0078011300577663,-0.0053856186244748,-0.0029455483533497,-0.0001204626905934,0.0000122047785706,0.0000888248899505,0.9999999887249611,-0.0893457196403802,0.2473169529514007,0.0106561528161655,0.0042854695957029,-0.0032779361963153,-0.0008656748833313,-0.0001442587917821,0.0006901565431252,0.0000594086897841,,0.0036304880783306,0.0051519430538680,-0.0003610028637882,0.0000409396240160,0.0005788687692688,0.0000372948730190,0.9999998309219795,-0.0708737745339409,0.3122426262887678,0.0046684425669311,0.0018805343424901,0.0090315490961075,0.0019654412753880,-0.0017144266748801,0.0002639917656779,-0.0012922289315611,,0.0000000000000000,0.0000000000000000,
1559013415.2531106472015381,2.4989697933197021,,0.0079782696312831,-0.0054918827884692,-0.0030140947714117,-0.0001156279591172,0.0000196793086112,0.0000899057378839,0.9999999890799292,-0.0887910953848269,0.2481735985356297,0.0107787884089907,0.0054811020263550,-0.0032455872139345,-0.0031092903108969,0.0001214783220775,0.0001566419964521,0.0003245343814044,,0.0024800863660486,0.0033513649754405,0.0010116650675939,0.0000366415274969,0.0005791132241942,0.0000401312039316,0.9999998308373650,-0.0713647175366044,0.3122710734938550,0.0049931456007309,-0.0014716660371050,0.0013657244853675,0.0051734177395701,-0.0005957818357274,0.0004247363540344,-0.0011405874975026,,0.0000000000000000,0.0000000000000000,
1559013415.2864308357238770,2.5322899818420410,,0.0081804259755562,-0.0054363537472395,-0.0029345108647170,-0.0001149905711748,0.0000181198875215,0.0000800539937636,0.9999999900200983,-0.0887229369637331,0.2479932773728034,0.0096501098702464,0.0066786475302187,-0.0016429687482538,-0.0048479783547766,-0.0003979208059990,-0.0006367305100043,-0.0007513784586291,,0.0024800863660486,0.0033513649754405,0.0010116650675939,0.0000366415274969,0.0005791132241942,0.0000401312039316,0.9999998308373650,-0.0713647175366044,0.3122710734938550,0.0049931456007309,-0.0014716660371050,0.0013657244853675,0.0051734177395701,-0.0005957818357274,0.0004247363540344,-0.0011405874975026,,0.0000000000000000,0.0000000000000000,
1559013415.3197507858276367,2.5656099319458008,,0.0083803154892503,-0.0055406335281845,-0.0030431584165680,-0.0001128560299521,0.0000282481530846,0.0000831367758291,0.9999999897769174,-0.0884767246341862,0.2491543759933383,0.0100017168187737,0.0054560718820782,-0.0025232495922378,-0.0029730398693819,0.0003918951441259,0.0004276791066485,-0.0002036315225046,,0.0024622045541892,0.0033692700341506,0.0010831382365003,0.0000311932746903,0.0005793344129262,0.0000361975982775,0.9999998310441615,-0.0719912381284506,0.3122958639970193,0.0045419871211058,-0.0010414639255032,0.0009290307061747,0.0048048202879727,0.0009482172317803,0.0003190914285369,-0.0010488524567336,,0.0000000000000000,0.0000000000000000,
1559013415.3530707359313965,2.5989298820495605,,0.0084590664515685,-0.0056185644143326,-0.0027324555590871,-0.0000972662289905,0.0000264023047202,0.0000815728950529,0.9999999915940310,-0.0866910550006978,0.2489424553984564,0.0098228579088838,0.0050201865136394,-0.0024035365207021,-0.0019938537061869,0.0006581971383196,0.0004286561634471,-0.0002010696549061,,-0.0004187368762987,0.0000351582624904,-0.0101975856681350,0.0000339133369935,0.0005851228979050,0.0000428547801781,0.9999998273222590,-0.0716758011117047,0.3129601442598663,0.0053041828621122,-0.0091990232467651,-0.0111310230568051,-0.0174473952502012,-0.0002537416294217,0.0002517852990422,0.0007231563213281,,0.0000000000000000,0.0000000000000000,
1559013415.3863906860351562,2.6322498321533203,,0.0086341851023812,-0.0057166657921409,-0.0028548096316373,-0.0001007202493568,0.0000153825194532,0.0000849795712270,0.9999999911986409,-0.0870852703323180,0.2476802686019656,0.0102150191875770,0.0054383561690274,-0.0023610595808811,-0.0028558377866481,-0.0004070108381639,0.0004247478941459,-0.0002113171402777,,-0.0014185691403290,-0.0004501569395737,-0.0120030723032950,0.0000434684384757,0.0005856383472689,0.0000345169022151,0.9999998269733873,-0.0705855220237378,0.3130179456839972,0.0043492845201148,-0.0107360417023301,-0.0110346311703324,-0.0169592592865229,-0.0017026001587510,0.0004706384497695,-0.0002738574403338,,0.0000000000000000,0.0000000000000000,
1559013415.4197106361389160,2.6655697822570801,,0.0086895896855499,-0.0056873300518332,-0.0030681827148622,-0.0001068795844836,0.0000224425175241,0.0000831324150067,0.9999999905810447,-0.0877919276896037,0.2484890422204002,0.0100021848066460,0.0054704750269484,-0.0015996878009517,-0.0037215033219968,-0.0006682029559108,0.0004275232025677,-0.0007464734958184,,0.0034025515714207,0.0019694676577049,0.0014925504697577,0.0000218994381274,0.0006415251941719,0.0000333035632454,0.9999997934283349,-0.0730576655340355,0.3194220055325690,0.0042004903961273,0.0078299734741449,-0.0012851294595748,0.0068843513727188,0.0005175640108064,-0.0001538863434689,-0.0014675890561193,,0.0000000000000000,0.0000000000000000,
1559013415.4530308246612549,2.6988899707794189,,0.0089079395811225,-0.0057841027588945,-0.0032119110397930,-0.0001063433288645,0.0000256556555598,0.0000789349659278,0.9999999909010775,-0.0877325257796950,0.2488565498884444,0.0095206652802918,0.0049902409454533,-0.0039243953782583,-0.0024517319078704,-0.0001483736711856,0.0004200964203178,0.0005901364518646,,0.0034025515714207,0.0019694676577049,0.0014925504697577,0.0000218994381274,0.0006415251941719,0.0000333035632454,0.9999997934283349,-0.0730576655340355,0.3194220055325690,0.0042004903961273,0.0078299734741449,-0.0012851294595748,0.0068843513727188,0.0005175640108064,-0.0001538863434689,-0.0014675890561193,,0.0000000000000000,0.0000000000000000,
1559013415.4863507747650146,2.7322099208831787,,0.0089849221216722,-0.0053985483192550,-0.0028889560283408,-0.0001061247491428,0.0000189520137124,0.0000769292842181,0.9999999912301222,-0.0877085250936445,0.2480880404856620,0.0092919242147352,0.0063979350395099,-0.0019485134193063,-0.0044042082875182,0.0003978653467067,-0.0011701671648543,-0.0002148318027557,,0.0034025515714207,0.0019694676577049,0.0014925504697577,0.0000218994381274,0.0006415251941719,0.0000333035632454,0.9999997934283349,-0.0730576655340355,0.3194220055325690,0.0042004903961273,0.0078299734741449,-0.0012851294595748,0.0068843513727188,0.0005175640108064,-0.0001538863434689,-0.0014675890561193,,0.0000000000000000,0.0000000000000000,
