#Time(sec),Dtime(sec),,x(m),y(m),z(m),qx,qy,qz,qw,roll_x_G(deg),pitch_y_G(deg),yaw_z_G(deg),vx(m/s),vy(m/s),vz(m/s),wx(rad/s),wy(rad/s),wz(rad/s),,gt_x(m),gt_y(m),gt_z(m),gt_qx,gt_qy,gt_qz,gt_qw,gt_groll_x_G(deg),gt_pitch_y_G(deg),gt_yaw_z_G(deg),gt_vx(m/s),gt_vy(m/s),gt_vz(m/s),gt_wx(rad/s),gt_wy(rad/s),gt_wz(rad/s),,Sr,Sr_avg,
1559013412.7541408538818359,0.0000000000000000,,0.0000000000000002,0.0000000000000001,-0.0000000000000001,0.0000000000000000,-0.0000000000000001,0.0000000000000000,1.0000000000000000,-0.0755855138669150,0.2459037397968158,0.0004794994091153,0.0000000000000000,0.0000000000000000,0.0000000000000000,0.0000000000000000,0.0000000000000000,0.0000000000000000,,0.0000000000000000,0.0000000000000000,0.0000000000000000,0.0000000000000000,0.0000000000000000,0.0000000000000000,1.0000000000000000,-0.0755855138669150,0.2459037397968215,0.0004794994091152,-0.0098102642223239,-0.0059528849087656,-0.0021041124127805,0.0008114594966173,-0.0000641869410174,-0.0007574954070151,,0.0000000000000000,0.0000000000000000,
1559013412.7874608039855957,0.0333199501037598,,0.0000000000000002,0.0000000000000001,-0.0000000000000001,0.0000000000000000,-0.0000000000000001,0.0000000000000000,1.0000000000000000,-0.0755855138669150,0.2459037397968158,0.0004794994091153,0.0000000000000000,0.0000000000000000,0.0000000000000000,0.0000000000000000,0.0000000000000000,0.0000000000000000,,0.0000000000000000,0.0000000000000000,0.0000000000000000,0.0000000000000000,0.0000000000000000,0.0000000000000000,1.0000000000000000,-0.0755855138669150,0.2459037397968215,0.0004794994091152,-0.0098102642223239,-0.0059528849087656,-0.0021041124127805,0.0008114594966173,-0.0000641869410174,-0.0007574954070151,,0.0000000000000000,0.0000000000000000,
1559013412.8207807540893555,0.0666399002075195,,0.0000219726581638,-0.0000260111889973,-0.0000459141663904,-0.0000208610050351,-0.0000137221306289,-0.0000034844792411,0.9999999996821901,-0.0779777081630646,0.2443307657790641,0.0000823114382821,0.0005549145090711,-0.0009140744155948,-0.0007645881653806,-0.0006713226546122,-0.0001088443910840,-0.0002176123651700,,0.0000000000000000,0.0000000000000000,0.0000000000000000,0.0000000000000000,0.0000000000000000,0.0000000000000000,1.0000000000000000,-0.0755855138669150,0.2459037397968215,0.0004794994091152,-0.0098102642223239,-0.0059528849087656,-0.0021041124127805,0.0008114594966173,-0.0000641869410174,-0.0007574954070151,,0.0000000000000000,0.0000000000000000,
1559013412.8541007041931152,0.0999598503112793,,0.0000608926743231,-0.0000640802948601,-0.0001140602429562,-0.0000373096937066,-0.0000189844924195,-0.0000087132854731,0.9999999990858274,-0.0798651435414091,0.2437269247291102,-0.0005160265755550,0.0011061855532015,-0.0033799717536283,-0.0017536299372295,-0.0014824384616985,0.0004133351236126,0.0008436244272202,,0.0026054364313848,0.0026394175940160,-0.0081269355738912,-0.0000310310364889,0.0001704901185218,-0.0000071265749704,0.9999999849597030,-0.0791451706312156,0.2654393478622390,-0.0003635336208244,0.0007849216344766,0.0008778728661127,-0.0175203494727612,-0.0012160835321993,0.0017614921089262,-0.0004441663622856,,0.0000000000000000,0.0000000000000000,
1559013412.8874206542968750,0.1332798004150391,,0.0001262903034411,-0.0001468154741993,-0.0002142065874932,-0.0000378024141703,-0.0000235806923088,-0.0000050935236011,0.9999999989944923,-0.0799198270708824,0.2432008019201591,-0.0001005132246582,0.0021184657892204,-0.0024107857097970,-0.0026184181863062,0.0001285783637746,-0.0003722209284548,-0.0002117934720251,,0.0026054364313848,0.0026394175940160,-0.0081269355738912,-0.0000310310364889,0.0001704901185218,-0.0000071265749704,0.9999999849597030,-0.0791451706312156,0.2654393478622390,-0.0003635336208244,0.0007849216344766,0.0008778728661127,-0.0175203494727612,-0.0012160835321993,0.0017614921089262,-0.0004441663622856,,0.0000000000000000,0.0000000000000000,
1559013412.9207408428192139,0.1665999889373779,,0.0001876071963411,-0.0002485065635448,-0.0002723575101359,-0.0000332340376668,-0.0000278667317498,-0.0000049033733097,0.9999999990474505,-0.0793962315090670,0.2427096905476230,-0.0000780715043153,0.0016332172232536,-0.0030002443095807,-0.0000183282768429,0.0009260591413560,0.0006978172556181,-0.0004629382745979,,0.0026245542083911,0.0026448552001494,-0.0084863851899029,-0.0000333937179824,0.0001718520074773,-0.0000101301488424,0.9999999846245635,-0.0794174526191618,0.2655949411350161,-0.0007079784706163,0.0011400097282603,-0.0002242026966996,-0.0186141021549702,-0.0007273238734342,-0.0001038627669914,-0.0002373664610786,,0.0000000000000000,0.0000000000000000,
1559013412.9540607929229736,0.1999199390411377,,0.0002510355284044,-0.0003552317527220,-0.0002739830334416,-0.0000129934686530,-0.0000142844809747,-0.0000089746469803,0.9999999997732896,-0.0770788454877928,0.2442654901962383,-0.0005467471256826,0.0015572095440772,-0.0016274100853720,0.0003069651755764,0.0011929260021615,0.0012332859105604,-0.0007229402316692,,0.0026245542083911,0.0026448552001494,-0.0084863851899029,-0.0000333937179824,0.0001718520074773,-0.0000101301488424,0.9999999846245635,-0.0794174526191618,0.2655949411350161,-0.0007079784706163,0.0011400097282603,-0.0002242026966996,-0.0186141021549702,-0.0007273238734342,-0.0001038627669914,-0.0002373664610786,,0.0000000000000000,0.0000000000000000,
1559013412.9873807430267334,0.2332398891448975,,0.0003049992330981,-0.0004089312959995,-0.0003164140705479,-0.0000144173017045,-0.0000098617901226,-0.0000141313640163,0.9999999997475956,-0.0772445424394733,0.2447715032002950,-0.0011383418386656,0.0011389741805766,-0.0019570558982999,-0.0014499054642399,-0.0004121206084769,0.0004209957160276,0.0003212774096721,,0.0013044971720459,0.0006642558835833,-0.0097306379038952,-0.0000438730574526,0.0002087906767953,-0.0000009822662857,0.9999999772403214,-0.0806136494002281,0.2698292134783979,0.0003343256994272,-0.0023964915890247,-0.0079505480825901,-0.0198433436453342,0.0003404117596801,-0.0015395777300000,-0.0001423610374331,,0.0000000000000000,0.0000000000000000,
1559013413.0207006931304932,0.2665598392486572,,0.0003431363790865,-0.0004716913804853,-0.0004165912864769,-0.0000362799963632,-0.0000178833168929,-0.0000100745123364,0.9999999991312265,-0.0797478174257171,0.2438528996089663,-0.0006721862495950,0.0008971832518353,-0.0020463925252434,-0.0023451758404527,-0.0009427345252527,-0.0001135738131031,0.0003124202551737,,0.0018767528659337,-0.0015868478416372,-0.0062711862608355,-0.0000291626588616,0.0002160709066437,-0.0000033503031968,0.9999999762258388,-0.0789291896576434,0.2706631018623400,0.0000621929295683,-0.0001832428679336,-0.0139995729550719,-0.0103720519691706,-0.0000324573375110,0.0006396181997843,0.0005033669876866,,0.0000000000000000,0.0000000000000000,
1559013413.0540206432342529,0.2998797893524170,,0.0003903418709308,-0.0005530731092706,-0.0004847153840386,-0.0000454537236579,-0.0000198192877273,-0.0000091906053814,0.9999999987283439,-0.0807986128321173,0.2436311815676687,-0.0005705755700852,0.0017486898863368,-0.0027608805572256,-0.0017974615562203,0.0003923254197449,-0.0003731200542663,0.0000570656395446,,-0.0012296630497877,0.0025351477552150,0.0010995718084875,-0.0000417926695341,0.0002369557506546,0.0000081066828663,0.9999999710198130,-0.0803705614379537,0.2730581080783792,0.0013715104470487,-0.0104640517383814,0.0027693663723767,0.0022680787369609,-0.0004222550487611,-0.0009954593842849,-0.0014647236093879,,0.0000000000000000,0.0000000000000000,
1559013413.0873408317565918,0.3331999778747559,,0.0004234976800226,-0.0005969688983073,-0.0004861042337198,-0.0000408711714273,-0.0000194033605059,-0.0000116516271407,0.9999999989086483,-0.0802746966604858,0.2436784644979842,-0.0008526654225252,0.0017240318642737,-0.0031884697807852,-0.0011771554872901,0.0001260234255512,-0.0003740971110650,0.0000545037719461,,-0.0016435135824158,0.0026275468295871,0.0012304795801690,-0.0000513339756734,0.0002473163494147,-0.0000056877855006,0.9999999680835472,-0.0814710891680904,0.2742431862158812,-0.0002111219548778,-0.0103930579498410,0.0014988548355177,0.0039006241131574,0.0011318795150146,0.0002227528020740,-0.0000919199519558,,0.0000000000000000,0.0000000000000000,
1559013413.1206507682800293,0.3665099143981934,,0.0004875586635076,-0.0007135171210029,-0.0005474500037963,-0.0000410329676622,-0.0000277650897338,-0.0000041844649528,0.9999999987639427,-0.0802895717969700,0.2427214455671906,0.0000043190546049,0.0027631420862565,-0.0047815425416140,-0.0033725189672233,0.0001177937450963,-0.0009142172566005,0.0011159593238804,,-0.0016435135824158,0.0026275468295871,0.0012304795801690,-0.0000513339756734,0.0002473163494147,-0.0000056877855006,0.9999999680835472,-0.0814710891680904,0.2742431862158812,-0.0002111219548778,-0.0103930579498410,0.0014988548355177,0.0039006241131574,0.0011318795150146,0.0002227528020740,-0.0000919199519558,,0.0000000000000000,0.0000000000000000,
1559013413.1539707183837891,0.3998298645019531,,0.0005992480414676,-0.0008559910478024,-0.0007328115417667,-0.0000265381251427,-0.0000211866383902,-0.0000015460977537,0.9999999994222319,-0.0786273016807100,0.2434756936434365,0.0003055954818525,0.0026078938936615,-0.0025282628206801,-0.0020219003621942,0.0006597571479894,0.0006968401992582,-0.0004655001468452,,0.0030802988584500,0.0012210024314830,-0.0004229099459523,-0.0000380366311522,0.0002537059910602,0.0000099031762481,0.9999999670442055,-0.0799392118169074,0.2749778185721677,0.0015748725432740,0.0080886157229543,-0.0046372590586543,0.0003316676011309,0.0006035095429979,0.0012304764240980,0.0005028592422605,,0.0000000000000000,0.0000000000000000,
1559013413.1872906684875488,0.4331498146057129,,0.0006705492320758,-0.0009367343314001,-0.0007886798062992,-0.0000239243226238,-0.0000153891056241,-0.0000099969789625,0.9999999995454314,-0.0783319281361405,0.2441387410729751,-0.0006637107647228,0.0014396112713798,-0.0019533136160573,0.0001424136407340,0.0001302729644620,0.0012312538768604,-0.0009994849524558,,0.0032453695944055,0.0011196545295340,-0.0004223351860165,-0.0000312984294318,0.0002538822486879,0.0000161588989184,0.9999999671515505,-0.0791638111367561,0.2749989768490645,0.0022919017707144,0.0086654815822840,-0.0050508026033640,-0.0003003584279213,0.0014034562045708,-0.0017996052047238,-0.0003075636050198,,0.0000000000000000,0.0000000000000000,
1559013413.2206108570098877,0.4664700031280518,,0.0007276037725019,-0.0008857218325532,-0.0007319922754443,-0.0000182413314802,-0.0000186755058198,-0.0000192784401871,0.9999999994734107,-0.0776852442655382,0.2437607315628370,-0.0017268028665779,0.0022531167676901,-0.0001417219329723,-0.0023628829909615,0.0012059961659064,-0.0008934233754683,-0.0012704684032382,,0.0032453695944055,0.0011196545295340,-0.0004223351860165,-0.0000312984294318,0.0002538822486879,0.0000161588989184,0.9999999671515505,-0.0791638111367561,0.2749989768490645,0.0022919017707144,0.0086654815822840,-0.0050508026033640,-0.0003003584279213,0.0014034562045708,-0.0017996052047238,-0.0003075636050198,,0.0000000000000000,0.0000000000000000,
1559013413.2539308071136475,0.4997899532318115,,0.0008163219951827,-0.0010087034083356,-0.0008240235828040,-0.0000074806170269,-0.0000191323189903,-0.0000098928088021,0.9999999997400636,-0.0764475606851847,0.2437098354315732,-0.0006512335537481,0.0023051615463876,-0.0030332997585373,-0.0029503875741721,-0.0001473785159982,0.0001537888844547,0.0005882698134544,,-0.0003187015053108,0.0000959066590073,-0.0209231593457670,-0.0000160718343075,0.0002776230263452,0.0000108136414350,0.9999999612751075,-0.0774217422934056,0.2777186218234659,0.0016761845038021,-0.0058840299025178,-0.0058508231304586,-0.0372426919639111,0.0013397382572293,0.0005982400616631,-0.0003023762255907,,0.0000000000000000,0.0000000000000000,
1559013413.2872507572174072,0.5331099033355713,,0.0008922821011135,-0.0010914542254443,-0.0009065729671482,-0.0000056884816769,-0.0000201549993378,0.0000003037326041,0.9999999997806626,-0.0762372041023020,0.2435941951409619,0.0005173649025509,0.0028385698836021,-0.0024706020837624,-0.0030081713575408,0.0006566373430296,0.0001604724200711,0.0000633609283078,,-0.0003187015053108,0.0000959066590073,-0.0209231593457670,-0.0000160718343075,0.0002776230263452,0.0000108136414350,0.9999999612751075,-0.0774217422934056,0.2777186218234659,0.0016761845038021,-0.0058840299025178,-0.0058508231304586,-0.0372426919639111,0.0013397382572293,0.0005982400616631,-0.0003023762255907,,0.0000000000000000,0.0000000000000000,
1559013413.3205707073211670,0.5664298534393311,,0.0009938717768239,-0.0012084799398079,-0.0010007013763177,-0.0000014850432159,-0.0000206998898062,0.0000006545636078,0.9999999997844404,-0.0757553535354961,0.2435318082829860,0.0005576402591157,0.0028811291363310,-0.0036695641268467,-0.0020659165333263,0.0001275833293703,-0.0001059132195469,-0.0002099267705556,,0.0034269625326508,0.0011286720590091,-0.0090409392735334,-0.0000107213567495,0.0003332832900764,0.0000064883889218,0.9999999443825994,-0.0768108869699027,0.2840961473448347,0.0011722296041699,0.0091384267434478,-0.0020928373560309,-0.0114530222490430,0.0010196233633906,0.0007099295035005,-0.0002983235754073,,0.0000000000000000,0.0000000000000000,
1559013413.3538906574249268,0.5997498035430908,,0.0010979272796259,-0.0014159691405017,-0.0010355610519287,0.0000043933464849,-0.0000162811618091,0.0000009101885255,0.9999999998573970,-0.0750816170138070,0.2440381948303746,0.0005862532520789,0.0023075292199891,-0.0042585437139980,-0.0012307327649404,0.0006530873696994,0.0004249039443633,0.0003315248718850,,0.0038770528996077,0.0016472316239445,-0.0017817424349745,-0.0000074296579382,0.0003350296155490,0.0000100847786441,0.9999999437991255,-0.0764317786616396,0.2842968057608064,0.0015842104441551,0.0097196577116847,-0.0004313084064052,0.0031110367272049,0.0015891643706709,0.0003474377153907,-0.0016894822474569,,0.0000000000000000,0.0000000000000000,
1559013413.3872108459472656,0.6330699920654297,,0.0011824337501878,-0.0015614803755872,-0.0011047348649492,0.0000078473239874,-0.0000121962629525,0.0000079804655103,0.9999999998629915,-0.0746823552042075,0.2445073514195737,0.0013958337048289,0.0025617626323495,-0.0044164440902632,-0.0033208829459829,-0.0001479433812944,-0.0003807027096933,0.0008508336237517,,0.0040371625405149,0.0010407715328566,-0.0011724512895224,0.0000182179897012,0.0003403120708404,-0.0000080441169780,0.9999999418955441,-0.0735023907927335,0.2848993990187070,-0.0004930345491329,0.0076945354230702,-0.0024773650802672,0.0028743059374392,0.0014570327475667,-0.0012100221356377,0.0000713423796697,,0.0000000000000000,0.0000000000000000,
1559013413.4205307960510254,0.6663899421691895,,0.0012614851010067,-0.0016611979646584,-0.0011309897905188,-0.0000012826600465,-0.0000167953462241,0.0000061577098947,0.9999999998391769,-0.0757294684386436,0.2439800683199003,0.0011876682288162,0.0025345467432148,-0.0042031309584782,-0.0041804182046254,-0.0001469483454886,-0.0006470104174600,0.0008489669141011,,0.0028244609372718,-0.0020864745447010,-0.0040981470072898,0.0000272535559166,0.0003338402301539,-0.0000050454464155,0.9999999438912424,-0.0724653892738492,0.2841582340357628,-0.0001480977271716,0.0034915832802653,-0.0125113883987069,-0.0027146551292390,0.0007540810620412,0.0003361692652106,-0.0002933166106232,,0.0000000000000000,0.0000000000000000,
1559013413.4538507461547852,0.6997098922729492,,0.0013449326935195,-0.0017575674388965,-0.0012523240329464,-0.0000100272110917,-0.0000277924842149,0.0000034959738312,0.9999999995574056,-0.0767328213451029,0.2427194910152623,0.0008843451309840,0.0031070129583534,-0.0022238621699037,-0.0040975582909392,0.0001356783142766,-0.0009010839795352,-0.0007481214002923,,0.0028244609372718,-0.0020864745447010,-0.0040981470072898,0.0000272535559166,0.0003338402301539,-0.0000050454464155,0.9999999438912424,-0.0724653892738492,0.2841582340357628,-0.0001480977271716,0.0034915832802653,-0.0125113883987069,-0.0027146551292390,0.0007540810620412,0.0003361692652106,-0.0002933166106232,,0.0000000000000000,0.0000000000000000,
1559013413.4871706962585449,0.7330298423767090,,0.0014501571834253,-0.0017404369682085,-0.0013579934853702,0.0000029371973993,-0.0000222056884579,-0.0000060435489238,0.9999999997308779,-0.0752518784308865,0.2433582459484784,-0.0002096965188530,0.0034303720647732,-0.0046273234562639,-0.0027005625008559,0.0001189234799365,0.0001547659384805,0.0005908316581659,,0.0028910345138242,-0.0023383199389853,-0.0041449240337843,0.0000373961634486,0.0003340290623401,-0.0000106710419311,0.9999999434561191,-0.0713061125007729,0.2841790525900197,-0.0007923905845583,0.0037497158627957,-0.0126193119212985,-0.0020666199270636,0.0008638525614515,0.0007067462429404,0.0000795015148469,,0.0000000000000000,0.0000000000000000,
1559013413.5204906463623047,0.7663497924804688,,0.0015589368772497,-0.0018678683504053,-0.0014453571090711,0.0000027534506126,-0.0000212003465114,0.0000001521087224,0.9999999997714704,-0.0752699035710268,0.2434743840895657,0.0005001281439672,0.0036854770020880,-0.0040852726907462,-0.0029560101691424,0.0006515274682440,0.0001567200612737,0.0005959554005356,,0.0028910345138242,-0.0023383199389853,-0.0041449240337843,0.0000373961634486,0.0003340290623401,-0.0000106710419311,0.9999999434561191,-0.0713061125007729,0.2841790525900197,-0.0007923905845583,0.0037497158627957,-0.0126193119212985,-0.0020666199270636,0.0008638525614515,0.0007067462429404,0.0000795015148469,,0.0000000000000000,0.0000000000000000,
1559013413.5538108348846436,0.7996699810028076,,0.0016640808781259,-0.0019889013578039,-0.0015561499745785,0.0000025036801422,-0.0000282822043675,0.0000163110737006,0.9999999994638987,-0.0752906259357126,0.2426653016650394,0.0023528932897002,0.0034777056896570,-0.0045910145615089,-0.0036343635933275,0.0001199185156624,-0.0001115417600903,0.0005889649556878,,0.0008416231557927,0.0017042349993819,-0.0082787919112038,0.0000540832522323,0.0003709936414145,-0.0000274513881228,0.9999999293425681,-0.0694029478739007,0.2884124663842267,-0.0027200200000634,-0.0031365249305964,0.0013117705238983,-0.0091546773910522,-0.0008535996312276,-0.0001344025076833,-0.0015033677918836,,0.0000000000000000,0.0000000000000000,
1559013413.5871307849884033,0.8329899311065674,,0.0017922548106906,-0.0021564366742803,-0.0016789808995897,0.0000116310677819,-0.0000291254297180,0.0000235230200173,0.9999999992315477,-0.0742411826427939,0.2425697386248909,0.0031794249378144,0.0025168017612073,-0.0033870309948641,-0.0014219455211010,0.0011872512618598,0.0006950419594448,0.0000722180618292,,0.0030406504889629,0.0022882742342330,-0.0062925504181727,0.0000611729674452,0.0003626874159403,-0.0000190422897520,0.9999999321765465,-0.0685860076404653,0.2874618788989146,-0.0017548979202029,0.0040563573129475,0.0002654088311829,-0.0037910772953182,0.0001189401809825,-0.0001427652314305,-0.0001788293011487,,0.0000000000000000,0.0000000000000000,
1559013413.6204507350921631,0.8663098812103271,,0.0018190088662107,-0.0021565293901305,-0.0016564098642190,0.0000124714025062,-0.0000297123728467,0.0000258393360405,0.9999999991469839,-0.0741437572807337,0.2425028244786483,0.0034449424285502,0.0029135954269693,-0.0033835117583869,-0.0023034760794643,0.0001240333566966,0.0001585183167168,0.0000582371721337,,0.0030406504889629,0.0022882742342330,-0.0062925504181727,0.0000611729674452,0.0003626874159403,-0.0000190422897520,0.9999999321765465,-0.0685860076404653,0.2874618788989146,-0.0017548979202029,0.0040563573129475,0.0002654088311829,-0.0037910772953182,0.0001189401809825,-0.0001427652314305,-0.0001788293011487,,0.0000000000000000,0.0000000000000000,
1559013413.6537706851959229,0.8996298313140869,,0.0019194620920120,-0.0022611337004042,-0.0017512998748161,0.0000123437261828,-0.0000333577448291,0.0000279917251460,0.9999999989756784,-0.0741573460370074,0.2420854186325000,0.0036921363082458,0.0032774263851497,-0.0041514177710837,-0.0029052291208616,-0.0004136805088829,0.0001528118245273,0.0005857079189950,,0.0034378551607457,0.0025472472578253,-0.0043545256517963,0.0000600555418070,0.0003908734422606,-0.0000220183470360,0.9999999215632351,-0.0687157343071086,0.2906913252913965,-0.0021000470966965,0.0047460272908211,0.0013947092229500,0.0006963039049879,-0.0011309223482385,-0.0014337574830279,0.0015923746395856,,0.0000000000000000,0.0000000000000000,
1559013413.6870906352996826,0.9329497814178467,,0.0019982395481104,-0.0021543153343665,-0.0018766511314434,0.0000004452713792,-0.0000293073770709,0.0000322395116650,0.9999999990507469,-0.0755187230492349,0.2425502362102316,0.0041783341722501,0.0030444079060751,-0.0043423821384964,-0.0028552660904253,-0.0012110265890464,0.0004180645445083,0.0003135917818790,,0.0036291435458029,0.0025966150466021,-0.0043469637549630,0.0000571760738891,0.0003901364780748,-0.0000200743580797,0.9999999220607196,-0.0690446522828446,0.2906071492304136,-0.0018773020674637,0.0051087369211018,0.0014169181231409,0.0000617773694103,-0.0004234086372890,-0.0003483407199383,-0.0010793746914715,,0.0000000000000000,0.0000000000000000,
1559013413.7204108238220215,0.9662699699401855,,0.0021126509942249,-0.0022947583343391,-0.0019859593426236,-0.0000100640119558,-0.0000279012499852,0.0000324625784945,0.9999999990332086,-0.0767228847770664,0.2427114392061848,0.0042037170528589,0.0032865981870889,-0.0046625593636020,-0.0028812161165445,-0.0001448235782663,0.0001556650675560,0.0003219725513370,,0.0029821578802633,0.0023954715740928,-0.0033581745908973,0.0000636555501370,0.0004000566115030,-0.0000217090852176,0.9999999177156937,-0.0683030665391002,0.2917436920126553,-0.0020657681279611,0.0022860211320221,-0.0006600108463317,0.0015310561284423,-0.0004109627625439,-0.0006739070522599,-0.0001190709881485,,0.0000000000000000,0.0000000000000000,
1559013413.7537307739257812,0.9995899200439453,,0.0021283716180622,-0.0022421635401211,-0.0019727175875999,-0.0000038591602780,-0.0000286035467940,0.0000372280554627,0.9999999988905079,-0.0760095352565554,0.2426316612287415,0.0047498915551443,0.0035707224274383,-0.0047188707418243,-0.0026793174328159,0.0001189234777040,0.0001547659417444,0.0005908316629067,,0.0029821578802633,0.0023954715740928,-0.0033581745908973,0.0000636555501370,0.0004000566115030,-0.0000217090852176,0.9999999177156937,-0.0683030665391002,0.2917436920126553,-0.0020657681279611,0.0022860211320221,-0.0006600108463317,0.0015310561284423,-0.0004109627625439,-0.0006739070522599,-0.0001190709881485,,0.0000000000000000,0.0000000000000000,
1559013413.7870507240295410,1.0329098701477051,,0.0022711653356211,-0.0023985931252547,-0.0020928152270208,-0.0000000783095661,-0.0000267900289249,0.0000437483655602,0.9999999986841844,-0.0755730883400872,0.2428404442234235,0.0054967836404574,0.0037885720576394,-0.0028923321689813,-0.0039409651006907,-0.0001377236309330,-0.0003731979893314,-0.0002143553571488,,0.0029821578802633,0.0023954715740928,-0.0033581745908973,0.0000636555501370,0.0004000566115030,-0.0000217090852176,0.9999999177156937,-0.0683030665391002,0.2917436920126553,-0.0020657681279611,0.0022860211320221,-0.0006600108463317,0.0015310561284423,-0.0004109627625439,-0.0006739070522599,-0.0001190709881485,,0.0000000000000000,0.0000000000000000,
1559013413.8203706741333008,1.0662298202514648,,0.0022860239341502,-0.0023039381934833,-0.0020340971304169,-0.0000041901047038,-0.0000285805875996,0.0000462562093043,0.9999999985129780,-0.0760430479243898,0.2426356623295526,0.0057844477524349,0.0037381506722446,-0.0039091754832370,-0.0038324211628545,-0.0004126854756027,-0.0001134958861940,0.0005838412168167,,0.0028483643782737,0.0054159764026453,-0.0048358352553247,0.0000756474026680,0.0004063720092715,-0.0000323465478623,0.9999999140464770,-0.0669346459473181,0.2924658971404100,-0.0032850968095539,0.0015071481466293,0.0085062691941857,-0.0014686621725559,-0.0004123515100218,-0.0004598114755936,-0.0001185764558613,,0.0000000000000000,0.0000000000000000,
1559013413.8536908626556396,1.0995500087738037,,0.0023978542147123,-0.0023846249954837,-0.0021572500683819,-0.0000056261725095,-0.0000328805039252,0.0000457174613742,0.9999999983985661,-0.0762078921234371,0.2421428544986823,0.0057233685901273,0.0037770979000088,-0.0008443465823487,-0.0043867502312323,0.0006698422007924,-0.0006309459850081,-0.0010074282016682,,0.0052727955121410,0.0028594060605301,-0.0016091656637851,0.0000741511501028,0.0004075664680992,-0.0000336539987448,0.9999999136292910,-0.0671068135670647,0.2926025797277269,-0.0034351616037410,0.0104847270995378,-0.0010913329897448,0.0042982785962522,0.0000560693915759,0.0001306207850575,-0.0007089182618074,,0.0000000000000000,0.0000000000000000,
1559013413.8870108127593994,1.1328699588775635,,0.0025526685498340,-0.0024979619876708,-0.0022191281343991,-0.0000120081408211,-0.0000380693196470,0.0000365732234199,0.9999999985344655,-0.0769436930130019,0.2415468994510976,0.0046763230395772,0.0039114894053971,-0.0019698208359416,-0.0042054655393223,0.0004004204017635,-0.0011682908225606,-0.0004811290006258,,0.0052727955121410,0.0028594060605301,-0.0016091656637851,0.0000741511501028,0.0004075664680992,-0.0000336539987448,0.9999999136292910,-0.0671068135670647,0.2926025797277269,-0.0034351616037410,0.0104847270995378,-0.0010913329897448,0.0042982785962522,0.0000560693915759,0.0001306207850575,-0.0007089182618074,,0.0000000000000000,0.0000000000000000,
1559013413.9203307628631592,1.1661899089813232,,0.0025526685498340,-0.0024979619876708,-0.0022191281343991,-0.0000120081408211,-0.0000380693196470,0.0000365732234199,0.9999999985344655,-0.0769436930130019,0.2415468994510976,0.0046763230395772,0.0039114894053971,-0.0019698208359416,-0.0042054655393223,0.0004004204017635,-0.0011682908225606,-0.0004811290006258,,0.0054303640759792,0.0028405871846140,-0.0015512931906976,0.0000727297327581,0.0004122941432348,-0.0000389757507913,0.9999999116024042,-0.0672725866643876,0.2931435651078277,-0.0040457387794924,0.0105438055470586,-0.0008907766314223,0.0042810388840735,0.0001138636871474,-0.0001375615538564,-0.0004429370164871,,0.0000000000000000,0.0000000000000000,
1559013413.9536507129669189,1.1995098590850830,,0.0027748562515761,-0.0026942638007509,-0.0023941571528527,-0.0000323120887550,-0.0000407505241767,0.0000393799470284,0.9999999978722718,-0.0792689958731365,0.2412401761197119,0.0049984560482714,0.0034127011590025,-0.0034537937927885,-0.0023190891953216,0.0011785914080204,0.0009557211049059,0.0008729764976998,,0.0042457708010142,0.0032688893773403,-0.0056604679087909,0.0000648888487885,0.0004357793942480,-0.0000388127972930,0.9999999021896570,-0.0681711214985140,0.2958347627029305,-0.0040308126094763,0.0040785656310618,0.0004996526986361,-0.0031115380115807,-0.0004219063557684,-0.0014084292342886,-0.0011841928353533,,0.0000000000000000,0.0000000000000000,
1559013413.9869606494903564,1.2328197956085205,,0.0029552487451525,-0.0028936045466804,-0.0025712036199249,-0.0000323703727456,-0.0000297812393773,0.0000530351081497,0.9999999976262570,-0.0792689630575575,0.2424992769790524,0.0065615365876936,0.0032114421541006,-0.0041013415708788,-0.0044531427606985,-0.0004122553065013,-0.0009142951902527,0.0008445383245540,,0.0037830777864451,0.0059721551358482,-0.0016152676663159,0.0000616365717948,0.0004380310634883,-0.0000290971533605,0.9999999017415333,-0.0685385516296640,0.2960941705912740,-0.0029179549245959,0.0020071996841580,0.0080442428588867,0.0036611172836274,0.0013339569559321,0.0007723305607215,-0.0004502651281655,,0.0000000000000000,0.0000000000000000,
1559013414.0202808380126953,1.2661399841308594,,0.0029677874549596,-0.0032898722379533,-0.0017401428397394,-0.0000317950041607,-0.0000334609432594,0.0000524832567921,0.9999999975574755,-0.0792033199368445,0.2420775254540145,0.0064988661009476,0.0020313081385829,-0.0019345160678384,-0.0010229632626187,0.0001236031841392,0.0009593176081522,-0.0002024599485787,,0.0037830777864451,0.0059721551358482,-0.0016152676663159,0.0000616365717948,0.0004380310634883,-0.0000290971533605,0.9999999017415333,-0.0685385516296640,0.2960941705912740,-0.0029179549245959,0.0020071996841580,0.0080442428588867,0.0036611172836274,0.0013339569559321,0.0007723305607215,-0.0004502651281655,,0.0000000000000000,0.0000000000000000,
1559013414.0536007881164551,1.2994599342346191,,0.0030796102468247,-0.0033816637671089,-0.0018421591281790,-0.0000303050353001,-0.0000320337769534,0.0000561644152842,0.9999999974505004,-0.0790307774770370,0.2422416266202499,0.0069204728459705,0.0042870231389976,-0.0028560724724422,-0.0048587123290150,0.0001254585694618,-0.0009085887770837,0.0003170675337687,,0.0000121213038593,0.0015928919038833,-0.0050828893196578,0.0000748137299263,0.0004453782290903,-0.0000428664643663,0.9999998971017973,-0.0670360616612345,0.2969341739491855,-0.0044962081267990,-0.0103412009775639,-0.0070697003975511,-0.0045804427936673,-0.0004666797758546,-0.0001374986022711,0.0000456533380202,,0.0000000000000000,0.0000000000000000,
1559013414.0869207382202148,1.3327798843383789,,0.0031835951808217,-0.0033342519923144,-0.0019308639996530,-0.0000268045075814,-0.0000305858634585,0.0000585261102929,0.9999999974603589,-0.0786284849595872,0.2424078867290403,0.0071908692642438,0.0040459624397841,-0.0023043475466107,-0.0028692669744436,-0.0001387186557024,-0.0001068903453619,-0.0002124886928200,,-0.0003862388438266,0.0013193463922199,-0.0052756966752279,0.0000762091679498,0.0004512275026457,-0.0000531757478453,0.9999998938791161,-0.0668817920699509,0.2976029888637595,-0.0056783421457382,-0.0093114748597145,-0.0073452508077025,-0.0049650780856609,0.0013335975818336,0.0000820299610496,-0.0005578060518019,,0.0000000000000000,0.0000000000000000,
1559013414.1202406883239746,1.3660998344421387,,0.0033023982765175,-0.0034219044999668,-0.0020094832950343,-0.0000329176435561,-0.0000355696387186,0.0000579392731529,0.9999999971471352,-0.0793293150434746,0.2418367388088470,0.0071244154390080,0.0038715130588889,-0.0021701972618301,-0.0030750715978157,-0.0006632276633393,-0.0009040152138102,-0.0007558070479900,,-0.0003862388438266,0.0013193463922199,-0.0052756966752279,0.0000762091679498,0.0004512275026457,-0.0000531757478453,0.9999998938791161,-0.0668817920699509,0.2976029888637595,-0.0056783421457382,-0.0093114748597145,-0.0073452508077025,-0.0049650780856609,0.0013335975818336,0.0000820299610496,-0.0005578060518019,,0.0000000000000000,0.0000000000000000,
1559013414.1535606384277344,1.3994197845458984,,0.0034826092288949,-0.0037164059753869,-0.0020284369416596,-0.0000333063803785,-0.0000280274050357,0.0000469380473101,0.9999999979509846,-0.0793791912160011,0.2426993124295515,0.0058625907027274,0.0033147956062934,-0.0032403648205223,-0.0021588025542771,-0.0004060156888155,0.0001584403088347,-0.0002131838538466,,0.0054194410451250,0.0039221283223847,-0.0059444888312575,0.0000707223501789,0.0004701856227759,-0.0000471678987493,0.9999998858495028,-0.0675073877342590,0.2997762539914523,-0.0049928816865142,0.0113711925223470,0.0025506995152682,-0.0051999506540596,-0.0004708282649517,0.0001321081072092,-0.0002189685619669,,0.0000000000000000,0.0000000000000000,
1559013414.1868808269500732,1.4327399730682373,,0.0035809757097796,-0.0038045382892672,-0.0021099700510876,-0.0000314139264713,-0.0000236112636189,0.0000444871427754,0.9999999982382839,-0.0791635099243794,0.2432049750921896,0.0055810460989321,0.0030901688363457,-0.0023544410470559,-0.0025533545650798,-0.0006691978734200,0.0006938310355453,-0.0007446067921315,,0.0054194410451250,0.0039221283223847,-0.0059444888312575,0.0000707223501789,0.0004701856227759,-0.0000471678987493,0.9999998858495028,-0.0675073877342590,0.2997762539914523,-0.0049928816865142,0.0113711925223470,0.0025506995152682,-0.0051999506540596,-0.0004708282649517,0.0001321081072092,-0.0002189685619669,,0.0000000000000000,0.0000000000000000,
1559013414.2202007770538330,1.4660599231719971,,0.0036608549604340,-0.0036332455639453,-0.0021714826792210,-0.0000346483376571,-0.0000202177510584,0.0000508200897208,0.9999999979040268,-0.0795310310165422,0.2435948413368031,0.0063062366547980,0.0028588838975845,-0.0028190362342668,-0.0037040234182623,-0.0004055855148676,-0.0006423589943202,0.0000475132591270,,0.0001515348646201,0.0012294817827928,-0.0051123345942179,0.0000495634790215,0.0004787440758719,-0.0000295359639095,0.9999998837375924,-0.0699224355375030,0.3007594300014954,-0.0029747703706644,-0.0074289659969509,-0.0072463871911168,-0.0031776153482497,0.0000637078628642,-0.0005068728933111,-0.0000599529594183,,0.0000000000000000,0.0000000000000000,
1559013414.2535207271575928,1.4993798732757568,,0.0037405631877194,-0.0037285380246830,-0.0022557072208403,-0.0000474833070526,-0.0000266002462835,0.0000554967254349,0.9999999969789379,-0.0809995571329780,0.2428642689014520,0.0068431728502558,0.0027337935458016,-0.0036748282179137,-0.0020507067925551,-0.0009478443976879,-0.0001173262433617,0.0008450146887358,,0.0001515348646201,0.0012294817827928,-0.0051123345942179,0.0000495634790215,0.0004787440758719,-0.0000295359639095,0.9999998837375924,-0.0699224355375030,0.3007594300014954,-0.0029747703706644,-0.0074289659969509,-0.0072463871911168,-0.0031776153482497,0.0000637078628642,-0.0005068728933111,-0.0000599529594183,,0.0000000000000000,0.0000000000000000,
1559013414.2868406772613525,1.5326998233795166,,0.0038300968477591,-0.0037815751501874,-0.0022106729474372,-0.0000617058585212,-0.0000236386990959,0.0000608992515542,0.9999999959624400,-0.0826266819690501,0.2432045819918549,0.0074618364731367,0.0032551081902688,-0.0019620476520986,-0.0027891049095306,-0.0006774275628532,0.0001537108864240,0.0003168487780428,,0.0001515348646201,0.0012294817827928,-0.0051123345942179,0.0000495634790215,0.0004787440758719,-0.0000295359639095,0.9999998837375924,-0.0699224355375030,0.3007594300014954,-0.0029747703706644,-0.0074289659969509,-0.0072463871911168,-0.0031776153482497,0.0000637078628642,-0.0005068728933111,-0.0000599529594183,,0.0000000000000000,0.0000000000000000,
1559013414.3201606273651123,1.5660197734832764,,0.0039447833507180,-0.0038283415739673,-0.0023696874517681,-0.0000715381884901,-0.0000295970997779,0.0000630828326307,0.9999999950134277,-0.0837523548920931,0.2425222167429826,0.0077130342089908,0.0030334271371829,-0.0018209421058145,-0.0054840759725628,-0.0006779924288603,-0.0003807807175147,0.0005794125988890,,0.0034192999153591,0.0010579430106152,0.0064953994279523,0.0000345271351897,0.0005111463805106,-0.0000263829984575,0.9999998684205874,-0.0716438772364495,0.3044728703048402,-0.0026190585096938,0.0061334241181612,-0.0059950468130410,0.0181544125080109,-0.0012176220770925,0.0004556177300401,-0.0002580562722869,,0.0000000000000000,0.0000000000000000,
1559013414.3534808158874512,1.5993399620056152,,0.0040180356715900,-0.0038162643782775,-0.0024833583672432,-0.0000910612441398,-0.0000299615601968,0.0000644094465237,0.9999999933307890,-0.0859888864704463,0.2424808082225696,0.0078651790677589,0.0023166653649668,-0.0009853802822322,-0.0027352302200284,-0.0006691978809664,0.0006938310266032,-0.0007446067823639,,0.0034192999153591,0.0010579430106152,0.0064953994279523,0.0000345271351897,0.0005111463805106,-0.0000263829984575,0.9999998684205874,-0.0716438772364495,0.3044728703048402,-0.0026190585096938,0.0061334241181612,-0.0059950468130410,0.0181544125080109,-0.0012176220770925,0.0004556177300401,-0.0002580562722869,,0.0000000000000000,0.0000000000000000,
1559013414.3868007659912109,1.6326599121093750,,0.0041183846585573,-0.0039277688026352,-0.0025898973822421,-0.0000992298413101,-0.0000328247952430,0.0000640969660423,0.9999999924837754,-0.0869251103171248,0.2421527155438328,0.0078298643391477,0.0021485616578253,-0.0031886167494173,-0.0000629200337472,-0.0004080057676763,0.0006910557258206,-0.0002094504185719,,0.0021895927776940,0.0029798482027788,-0.0017919951850399,0.0000030791525065,0.0005051542388313,-0.0000423319240284,0.9999998715088527,-0.0752563039453160,0.3037837185136449,-0.0044476326101652,-0.0012074953410774,0.0004014892037958,0.0003388677432667,0.0008526051533408,0.0004610072937794,-0.0004364303313196,,0.0000000000000000,0.0000000000000000,
1559013414.4201207160949707,1.6659798622131348,,0.0041494103131436,-0.0039346356442382,-0.0023652564482922,-0.0000969956511826,-0.0000320204745567,0.0000597528919823,0.9999999929980624,-0.0866712062689424,0.2422441626728064,0.0073319273075157,0.0019930130031361,-0.0037282365638225,-0.0015415111940270,-0.0006789874691228,-0.0001144730021088,0.0005812793167909,,0.0021895927776940,0.0029798482027788,-0.0017919951850399,0.0000030791525065,0.0005051542388313,-0.0000423319240284,0.9999998715088527,-0.0752563039453160,0.3037837185136449,-0.0044476326101652,-0.0012074953410774,0.0004014892037958,0.0003388677432667,0.0008526051533408,0.0004610072937794,-0.0004364303313196,,0.0000000000000000,0.0000000000000000,
1559013414.4534406661987305,1.6992998123168945,,0.0042286555275877,-0.0040607766361619,-0.0024845023072949,-0.0001049250017845,-0.0000413937169785,0.0000739545534696,0.9999999909040141,-0.0875729830783017,0.2411724403378527,0.0089608887571727,0.0029525728849911,-0.0038495077791349,-0.0066452466275481,-0.0004108301031381,-0.0019814022835267,0.0011033686983926,,-0.0007866698724696,0.0029451451510226,-0.0125814430728610,0.0000157986888046,0.0005139369134954,-0.0000352755177775,0.9999998671874353,-0.0737949123807431,0.3047912550751987,-0.0036395933932186,-0.0114227980375290,-0.0008283081115223,-0.0189164131879807,0.0010380750754848,-0.0000468051694043,-0.0000632364171906,,0.0000000000000000,0.0000000000000000,
1559013414.4867608547210693,1.7326200008392334,,0.0042744294726471,-0.0038981400938183,-0.0026421327134002,-0.0001037681191901,-0.0000504181492813,0.0000820948637314,0.9999999899753105,-0.0874365277724963,0.2401396345598654,0.0098951722863460,0.0023235233688143,-0.0036025088111758,-0.0041985840450735,0.0003872155410551,-0.0003768725013103,0.0005896600711500,,-0.0007866698724696,0.0029451451510226,-0.0125814430728610,0.0000157986888046,0.0005139369134954,-0.0000352755177775,0.9999998671874353,-0.0737949123807431,0.3047912550751987,-0.0036395933932186,-0.0114227980375290,-0.0008283081115223,-0.0189164131879807,0.0010380750754848,-0.0000468051694043,-0.0000632364171906,,0.0000000000000000,0.0000000000000000,
1559013414.5200808048248291,1.7659399509429932,,0.0043795923186021,-0.0040164409919754,-0.0027509183490559,-0.0001008590946605,-0.0000536182169147,0.0000790723897245,0.9999999903500435,-0.0871046741009535,0.2397724151961678,0.0095493233181876,0.0039751345984967,-0.0032619614555773,-0.0017342893343533,0.0001291432172661,0.0001622705953219,-0.0004743573550006,,-0.0010190916370042,0.0029305503448535,-0.0129715628905499,0.0000147787733985,0.0005115638677940,-0.0000305568678146,0.9999998685751288,-0.0739091776481601,0.3045200255605026,-0.0030985740714162,-0.0116727147251368,-0.0011033358750865,-0.0203522164374590,-0.0005853964248672,0.0004621939733624,-0.0006874375976622,,0.0000000000000000,0.0000000000000000,
1559013414.5534007549285889,1.7992599010467529,,0.0045168280032279,-0.0040032636541641,-0.0025861388247168,-0.0000976037677347,-0.0000384512530865,0.0000693487412556,0.9999999920928789,-0.0867362536662767,0.2415088119745568,0.0084325852367528,0.0047131409919641,-0.0043821811650090,-0.0002196372186396,-0.0004166656314322,0.0009517348745837,0.0005913080146388,,-0.0014186147277336,0.0028985353920135,-0.0137229153900472,-0.0000057996978002,0.0005104819711338,-0.0000229059692081,0.9999998694249101,-0.0762630878852232,0.3043971376825290,-0.0022228761208905,-0.0113122472539544,-0.0013487567193806,-0.0224984772503376,0.0019746769685298,0.0005661716568284,0.0000881503365235,,0.0000000000000000,0.0000000000000000,
1559013414.5867207050323486,1.8325798511505127,,0.0046936919359994,-0.0041242763044900,-0.0026117888797239,-0.0001082025655743,-0.0000203532522219,0.0000723606403238,0.9999999913209439,-0.0879491806155109,0.2435832647334564,0.0087748137007972,0.0054988208955845,-0.0040387655482796,-0.0023213043124437,-0.0004146755616668,0.0004191194563716,0.0005875745878757,,0.0019871844674433,0.0011427158324406,0.0014052757964757,0.0000145126597581,0.0004981842610422,-0.0000104171448080,0.9999998757466462,-0.0739285600851628,0.3029898472145832,-0.0007887165253009,0.0037218257784843,-0.0071086878888309,0.0082138963043690,0.0013264474691823,-0.0008638858562335,-0.0011839268263429,,0.0000000000000000,0.0000000000000000,
1559013414.6200406551361084,1.8658998012542725,,0.0049218285512898,-0.0041882187906453,-0.0023483795532802,-0.0001067788625156,-0.0000109371261752,0.0000794433766014,0.9999999910837020,-0.0877824900969607,0.2446634172283273,0.0095849007594598,0.0045512073242882,-0.0045842792004429,-0.0033502231414066,-0.0001499334698907,0.0001519126227933,0.0008545669897947,,0.0047568128774480,0.0037095875125719,0.0024648328165501,0.0000356404946868,0.0005075731344468,-0.0000260096516513,0.9999998702113747,-0.0715160763899768,0.3040634651266995,-0.0025756846490801,0.0136421741917729,0.0022794245742261,0.0105858491733670,0.0010575925698504,0.0012645954266191,-0.0008035744540393,,0.0000000000000000,0.0000000000000000,
1559013414.6533608436584473,1.8992199897766113,,0.0050477168156402,-0.0043024829204237,-0.0024451725278373,-0.0001049151097897,-0.0000125740745604,0.0000822977488445,0.9999999910308965,-0.0875675337699058,0.2444762855692000,0.0099122550745216,0.0037230293245083,-0.0034515049562162,-0.0031302344826564,0.0001285783462016,-0.0003722210247362,-0.0002117935312124,,0.0052291259185608,0.0066394057520543,0.0041492087002540,0.0000389100275542,0.0005036717400379,-0.0000269764555915,0.9999998720365213,-0.0711419311843265,0.3036162666879023,-0.0026857110020908,0.0098902173340321,0.0114108640700579,0.0103509873151779,0.0004561709356494,0.0000499343514093,-0.0024497949052602,,0.0000000000000000,0.0000000000000000,
1559013414.6866807937622070,1.9325399398803711,,0.0051994649068208,-0.0048139237747571,-0.0023519998969537,-0.0000979100106141,-0.0000184008374546,0.0000745969146388,0.9999999922551697,-0.0867686307950310,0.2438072723700928,0.0090307331216174,0.0042462900579658,-0.0045372066104858,-0.0026704170255432,0.0001209135315314,-0.0003778495725668,0.0005870982007010,,0.0048463070129249,-0.0018530932854782,-0.0043371194688543,0.0000496536779303,0.0005462905973898,-0.0000412375629876,0.9999998487002679,-0.0699188675543722,0.3084979834910337,-0.0043255173052810,0.0092678898945451,-0.0197609998285770,-0.0056686224415898,0.0003229734138586,0.0009426797041669,0.0000063279644564,,0.0000000000000000,0.0000000000000000,
1559013414.7200007438659668,1.9658598899841309,,0.0053645410564855,-0.0049419566986512,-0.0024310179755217,-0.0000997579974477,-0.0000136369708405,0.0000769279224432,0.9999999919722350,-0.0869792142208144,0.2443535653782721,0.0092970787000984,0.0052113138219919,-0.0046006386625988,-0.0021826323029403,-0.0004182255134285,0.0006835509541612,0.0008557385192925,,0.0048463070129249,-0.0018530932854782,-0.0043371194688543,0.0000496536779303,0.0005462905973898,-0.0000412375629876,0.9999998487002679,-0.0699188675543722,0.3084979834910337,-0.0043255173052810,0.0092678898945451,-0.0197609998285770,-0.0056686224415898,0.0003229734138586,0.0009426797041669,0.0000063279644564,,0.0000000000000000,0.0000000000000000,
1559013414.7533206939697266,1.9991798400878906,,0.0055935673605318,-0.0048960146093046,-0.0024885192453985,-0.0001067059449108,-0.0000086798194550,0.0000884477287582,0.9999999903577507,-0.0877696956688246,0.2449235551525633,0.0106163631355108,0.0061538591578499,-0.0048320302455293,-0.0035014872219616,-0.0009452894561751,-0.0001154501001259,0.0005787174111723,,0.0048463070129249,-0.0018530932854782,-0.0043371194688543,0.0000496536779303,0.0005462905973898,-0.0000412375629876,0.9999998487002679,-0.0699188675543722,0.3084979834910337,-0.0043255173052810,0.0092678898945451,-0.0197609998285770,-0.0056686224415898,0.0003229734138586,0.0009426797041669,0.0000063279644564,,0.0000000000000000,0.0000000000000000,
1559013414.7866406440734863,2.0324997901916504,,0.0057822579725382,-0.0049970857370910,-0.0025669915544779,-0.0000970869681245,0.0000015695955763,0.0000775610166238,0.9999999922779729,-0.0866727018390149,0.2460961869291848,0.0093671555613686,0.0051882149365973,-0.0023124286425923,-0.0021122256724938,0.0006684169947010,0.0004361609371943,-0.0012662586498023,,0.0052264772958771,-0.0026613178782102,-0.0045826045094389,0.0000475461241026,0.0005503896550055,-0.0000303206917289,0.9999998469456131,-0.0701543412170739,0.3089692817089975,-0.0030752484778133,0.0105025302618742,-0.0202286429703236,-0.0065599353983998,-0.0001585589197930,0.0001465858949814,-0.0005223532207310,,0.0000000000000000,0.0000000000000000,
1559013414.8199608325958252,2.0658199787139893,,0.0058765015298046,-0.0046476104228237,-0.0022783854986334,-0.0000784318997353,0.0000047669778434,0.0000652514516689,0.9999999947839806,-0.0845410231990883,0.2464604431732010,0.0079560633845807,0.0054726330108796,-0.0027260384429145,-0.0029191313288212,0.0009310343174477,-0.0006337213849045,-0.0004722718888931,,0.0018265234022796,0.0015953799455236,-0.0011554579264682,0.0000444837004642,0.0005729476672168,-0.0000262091427368,0.9999998345326123,-0.0705030742439686,0.3115548276295116,-0.0026075822996182,-0.0026890477165580,-0.0041862255893648,-0.0000044877328946,0.0005216741119511,0.0008985064923763,-0.0011142032453790,,0.0000000000000000,0.0000000000000000,
1559013414.8532807826995850,2.0991399288177490,,0.0060344284673679,-0.0047438978219172,-0.0023402882009746,-0.0000745441040806,0.0000044849824236,0.0000661333348673,0.9999999950247218,-0.0840950823488218,0.2464282406340457,0.0080571677769578,0.0050849070836244,-0.0027762910240510,-0.0015615077086731,-0.0004095657016590,0.0004228717681454,0.0000549801197857,,0.0017678621869116,0.0015124191525959,-0.0011558191354735,0.0000500246131654,0.0005711314993747,-0.0000341708840095,0.9999998350693360,-0.0698725603466937,0.3113455691600101,-0.0035193152565481,-0.0028836037963629,-0.0044308807700872,0.0001653605722822,-0.0004792680847459,0.0003601763455663,-0.0004656376258936,,0.0000000000000000,0.0000000000000000,
1559013414.8865907192230225,2.1324498653411865,,0.0061981675137754,-0.0048751993453692,-0.0024635098059287,-0.0000781792067403,0.0000095769152659,0.0000779524792393,0.9999999938598526,-0.0845057733501595,0.2470136518889071,0.0094107362740139,0.0036620281025854,-0.0027171948166148,-0.0016032304670791,-0.0012094667200459,0.0006862483055161,0.0000491612266408,,0.0037245920093585,0.0014593189274381,0.0018194195298815,0.0000452053608667,0.0005873934933458,-0.0000412583801236,0.9999998256115376,-0.0704288468814915,0.3132080009324146,-0.0043341840155431,0.0031235220376402,-0.0038933986797929,0.0055238688364625,0.0007684917072766,-0.0006610307609662,0.0011769605334848,,0.0000000000000000,0.0000000000000000,
1559013414.9199106693267822,2.1657698154449463,,0.0063209614300972,-0.0049826939674149,-0.0025379255135127,-0.0000963809487143,0.0000111980727571,0.0000819777905289,0.9999999919324789,-0.0865895411264105,0.2472002378797065,0.0098717237447427,0.0039502381809422,-0.0037926529954507,-0.0018028620922515,-0.0004121206399238,0.0004209955871789,0.0003212773628460,,0.0018623154410093,0.0027256348443475,0.0001956494993356,0.0000609717752342,0.0005685389954785,-0.0000005049907428,0.9999998365227858,-0.0685993416432927,0.3110533887813620,0.0003396554353508,-0.0041805850341916,0.0011643896577880,0.0006084713968448,-0.0011163554154336,-0.0002244176284876,-0.0005613433313556,,0.0000000000000000,0.0000000000000000,
1559013414.9532308578491211,2.1990900039672852,,0.0064080842277840,-0.0050413687662894,-0.0023247505255198,-0.0000981654146096,0.0000091449161297,0.0000839827910237,0.9999999916134064,-0.0867930554826774,0.2469653059458407,0.0101018127787587,0.0041059014731443,-0.0040025547040519,-0.0016347908786269,0.0001214783842693,0.0001566419930095,0.0003245343883924,,0.0018623154410093,0.0027256348443475,0.0001956494993356,0.0000609717752342,0.0005685389954785,-0.0000005049907428,0.9999998365227858,-0.0685993416432927,0.3110533887813620,0.0003396554353508,-0.0041805850341916,0.0011643896577880,0.0006084713968448,-0.0011163554154336,-0.0002244176284876,-0.0005613433313556,,0.0000000000000000,0.0000000000000000,
1559013414.9865508079528809,2.2324099540710449,,0.0066243906870116,-0.0051937364430698,-0.0024144302640530,-0.0000959912377563,0.0000120831305308,0.0000812763947728,0.9999999920169140,-0.0865452217855188,0.2473015405783104,0.0097912060880968,0.0047523557156311,-0.0026856790372557,-0.0009969012361042,0.0001226081175412,0.0012256251686299,-0.0002005932643283,,0.0017062780141913,0.0027656684595040,0.0002331799804391,0.0000612674185654,0.0005514181504620,-0.0000028439440638,0.9999998460881075,-0.0685667471535469,0.3090911485785291,0.0000741147761850,-0.0036023485008627,0.0005956604145467,0.0011799458879977,-0.0012129178503528,-0.0015053579118103,-0.0001876538590295,,0.0000000000000000,0.0000000000000000,
1559013415.0198707580566406,2.2657299041748047,,0.0067126047410686,-0.0047802106848985,-0.0024839991198182,-0.0000922188329852,0.0000144409693892,0.0000875258914118,0.9999999918131819,-0.0861098316326775,0.2475727038765416,0.0105069757319601,0.0060383592393293,-0.0028128797062032,-0.0033002668943953,0.0006550774085107,-0.0001077116218267,0.0003277914105576,,0.0017062780141913,0.0027656684595040,0.0002331799804391,0.0000612674185654,0.0005514181504620,-0.0000028439440638,0.9999998460881075,-0.0685667471535469,0.3090911485785291,0.0000741147761850,-0.0036023485008627,0.0005956604145467,0.0011799458879977,-0.0012129178503528,-0.0015053579118103,-0.0001876538590295,,0.0000000000000000,0.0000000000000000,
1559013415.0531907081604004,2.2990498542785645,,0.0069117436396955,-0.0049186778759931,-0.0025851416091273,-0.0000974524512550,0.0000144738889292,0.0000958122598990,0.9999999905567686,-0.0867054705394173,0.2475778730995327,0.0114565174561903,0.0051660795657125,-0.0032370251271645,-0.0021493090172888,0.0001265882217510,0.0001603943420867,-0.0002080600841361,,0.0029704976370324,0.0010159144944673,-0.0068657866970963,0.0000582245274008,0.0005601235302483,0.0000018985634455,0.9999998414339528,-0.0689128105575490,0.3100893950405605,0.0006161232992979,0.0019557164050639,-0.0059154736809433,-0.0117896087467670,-0.0002207496145274,0.0013766620540991,-0.0006734695052728,,0.0000000000000000,0.0000000000000000,
1559013415.0865106582641602,2.3323698043823242,,0.0070672038530057,-0.0049145151169086,-0.0025964376438353,-0.0000931425555866,0.0000153611690101,0.0000834603457362,0.9999999920614349,-0.0862176806079746,0.2476775024997088,0.0100409442318465,0.0048673593138962,-0.0020413785970306,-0.0024081981219406,-0.0003963608803547,-0.0003685466392132,-0.0010158089705479,,0.0028302361133023,0.0011308112806345,-0.0055005617195409,0.0000614221750839,0.0005673859537669,0.0000062026473458,0.9999998371309983,-0.0685439934837356,0.3109222268541514,0.0011085002659068,0.0022205500863492,-0.0049788719043136,-0.0089428108185530,-0.0010673586511984,-0.0010183617705479,-0.0010928818956017,,0.0000000000000000,0.0000000000000000,
1559013415.1198308467864990,2.3656899929046631,,0.0072096929037184,-0.0050141432937510,-0.0026635117442771,-0.0001026148000514,0.0000150416100625,0.0000828727666852,0.9999999911880287,-0.0873034127792273,0.2476408786602590,0.0099736473089101,0.0048259281377008,-0.0021430982758459,-0.0022612582502788,-0.0001371588399447,0.0001612934729174,-0.0004769192121978,,0.0029221986643147,0.0009211528264380,-0.0058647508733388,0.0000569818828218,0.0005542338034713,0.0000084162661342,0.9999998447535492,-0.0690515848017236,0.3094154253685485,0.0013637793337315,0.0021712789312005,-0.0055115297436714,-0.0089211678132415,0.0002103293809341,-0.0018684096867219,-0.0012658763444051,,0.0000000000000000,0.0000000000000000,
1559013415.1531507968902588,2.3990099430084229,,0.0073903650435674,-0.0049081822117491,-0.0027311936232546,-0.0001038609330427,0.0000204529057593,0.0000892265225459,0.9999999904166066,-0.0874430216361820,0.2482620142564223,0.0107008560364751,0.0047192407968263,-0.0022004773511031,-0.0028626504919927,0.0001240332778023,0.0001585181644956,0.0000582371433430,,0.0051925544355761,0.0023813793912971,-0.0010522355678721,0.0000469439347328,0.0005700122294068,-0.0000046649478309,0.9999998364302685,-0.0702091373472664,0.3112216003752460,-0.0001381758148190,0.0089325234293938,0.0004224320291542,0.0012637828476727,-0.0005778026534244,-0.0005969690391794,-0.0000826702453196,,0.0000000000000000,0.0000000000000000,
1559013415.1864707469940186,2.4323298931121826,,0.0075657445305786,-0.0050021239325248,-0.0028461815530338,-0.0001130033479949,0.0000125025979993,0.0000900636288904,0.9999999894812357,-0.0884903280404671,0.2473512077914171,0.0107980647093445,0.0046265389665275,-0.0007859742752910,-0.0025209626882184,0.0001362430844437,-0.0003665925175556,-0.0010106852517283,,0.0036304880783306,0.0051519430538680,-0.0003610028637882,0.0000409396240160,0.0005788687692688,0.0000372948730190,0.9999998309219795,-0.0708737745339409,0.3122426262887678,0.0046684425669311,0.0018805343424901,0.0090315490961075,0.0019654412753880,-0.0017144266748801,0.0002639917656779,-0.0012922289315611,,0.0000000000000000,0.0000000000000000,
1559013415.2197906970977783,2.4656498432159424,,0.0076242531040667,-0.0049297417679195,-0.0027348663380192,-0.0001204811921094,0.0000121927904013,0.0000888246156637,0.9999999887229030,-0.0893478400068395,0.2473155793528642,0.0106561233355465,0.0042125595007359,-0.0030897488387435,-0.0007788190287826,-0.0001442588058667,0.0006901565262716,0.0000594086951603,,0.0036304880783306,0.0051519430538680,-0.0003610028637882,0.0000409396240160,0.0005788687692688,0.0000372948730190,0.9999998309219795,-0.0708737745339409,0.3122426262887678,0.0046684425669311,0.0018805343424901,0.0090315490961075,0.0019654412753880,-0.0017144266748801,0.0002639917656779,-0.0012922289315611,,0.0000000000000000,0.0000000000000000,
1559013415.2531106472015381,2.4989697933197021,,0.0077988293694309,-0.0050293925055265,-0.0028003621563197,-0.0001156464609028,0.0000196673201738,0.0000899054636150,0.9999999890780500,-0.0887932157839588,0.2481722249087934,0.0107787589079541,0.0054081827407013,-0.0030573852995495,-0.0030224371024393,0.0001214783073538,0.0001566419801162,0.0003245343869907,,0.0024622045541892,0.0033692700341506,0.0010831382365003,0.0000311932746903,0.0005793344129262,0.0000361975982775,0.9999998310441615,-0.0719912381284506,0.3122958639970193,0.0045419871211058,-0.0010414639255032,0.0009290307061747,0.0048048202879727,0.0009482172317803,0.0003190914285369,-0.0010488524567336,,0.0000000000000000,0.0000000000000000,
1559013415.2864308357238770,2.5322899818420410,,0.0079985109017213,-0.0049795439163223,-0.0027319882799617,-0.0001150082237885,0.0000181080686998,0.0000800535309359,0.9999999900183193,-0.0887249601330380,0.2479919231228501,0.0096500587382733,0.0066056047758417,-0.0014593274613466,-0.0047666722253725,-0.0003979208207227,-0.0006367305263402,-0.0007513784530428,,0.0024622045541892,0.0033692700341506,0.0010831382365003,0.0000311932746903,0.0005793344129262,0.0000361975982775,0.9999998310441615,-0.0719912381284506,0.3122958639970193,0.0045419871211058,-0.0010414639255032,0.0009290307061747,0.0048048202879727,0.0009482172317803,0.0003190914285369,-0.0010488524567336,,0.0000000000000000,0.0000000000000000,
1559013415.3197507858276367,2.5656099319458008,,0.0081958326191969,-0.0050773700661118,-0.0028377801101689,-0.0001128736828435,0.0000282363340351,0.0000831363129384,0.9999999897752974,-0.0884787478401130,0.2491530217235808,0.0100016656561945,0.0053830204318895,-0.0023395945610724,-0.0028917357635694,0.0003918951301306,0.0004276790906400,-0.0002036315173490,,-0.0004187368762987,0.0000351582624904,-0.0101975856681350,0.0000339133369935,0.0005851228979050,0.0000428547801781,0.9999998273222590,-0.0716758011117047,0.3129601442598663,0.0053041828621122,-0.0091990232467651,-0.0111310230568051,-0.0174473952502012,-0.0002537416294217,0.0002517852990422,0.0007231563213281,,0.0000000000000000,0.0000000000000000,
1559013415.3530707359313965,2.5989298820495605,,0.0082715607914159,-0.0051564801675210,-0.0025459358981991,-0.0000972830972328,0.0000263906912640,0.0000815724009475,0.9999999915927369,-0.0866929883039892,0.2489411246731829,0.0098228031209958,0.0049469517189501,-0.0022228618604122,-0.0019210268077656,0.0006581971243243,0.0004286561474386,-0.0002010696497504,,-0.0004187368762987,0.0000351582624904,-0.0101975856681350,0.0000339133369935,0.0005851228979050,0.0000428547801781,0.9999998273222590,-0.0716758011117047,0.3129601442598663,0.0053041828621122,-0.0091990232467651,-0.0111310230568051,-0.0174473952502012,-0.0002537416294217,0.0002517852990422,0.0007231563213281,,0.0000000000000000,0.0000000000000000,
1559013415.3863906860351562,2.6322498321533203,,0.0084444727272277,-0.0052491393780430,-0.0026660973470314,-0.0001007371178444,0.0000153709058196,0.0000849790773420,0.9999999911971623,-0.0870872036674527,0.2476789378628220,0.0102149644508363,0.0053651173186195,-0.0021803743151448,-0.0027830078414766,-0.0004070108514661,0.0004247478784206,-0.0002113171353201,,-0.0009817813704339,-0.0000302048205232,-0.0113073154465510,0.0000366397794939,0.0005790403470259,0.0000539893675716,0.9999998302274612,-0.0713571827692653,0.3122647584925159,0.0065812067841531,-0.0103610353544354,-0.0106029035523534,-0.0180826224386692,0.0003542889317032,0.0002166567428503,-0.0017341335769743,,0.0000000000000000,0.0000000000000000,
1559013415.4197106361389160,2.6655697822570801,,0.0084996709491156,-0.0052261441986620,-0.0028748064462224,-0.0001068954841089,0.0000224309847870,0.0000831318017222,0.9999999905796549,-0.0877937500575368,0.2484877207186462,0.0100021163714703,0.0053979885650186,-0.0014235085977836,-0.0036477322551548,-0.0006682029692130,0.0004275231868424,-0.0007464734908608,,-0.0014185691403290,-0.0004501569395737,-0.0120030723032950,0.0000434684384757,0.0005856383472689,0.0000345169022151,0.9999998269733873,-0.0705855220237378,0.3130179456839972,0.0043492845201148,-0.0107360417023301,-0.0110346311703324,-0.0169592592865229,-0.0017026001587510,0.0004706384497695,-0.0002738574403338,,0.0000000000000000,0.0000000000000000,
1559013415.4530308246612549,2.6988899707794189,,0.0087151085519019,-0.0053158411050539,-0.0030155734809397,-0.0001063592286891,0.0000256441224433,0.0000789343526912,0.9999999908997307,-0.0877343481651369,0.2488552283356168,0.0095205968441598,0.0049177434104035,-0.0037482033575740,-0.0023779612503727,-0.0001483736836191,0.0004200964047542,0.0005901364564840,,0.0034025515714207,0.0019694676577049,0.0014925504697577,0.0000218994381274,0.0006415251941719,0.0000333035632454,0.9999997934283349,-0.0730576655340355,0.3194220055325690,0.0042004903961273,0.0078299734741449,-0.0012851294595748,0.0068843513727188,0.0005175640108064,-0.0001538863434689,-0.0014675890561193,,0.0000000000000000,0.0000000000000000,
1559013415.4863507747650146,2.7322099208831787,,0.0087932220904157,-0.0049540590665723,-0.0027130163110862,-0.0001061391939972,0.0000189410115379,0.0000769281761965,0.9999999912288828,-0.0877101809887531,0.2480867796770160,0.0092917990083991,0.0063265338717168,-0.0017828325721625,-0.0043387141273742,0.0003978653342732,-0.0011701671804180,-0.0002148317981362,,0.0034025515714207,0.0019694676577049,0.0014925504697577,0.0000218994381274,0.0006415251941719,0.0000333035632454,0.9999997934283349,-0.0730576655340355,0.3194220055325690,0.0042004903961273,0.0078299734741449,-0.0012851294595748,0.0068843513727188,0.0005175640108064,-0.0001538863434689,-0.0014675890561193,,0.0000000000000000,0.0000000000000000,
