#Time(sec),Dtime(sec),,x(m),y(m),z(m),qx,qy,qz,qw,roll_x_G(deg),pitch_y_G(deg),yaw_z_G(deg),vx(m/s),vy(m/s),vz(m/s),wx(rad/s),wy(rad/s),wz(rad/s),,gt_x(m),gt_y(m),gt_z(m),gt_qx,gt_qy,gt_qz,gt_qw,gt_groll_x_G(deg),gt_pitch_y_G(deg),gt_yaw_z_G(deg),gt_vx(m/s),gt_vy(m/s),gt_vz(m/s),gt_wx(rad/s),gt_wy(rad/s),gt_wz(rad/s),,Sr,Sr_avg,
1559013412.7541408538818359,0.0000000000000000,,0.0000000000000002,0.0000000000000001,-0.0000000000000001,0.0000000000000000,-0.0000000000000001,0.0000000000000000,1.0000000000000000,-0.0755855138669150,0.2459037397968158,0.0004794994091153,0.0000000000000000,0.0000000000000000,0.0000000000000000,0.0000000000000000,0.0000000000000000,0.0000000000000000,,0.0000000000000000,0.0000000000000000,0.0000000000000000,0.0000000000000000,0.0000000000000000,0.0000000000000000,1.0000000000000000,-0.0755855138669150,0.2459037397968215,0.0004794994091152,-0.0098102642223239,-0.0059528849087656,-0.0021041124127805,0.0008114594966173,-0.0000641869410174,-0.0007574954070151,,0.0000000000000000,0.0000000000000000,
1559013412.7874608039855957,0.0333199501037598,,0.0000000000000002,0.0000000000000001,-0.0000000000000001,0.0000000000000000,-0.0000000000000001,0.0000000000000000,1.0000000000000000,-0.0755855138669150,0.2459037397968158,0.0004794994091153,0.0000000000000000,0.0000000000000000,0.0000000000000000,0.0000000000000000,0.0000000000000000,0.0000000000000000,,0.0000000000000000,0.0000000000000000,0.0000000000000000,0.0000000000000000,0.0000000000000000,0.0000000000000000,1.0000000000000000,-0.0755855138669150,0.2459037397968215,0.0004794994091152,-0.0098102642223239,-0.0059528849087656,-0.0021041124127805,0.0008114594966173,-0.0000641869410174,-0.0007574954070151,,0.0000000000000000,0.0000000000000000,
1559013412.8207807540893555,0.0666399002075195,,0.0000219726581638,-0.0000260111889973,-0.0000459141663904,-0.0000208610050351,-0.0000137221306289,-0.0000034844792411,0.9999999996821901,-0.0779777081630646,0.2443307657790641,0.0000823114382821,0.0005549145090711,-0.0009140744155948,-0.0007645881653806,-0.0006713226546122,-0.0001088443910840,-0.0002176123651700,,0.0000000000000000,0.0000000000000000,0.0000000000000000,0.0000000000000000,0.0000000000000000,0.0000000000000000,1.0000000000000000,-0.0755855138669150,0.2459037397968215,0.0004794994091152,-0.0098102642223239,-0.0059528849087656,-0.0021041124127805,0.0008114594966173,-0.0000641869410174,-0.0007574954070151,,0.0000000000000000,0.0000000000000000,
1559013412.8541007041931152,0.0999598503112793,,0.0000608926743231,-0.0000640802948601,-0.0001140602429562,-0.0000373096937066,-0.0000189844924195,-0.0000087132854731,0.9999999990858274,-0.0798651435414091,0.2437269247291102,-0.0005160265755550,0.0011061855532015,-0.0033799717536283,-0.0017536299372295,-0.0014824384616985,0.0004133351236126,0.0008436244272202,,0.0026245542083911,0.0026448552001494,-0.0084863851899029,-0.0000333937179824,0.0001718520074773,-0.0000101301488424,0.9999999846245635,-0.0794174526191618,0.2655949411350161,-0.0007079784706163,0.0011400097282603,-0.0002242026966996,-0.0186141021549702,-0.0007273238734342,-0.0001038627669914,-0.0002373664610786,,0.0000000000000000,0.0000000000000000,
1559013412.8874206542968750,0.1332798004150391,,0.0001262903034411,-0.0001468154741993,-0.0002142065874932,-0.0000378024141703,-0.0000235806923088,-0.0000050935236011,0.9999999989944923,-0.0799198270708824,0.2432008019201591,-0.0001005132246582,0.0021184657892204,-0.0024107857097970,-0.0026184181863062,0.0001285783637746,-0.0003722209284548,-0.0002117934720251,,0.0026245542083911,0.0026448552001494,-0.0084863851899029,-0.0000333937179824,0.0001718520074773,-0.0000101301488424,0.9999999846245635,-0.0794174526191618,0.2655949411350161,-0.0007079784706163,0.0011400097282603,-0.0002242026966996,-0.0186141021549702,-0.0007273238734342,-0.0001038627669914,-0.0002373664610786,,0.0000000000000000,0.0000000000000000,
1559013412.9207408428192139,0.1665999889373779,,0.0001876071963411,-0.0002485065635448,-0.0002723575101359,-0.0000332340376668,-0.0000278667317498,-0.0000049033733097,0.9999999990474505,-0.0793962315090670,0.2427096905476230,-0.0000780715043153,0.0016332172232536,-0.0030002443095807,-0.0000183282768429,0.0009260591413560,0.0006978172556181,-0.0004629382745979,,0.0013044971720459,0.0006642558835833,-0.0097306379038952,-0.0000438730574526,0.0002087906767953,-0.0000009822662857,0.9999999772403214,-0.0806136494002281,0.2698292134783979,0.0003343256994272,-0.0023964915890247,-0.0079505480825901,-0.0198433436453342,0.0003404117596801,-0.0015395777300000,-0.0001423610374331,,0.0000000000000000,0.0000000000000000,
1559013412.9540607929229736,0.1999199390411377,,0.0002510355284044,-0.0003552317527220,-0.0002739830334416,-0.0000129934686530,-0.0000142844809747,-0.0000089746469803,0.9999999997732896,-0.0770788454877928,0.2442654901962383,-0.0005467471256826,0.0015572095440772,-0.0016274100853720,0.0003069651755764,0.0011929260021615,0.0012332859105604,-0.0007229402316692,,0.0013044971720459,0.0006642558835833,-0.0097306379038952,-0.0000438730574526,0.0002087906767953,-0.0000009822662857,0.9999999772403214,-0.0806136494002281,0.2698292134783979,0.0003343256994272,-0.0023964915890247,-0.0079505480825901,-0.0198433436453342,0.0003404117596801,-0.0015395777300000,-0.0001423610374331,,0.0000000000000000,0.0000000000000000,
1559013412.9873807430267334,0.2332398891448975,,0.0003049992330981,-0.0004089312959995,-0.0003164140705479,-0.0000144173017045,-0.0000098617901226,-0.0000141313640163,0.9999999997475956,-0.0772445424394733,0.2447715032002950,-0.0011383418386656,0.0011389741805766,-0.0019570558982999,-0.0014499054642399,-0.0004121206084769,0.0004209957160276,0.0003212774096721,,0.0018857590854552,-0.0013061177091510,-0.0060609667982342,-0.0000362485746485,0.0002088160531889,0.0000027108259949,0.9999999775372739,-0.0797380425351669,0.2698326961289798,0.0007577056763264,-0.0000950830581132,-0.0141929863020778,-0.0110827842727304,0.0008529586484656,0.0008104145526886,-0.0009446555632167,,0.0000000000000000,0.0000000000000000,
1559013413.0207006931304932,0.2665598392486572,,0.0003431363790865,-0.0004716913804853,-0.0004165912864769,-0.0000362799963632,-0.0000178833168929,-0.0000100745123364,0.9999999991312265,-0.0797478174257171,0.2438528996089663,-0.0006721862495950,0.0008971832518353,-0.0020463925252434,-0.0023451758404527,-0.0009427345252527,-0.0001135738131031,0.0003124202551737,,0.0018767528659337,-0.0015868478416372,-0.0062711862608355,-0.0000291626588616,0.0002160709066437,-0.0000033503031968,0.9999999762258388,-0.0789291896576434,0.2706631018623400,0.0000621929295683,-0.0001832428679336,-0.0139995729550719,-0.0103720519691706,-0.0000324573375110,0.0006396181997843,0.0005033669876866,,0.0000000000000000,0.0000000000000000,
1559013413.0540206432342529,0.2998797893524170,,0.0003903418709308,-0.0005530731092706,-0.0004847153840386,-0.0000454537236579,-0.0000198192877273,-0.0000091906053814,0.9999999987283439,-0.0807986128321173,0.2436311815676687,-0.0005705755700852,0.0017486898863368,-0.0027608805572256,-0.0017974615562203,0.0003923254197449,-0.0003731200542663,0.0000570656395446,,-0.0012296630497877,0.0025351477552150,0.0010995718084875,-0.0000417926695341,0.0002369557506546,0.0000081066828663,0.9999999710198130,-0.0803705614379537,0.2730581080783792,0.0013715104470487,-0.0104640517383814,0.0027693663723767,0.0022680787369609,-0.0004222550487611,-0.0009954593842849,-0.0014647236093879,,0.0000000000000000,0.0000000000000000,
1559013413.0873408317565918,0.3331999778747559,,0.0004234976902915,-0.0005962911744435,-0.0004863166295308,-0.0000408711368669,-0.0000194034025838,-0.0000116516641798,0.9999999989086484,-0.0802746927182004,0.2436784596704901,-0.0008526696604451,0.0017240316241111,-0.0031861758490237,-0.0011778739291514,0.0001260234255512,-0.0003740971110650,0.0000545037719461,,-0.0012296630497877,0.0025351477552150,0.0010995718084875,-0.0000417926695341,0.0002369557506546,0.0000081066828663,0.9999999710198130,-0.0803705614379537,0.2730581080783792,0.0013715104470487,-0.0104640517383814,0.0027693663723767,0.0022680787369609,-0.0004222550487611,-0.0009954593842849,-0.0014647236093879,,0.0000000000000000,0.0000000000000000,
1559013413.1206507682800293,0.3665099143981934,,0.0004875586686246,-0.0007127703062120,-0.0005476840446578,-0.0000410329331021,-0.0000277651318124,-0.0000041845019925,0.9999999987639429,-0.0802895678547205,0.2427214407395897,0.0000043148165804,0.0027631418441034,-0.0047792486288829,-0.0033732374086626,0.0001177937451172,-0.0009142172566257,0.0011159593238582,,-0.0016435135824158,0.0026275468295871,0.0012304795801690,-0.0000513339756734,0.0002473163494147,-0.0000056877855006,0.9999999680835472,-0.0814710891680904,0.2742431862158812,-0.0002111219548778,-0.0103930579498410,0.0014988548355177,0.0039006241131574,0.0011318795150146,0.0002227528020740,-0.0000919199519558,,0.0000000000000000,0.0000000000000000,
1559013413.1539707183837891,0.3998298645019531,,0.0005988710968714,-0.0008534904861131,-0.0007330107689739,-0.0000265380775767,-0.0000211867366598,-0.0000015459288526,0.9999999994222315,-0.0786272961473059,0.2434756824086310,0.0003056148516890,0.0026068625067149,-0.0025214228949327,-0.0020224440045887,0.0006597571480103,0.0006968401992331,-0.0004655001468674,,0.0032453695944055,0.0011196545295340,-0.0004223351860165,-0.0000312984294318,0.0002538822486879,0.0000161588989184,0.9999999671515505,-0.0791638111367561,0.2749989768490645,0.0022919017707144,0.0086654815822840,-0.0050508026033640,-0.0003003584279213,0.0014034562045708,-0.0017996052047238,-0.0003075636050198,,0.0000000000000000,0.0000000000000000,
1559013413.1872906684875488,0.4331498146057129,,0.0006701412226915,-0.0009340277530272,-0.0007888954202154,-0.0000239242750575,-0.0000153892038939,-0.0000099968100592,0.9999999995454327,-0.0783319226024931,0.2441387298381557,-0.0006636913946358,0.0014385797159954,-0.0019464737385549,0.0001418699498666,0.0001302729644919,0.0012312538768002,-0.0009994849523482,,0.0013329283684650,-0.0002645851969253,-0.0013593500048340,-0.0000230157938096,0.0002529160120719,0.0000307535759244,0.9999999672789903,-0.0782070900445297,0.2748904838150207,0.0039647358401133,0.0011904048733413,-0.0095880255103111,-0.0023563199210912,0.0018597589805722,0.0016142132226378,-0.0009464622708037,,0.0000000000000000,0.0000000000000000,
1559013413.2206108570098877,0.4664700031280518,,0.0007276185505132,-0.0008846345813377,-0.0007322160063382,-0.0000182412815699,-0.0000186755600091,-0.0000192784346523,0.9999999994734106,-0.0776852385433816,0.2437607253541685,-0.0017268022241323,0.0022531514559979,-0.0001391388812155,-0.0023634141003196,0.0012059961659364,-0.0008934233755285,-0.0012704684031305,,0.0013329283684650,-0.0002645851969253,-0.0013593500048340,-0.0000230157938096,0.0002529160120719,0.0000307535759244,0.9999999672789903,-0.0782070900445297,0.2748904838150207,0.0039647358401133,0.0011904048733413,-0.0095880255103111,-0.0023563199210912,0.0018597589805722,0.0016142132226378,-0.0009464622708037,,0.0000000000000000,0.0000000000000000,
1559013413.2539308071136475,0.4997899532318115,,0.0008163383447499,-0.0010074994565298,-0.0008242713134687,-0.0000074805671164,-0.0000191323731805,-0.0000098928032668,0.9999999997400629,-0.0764475549630662,0.2437098292227411,-0.0006512329113134,0.0023051962352792,-0.0030307167621844,-0.0029509187394408,-0.0001473785159683,0.0001537888844232,0.0005882698134528,,-0.0003187015053108,0.0000959066590073,-0.0209231593457670,-0.0000160718343075,0.0002776230263452,0.0000108136414350,0.9999999612751075,-0.0774217422934056,0.2777186218234659,0.0016761845038021,-0.0058840299025178,-0.0058508231304586,-0.0372426919639111,0.0013397382572293,0.0005982400616631,-0.0003023762255907,,0.0000000000000000,0.0000000000000000,
1559013413.2872507572174072,0.5331099033355713,,0.0008920968195349,-0.0010894939924630,-0.0009070684120946,-0.0000056884247174,-0.0000201550804444,0.0000003037163746,0.9999999997806612,-0.0762371975831121,0.2435941858443745,0.0005173630549507,0.0028381959680961,-0.0024666516705942,-0.0030091693855435,0.0006566373430596,0.0001604724200396,0.0000633609283062,,-0.0003187015053108,0.0000959066590073,-0.0209231593457670,-0.0000160718343075,0.0002776230263452,0.0000108136414350,0.9999999612751075,-0.0774217422934056,0.2777186218234659,0.0016761845038021,-0.0058840299025178,-0.0058508231304586,-0.0372426919639111,0.0013397382572293,0.0005982400616631,-0.0003023762255907,,0.0000000000000000,0.0000000000000000,
1559013413.3205707073211670,0.5664298534393311,,0.0009936733562121,-0.0012063808902198,-0.0010012318941259,-0.0000014849862557,-0.0000206999709138,0.0000006545473783,0.9999999997844389,-0.0757553470162417,0.2435317989862828,0.0005576384114767,0.0028807551673316,-0.0036656137594341,-0.0020669145949120,0.0001275833294060,-0.0001059132195966,-0.0002099267705716,,-0.0003187015053108,0.0000959066590073,-0.0209231593457670,-0.0000160718343075,0.0002776230263452,0.0000108136414350,0.9999999612751075,-0.0774217422934056,0.2777186218234659,0.0016761845038021,-0.0058840299025178,-0.0058508231304586,-0.0372426919639111,0.0013397382572293,0.0005982400616631,-0.0003023762255907,,0.0000000000000000,0.0000000000000000,
1559013413.3538906574249268,0.5997498035430908,,0.0010980406715446,-0.0014150771176362,-0.0010362942583649,0.0000043934136827,-0.0000162812324241,0.0000009101093197,0.9999999998573955,-0.0750816093522672,0.2440381867265629,0.0005862441862011,0.0023077307299871,-0.0042569558489848,-0.0012320384290953,0.0006530873697350,0.0004249039443136,0.0003315248718690,,0.0034269625326508,0.0011286720590091,-0.0090409392735334,-0.0000107213567495,0.0003332832900764,0.0000064883889218,0.9999999443825994,-0.0768108869699027,0.2840961473448347,0.0011722296041699,0.0091384267434478,-0.0020928373560309,-0.0114530222490430,0.0010196233633906,0.0007099295035005,-0.0002983235754073,,0.0000000000000000,0.0000000000000000,
1559013413.3872108459472656,0.6330699920654297,,0.0011825542217099,-0.0015605325713683,-0.0011055139386978,0.0000078473911858,-0.0000121963335690,0.0000079803863039,0.9999999998629907,-0.0746823475427012,0.2445073433155602,0.0013958246388862,0.0025619641284340,-0.0044148562824161,-0.0033221886201627,-0.0001479433812537,-0.0003807027097357,0.0008508336236879,,0.0040371625405149,0.0010407715328566,-0.0011724512895224,0.0000182179897012,0.0003403120708404,-0.0000080441169780,0.9999999418955441,-0.0735023907927335,0.2848993990187070,-0.0004930345491329,0.0076945354230702,-0.0024773650802672,0.0028743059374392,0.0014570327475667,-0.0012100221356377,0.0000713423796697,,0.0000000000000000,0.0000000000000000,
1559013413.4205307960510254,0.6663899421691895,,0.0012613238623969,-0.0016597546332444,-0.0011309845647132,-0.0000012825885812,-0.0000167954772027,0.0000061575905470,0.9999999998391755,-0.0757294603077940,0.2439800532927594,0.0011876545721525,0.0025342909014604,-0.0042008471687565,-0.0041804092255025,-0.0001469483454479,-0.0006470104175023,0.0008489669140373,,0.0028244609372718,-0.0020864745447010,-0.0040981470072898,0.0000272535559166,0.0003338402301539,-0.0000050454464155,0.9999999438912424,-0.0724653892738492,0.2841582340357628,-0.0001480977271716,0.0034915832802653,-0.0125113883987069,-0.0027146551292390,0.0007540810620412,0.0003361692652106,-0.0002933166106232,,0.0000000000000000,0.0000000000000000,
1559013413.4538507461547852,0.6997098922729492,,0.0013447637469386,-0.0017560553201348,-0.0012523185371225,-0.0000100271396267,-0.0000277926151937,0.0000034958544803,0.9999999995574029,-0.0767328132140985,0.2427194759880135,0.0008843314739822,0.0031067570291925,-0.0022215784221660,-0.0040975492666526,0.0001356783143216,-0.0009010839796243,-0.0007481214003855,,0.0028244609372718,-0.0020864745447010,-0.0040981470072898,0.0000272535559166,0.0003338402301539,-0.0000050454464155,0.9999999438912424,-0.0724653892738492,0.2841582340357628,-0.0001480977271716,0.0034915832802653,-0.0125113883987069,-0.0027146551292390,0.0007540810620412,0.0003361692652106,-0.0002933166106232,,0.0000000000000000,0.0000000000000000,
1559013413.4871706962585449,0.7330298423767090,,0.0014501083213323,-0.0017388519872642,-0.0013579861722267,0.0000029372690648,-0.0000222057945868,-0.0000060437357646,0.9999999997308743,-0.0752518703099024,0.2433582337588777,-0.0002097179135897,0.0034303012968333,-0.0046250506177396,-0.0027005514970383,0.0001189234799815,0.0001547659383913,0.0005908316580727,,0.0028244609372718,-0.0020864745447010,-0.0040981470072898,0.0000272535559166,0.0003338402301539,-0.0000050454464155,0.9999999438912424,-0.0724653892738492,0.2841582340357628,-0.0001480977271716,0.0034915832802653,-0.0125113883987069,-0.0027146551292390,0.0007540810620412,0.0003361692652106,-0.0002933166106232,,0.0000000000000000,0.0000000000000000,
1559013413.5204906463623047,0.7663497924804688,,0.0015780902658036,-0.0018934903757495,-0.0014622762123029,0.0000037036499288,-0.0000214921153942,0.0000036419902361,0.9999999997555540,-0.0751593108123567,0.2434414759288318,0.0009000840461979,0.0038150892279354,-0.0054416718031382,-0.0033784213004990,0.0003785556952311,-0.0001161932511922,0.0013904185550532,,0.0009705727291415,0.0016289898501757,-0.0079331041607371,0.0000413433631328,0.0003589990839138,-0.0000095545487231,0.9999999346595452,-0.0708532497001342,0.2870405726501778,-0.0006679541082759,-0.0035913039464504,0.0022433528210968,-0.0086488155648112,-0.0000468759790238,-0.0001395221770508,-0.0007117160712369,,0.0000000000000000,0.0000000000000000,
1559013413.5538108348846436,0.7996699810028076,,0.0016790463936354,-0.0020602965426318,-0.0015649469295559,0.0000041225713351,-0.0000292371501391,0.0000197870811162,0.9999999993683324,-0.0751034179596697,0.2425563937697975,0.0027513562758148,0.0034978171897844,-0.0056047875732833,-0.0038652460835869,0.0006458527252306,-0.0003815239021603,0.0013911137130011,,0.0008416231557927,0.0017042349993819,-0.0082787919112038,0.0000540832522323,0.0003709936414145,-0.0000274513881228,0.9999999293425681,-0.0694029478739007,0.2884124663842267,-0.0027200200000634,-0.0031365249305964,0.0013117705238983,-0.0091546773910522,-0.0008535996312276,-0.0001344025076833,-0.0015033677918836,,0.0000000000000000,0.0000000000000000,
1559013413.5871307849884033,0.8329899311065674,,0.0017892301616651,-0.0022021640834094,-0.0016674329646289,0.0000116322165309,-0.0000291246969081,0.0000235143208878,0.9999999992317602,-0.0742410552537112,0.2425698212922850,0.0031784279693006,0.0025130090781027,-0.0034444281480872,-0.0014074615920122,0.0011872512626187,0.0006950419600353,0.0000722180545319,,0.0008416231557927,0.0017042349993819,-0.0082787919112038,0.0000540832522323,0.0003709936414145,-0.0000274513881228,0.9999999293425681,-0.0694029478739007,0.2884124663842267,-0.0027200200000634,-0.0031365249305964,0.0013117705238983,-0.0091546773910522,-0.0008535996312276,-0.0001344025076833,-0.0015033677918836,,0.0000000000000000,0.0000000000000000,
1559013413.6204507350921631,0.8663098812103271,,0.0018272071992838,-0.0021678315733775,-0.0016554860636282,0.0000124716271704,-0.0000297111117053,0.0000258387752251,0.9999999991470331,-0.0741437318070855,0.2425029689100509,0.0034448779737409,0.0029234486336623,-0.0033970927383065,-0.0023023710210983,0.0001240333574555,0.0001585183173074,0.0000582371648365,,0.0030406504889629,0.0022882742342330,-0.0062925504181727,0.0000611729674452,0.0003626874159403,-0.0000190422897520,0.9999999321765465,-0.0685860076404653,0.2874618788989146,-0.0017548979202029,0.0040563573129475,0.0002654088311829,-0.0037910772953182,0.0001189401809825,-0.0001427652314305,-0.0001788293011487,,0.0000000000000000,0.0000000000000000,
1559013413.6537706851959229,0.8996298313140869,,0.0019279572327322,-0.0022728449292409,-0.0017503427825911,0.0000123439508499,-0.0000333564836728,0.0000279911643267,0.9999999989757333,-0.0741573205624848,0.2420855630655609,0.0036920718528755,0.0032872802908928,-0.0041649989371491,-0.0029041241212908,-0.0004136805087360,0.0001528118255556,0.0005857079187773,,0.0036291435458029,0.0025966150466021,-0.0043469637549630,0.0000571760738891,0.0003901364780748,-0.0000200743580797,0.9999999220607196,-0.0690446522828446,0.2906071492304136,-0.0018773020674637,0.0051087369211018,0.0014169181231409,0.0000617773694103,-0.0004234086372890,-0.0003483407199383,-0.0010793746914715,,0.0000000000000000,0.0000000000000000,
1559013413.6870906352996826,0.9329497814178467,,0.0019914746337397,-0.0021443483950987,-0.0018612517755409,0.0000034851440196,-0.0000303552904514,0.0000314518506720,0.9999999990385956,-0.0751707671976869,0.2424300243099664,0.0040882219109439,0.0033247012457375,-0.0039084083606761,-0.0036604674412985,-0.0006764325289005,-0.0001125967563995,0.0003149820975570,,0.0036291435458029,0.0025966150466021,-0.0043469637549630,0.0000571760738891,0.0003901364780748,-0.0000200743580797,0.9999999220607196,-0.0690446522828446,0.2906071492304136,-0.0018773020674637,0.0051087369211018,0.0014169181231409,0.0000617773694103,-0.0004234086372890,-0.0003483407199383,-0.0010793746914715,,0.0000000000000000,0.0000000000000000,
1559013413.7204108238220215,0.9662699699401855,,0.0020871851666422,-0.0022662820296958,-0.0019517854689968,-0.0000086926535618,-0.0000273561708148,0.0000328666336517,0.9999999990479311,-0.0765655395673284,0.2427739569868130,0.0042499314336764,0.0038295638089209,-0.0050060200926594,-0.0045157890982702,-0.0004097003673317,-0.0009124190018463,0.0005782410888175,,0.0029821578802633,0.0023954715740928,-0.0033581745908973,0.0000636555501370,0.0004000566115030,-0.0000217090852176,0.9999999177156937,-0.0683030665391002,0.2917436920126553,-0.0020657681279611,0.0022860211320221,-0.0006600108463317,0.0015310561284423,-0.0004109627625439,-0.0006739070522599,-0.0001190709881485,,0.0000000000000000,0.0000000000000000,
1559013413.7537307739257812,0.9995899200439453,,0.0021167943511504,-0.0022792647229897,-0.0019405038274073,-0.0000064568799378,-0.0000300563755978,0.0000342343484127,0.9999999989414662,-0.0763086792861233,0.2424647358788400,0.0044070643762849,0.0035832567765914,-0.0040137800375528,-0.0030288265755836,0.0003913303842788,-0.0001068123429298,0.0000589323326229,,0.0029821578802633,0.0023954715740928,-0.0033581745908973,0.0000636555501370,0.0004000566115030,-0.0000217090852176,0.9999999177156937,-0.0683030665391002,0.2917436920126553,-0.0020657681279611,0.0022860211320221,-0.0006600108463317,0.0015310561284423,-0.0004109627625439,-0.0006739070522599,-0.0001190709881485,,0.0000000000000000,0.0000000000000000,
1559013413.7870507240295410,1.0329098701477051,,0.0022421143821603,-0.0024299487962585,-0.0020393905444014,0.0000003393437853,-0.0000279693113540,0.0000419822197708,0.9999999987275479,-0.0755260969243106,0.2427050395863851,0.0052945735003184,0.0034092324379758,-0.0027229106043819,-0.0024654890913817,0.0001281481951933,0.0004285783731407,-0.0004724906080036,,0.0028101152626748,0.0052019941020636,-0.0048105322396683,0.0000750037757571,0.0003923122821965,-0.0000290625935845,0.9999999198104331,-0.0670065753418996,0.2908552381115760,-0.0029068036838306,0.0013300126884133,0.0088829789310694,-0.0010889591649175,0.0003680692461785,0.0011983106378466,-0.0010839644819498,,0.0000000000000000,0.0000000000000000,
1559013413.8203706741333008,1.0662298202514648,,0.0023162896093738,-0.0024516179541943,-0.0020607889239809,-0.0000041870746453,-0.0000285796815578,0.0000462507303427,0.9999999985132701,-0.0760427033778170,0.2426357653074867,0.0057838197573344,0.0037678659521005,-0.0040542941816438,-0.0038586475956546,-0.0004126854744762,-0.0001134958864309,0.0005838412133825,,0.0028483643782737,0.0054159764026453,-0.0048358352553247,0.0000756474026680,0.0004063720092715,-0.0000323465478623,0.9999999140464770,-0.0669346459473181,0.2924658971404100,-0.0032850968095539,0.0015071481466293,0.0085062691941857,-0.0014686621725559,-0.0004123515100218,-0.0004598114755936,-0.0001185764558613,,0.0000000000000000,0.0000000000000000,
1559013413.8536908626556396,1.0995500087738037,,0.0024290153686579,-0.0025366756694256,-0.0021847317124276,-0.0000056231424492,-0.0000328795978614,0.0000457119823187,0.9999999983988636,-0.0762075475740667,0.2421429574784147,0.0057227405826471,0.0038068137236890,-0.0009894670927947,-0.0044129773472844,0.0006698422025074,-0.0006309459841746,-0.0010074282071227,,0.0028483643782737,0.0054159764026453,-0.0048358352553247,0.0000756474026680,0.0004063720092715,-0.0000323465478623,0.9999999140464770,-0.0669346459473181,0.2924658971404100,-0.0032850968095539,0.0015071481466293,0.0085062691941857,-0.0014686621725559,-0.0004123515100218,-0.0004598114755936,-0.0001185764558613,,0.0000000000000000,0.0000000000000000,
1559013413.8870108127593994,1.1328699588775635,,0.0025849031905849,-0.0026526171225595,-0.0022440913507397,-0.0000120051745326,-0.0000380685199792,0.0000365678632186,0.9999999985347275,-0.0769433557114723,0.2415469902562519,0.0046757086659553,0.0039412355788010,-0.0021126383353950,-0.0042285188641646,0.0004004204034784,-0.0011682908217271,-0.0004811290060804,,0.0052727955121410,0.0028594060605301,-0.0016091656637851,0.0000741511501028,0.0004075664680992,-0.0000336539987448,0.9999999136292910,-0.0671068135670647,0.2926025797277269,-0.0034351616037410,0.0104847270995378,-0.0010913329897448,0.0042982785962522,0.0000560693915759,0.0001306207850575,-0.0007089182618074,,0.0000000000000000,0.0000000000000000,
1559013413.9203307628631592,1.1661899089813232,,0.0025849031905849,-0.0026526171225595,-0.0022440913507397,-0.0000120051745326,-0.0000380685199792,0.0000365678632186,0.9999999985347275,-0.0769433557114723,0.2415469902562519,0.0046757086659553,0.0039412355788010,-0.0021126383353950,-0.0042285188641646,0.0004004204034784,-0.0011682908217271,-0.0004811290060804,,0.0052727955121410,0.0028594060605301,-0.0016091656637851,0.0000741511501028,0.0004075664680992,-0.0000336539987448,0.9999999136292910,-0.0671068135670647,0.2926025797277269,-0.0034351616037410,0.0104847270995378,-0.0010913329897448,0.0042982785962522,0.0000560693915759,0.0001306207850575,-0.0007089182618074,,0.0000000000000000,0.0000000000000000,
1559013413.9536507129669189,1.1995098590850830,,0.0028088832704343,-0.0028575208531097,-0.0024205085304169,-0.0000323091224263,-0.0000407497243867,0.0000393745866843,0.9999999978726113,-0.0792686585651808,0.2412402669254391,0.0049978416555323,0.0034424475077190,-0.0035966142878631,-0.0023421484969821,0.0011785914096981,0.0009557211056161,0.0008729764923780,,0.0042457708010142,0.0032688893773403,-0.0056604679087909,0.0000648888487885,0.0004357793942480,-0.0000388127972930,0.9999999021896570,-0.0681711214985140,0.2958347627029305,-0.0040308126094763,0.0040785656310618,0.0004996526986361,-0.0031115380115807,-0.0004219063557684,-0.0014084292342886,-0.0011841928353533,,0.0000000000000000,0.0000000000000000,
1559013413.9869606494903564,1.2328197956085205,,0.0029909194023419,-0.0030647496101047,-0.0025988279187472,-0.0000323674063008,-0.0000297804396078,0.0000530297476913,0.9999999976266611,-0.0792686257418553,0.2424993677778103,0.0065609221855332,0.0032411861174015,-0.0042441663277992,-0.0044762014423695,-0.0004122553048237,-0.0009142951895425,0.0008445383192322,,0.0016163225134831,0.0018428269025782,0.0076378858718637,0.0000685984619212,0.0004543867289951,-0.0000311516418720,0.9999998939282577,-0.0677419600665057,0.2979681196768502,-0.0031553800325751,-0.0052592363208532,-0.0075239953584969,0.0202106647193432,0.0005249262321740,0.0007250083726831,-0.0012422207510099,,0.0000000000000000,0.0000000000000000,
1559013414.0202808380126953,1.2661399841308594,,0.0030056587687601,-0.0034530354968586,-0.0017442330732713,-0.0000317925066293,-0.0000334606910250,0.0000524781464143,0.9999999975578314,-0.0792030362333369,0.2420775535519900,0.0064982804414968,0.0020621162944052,-0.0020673408832692,-0.0010263034248645,0.0001236031858169,0.0009593176088625,-0.0002024599539005,,0.0000121213038593,0.0015928919038833,-0.0050828893196578,0.0000748137299263,0.0004453782290903,-0.0000428664643663,0.9999998971017973,-0.0670360616612345,0.2969341739491855,-0.0044962081267990,-0.0103412009775639,-0.0070697003975511,-0.0045804427936673,-0.0004666797758546,-0.0001374986022711,0.0000456533380202,,0.0000000000000000,0.0000000000000000,
1559013414.0536007881164551,1.2994599342346191,,0.0031185646618188,-0.0035494944219705,-0.0018463663661650,-0.0000303025377362,-0.0000320335247343,0.0000561593048229,0.9999999974508710,-0.0790304937705875,0.2422416547162976,0.0069198871774082,0.0043178305941775,-0.0029888993749889,-0.0048620519927949,0.0001254585708393,-0.0009085887770100,0.0003170675288397,,-0.0001918267742289,0.0014583252582462,-0.0051793105503548,0.0000672918954053,0.0004469704203664,-0.0000485581158316,0.9999998966656715,-0.0679011019789145,0.2971157712807340,-0.0051490438799222,-0.0097791878506541,-0.0069832173176110,-0.0047325701452792,0.0013753385283053,0.0003016986011062,-0.0014640276785940,,0.0000000000000000,0.0000000000000000,
1559013414.0869207382202148,1.3327798843383789,,0.0032217185997312,-0.0034960954786091,-0.0019343538983372,-0.0000268023236308,-0.0000305857752886,0.0000585212824538,0.9999999974607027,-0.0786282370543339,0.2424078960735156,0.0071903160089525,0.0040752966856012,-0.0024289710985176,-0.0028719625355592,-0.0001387186543249,-0.0001068903452882,-0.0002124886977490,,-0.0001918267742289,0.0014583252582462,-0.0051793105503548,0.0000672918954053,0.0004469704203664,-0.0000485581158316,0.9999998966656715,-0.0679011019789145,0.2971157712807340,-0.0051490438799222,-0.0097791878506541,-0.0069832173176110,-0.0047325701452792,0.0013753385283053,0.0003016986011062,-0.0014640276785940,,0.0000000000000000,0.0000000000000000,
1559013414.1202406883239746,1.3660998344421387,,0.0033414059791097,-0.0035875028052025,-0.0020130541556324,-0.0000329154596119,-0.0000355695505193,0.0000579344452348,0.9999999971474899,-0.0793290671362386,0.2418367481534492,0.0071238621733753,0.0039008475522072,-0.0022948221343996,-0.0030777689652362,-0.0006632276621589,-0.0009040152138934,-0.0007558070525492,,-0.0003862388438266,0.0013193463922199,-0.0052756966752279,0.0000762091679498,0.0004512275026457,-0.0000531757478453,0.9999998938791161,-0.0668817920699509,0.2976029888637595,-0.0056783421457382,-0.0093114748597145,-0.0073452508077025,-0.0049650780856609,0.0013335975818336,0.0000820299610496,-0.0005578060518019,,0.0000000000000000,0.0000000000000000,
1559013414.1535606384277344,1.3994197845458984,,0.0035232156122598,-0.0038856033442130,-0.0020329781222379,-0.0000333043831995,-0.0000280272117600,0.0000469333183539,0.9999999979512786,-0.0793789646658871,0.2426993338338298,0.0058620487635517,0.0033445485610021,-0.0033644159074351,-0.0021621420173433,-0.0004060156876351,0.0001584403087515,-0.0002131838584058,,0.0054194410451250,0.0039221283223847,-0.0059444888312575,0.0000707223501789,0.0004701856227759,-0.0000471678987493,0.9999998858495028,-0.0675073877342590,0.2997762539914523,-0.0049928816865142,0.0113711925223470,0.0025506995152682,-0.0051999506540596,-0.0004708282649517,0.0001321081072092,-0.0002189685619669,,0.0000000000000000,0.0000000000000000,
1559013414.1868808269500732,1.4327399730682373,,0.0036224786073655,-0.0039774720062556,-0.0021146115171021,-0.0000314119292563,-0.0000236110703464,0.0000444824137614,0.9999999982385616,-0.0791632833726154,0.2432049964976693,0.0055805041541656,0.0031199226169307,-0.0024784932737234,-0.0025566932884218,-0.0006691978723895,0.0006938310355928,-0.0007446067965292,,0.0017337937437958,0.0027914976925686,-0.0073980466569868,0.0000657147087486,0.0004684735527028,-0.0000318904734004,0.9999998875985463,-0.0680728783992629,0.2995822330364225,-0.0032422190918197,-0.0032952094916254,-0.0025957324542105,-0.0077453418634832,-0.0003198916092515,-0.0001808123633964,-0.0010700231650844,,0.0000000000000000,0.0000000000000000,
1559013414.2202007770538330,1.4660599231719971,,0.0037025786238034,-0.0038000725178332,-0.0021754668092366,-0.0000346466145870,-0.0000202175832903,0.0000508156239765,0.9999999979043169,-0.0795308357524226,0.2435948598589549,0.0063057248840412,0.0028880593833048,-0.0029357646121275,-0.0037068206044012,-0.0004055855138370,-0.0006423589942727,0.0000475132547294,,0.0016039150001529,0.0026808541271728,-0.0077449373068534,0.0000509286114285,0.0004870076570089,-0.0000417809085965,0.9999998792420798,-0.0697727422121326,0.3017045906296459,-0.0043790822358526,-0.0030165864154696,-0.0030540812294930,-0.0095399990677834,0.0000660082805553,-0.0000287355851469,0.0002058113022940,,0.0000000000000000,0.0000000000000000,
1559013414.2535207271575928,1.4993798732757568,,0.0037831653984937,-0.0038988784487970,-0.0022597752677589,-0.0000474815839974,-0.0000266000784658,0.0000554922596206,0.9999999969792721,-0.0809993618672589,0.2428642874218059,0.0068426610699982,0.0027629680737452,-0.0037915578967752,-0.0020535073425224,-0.0009478443968380,-0.0001173262433289,0.0008450146846704,,0.0016039150001529,0.0026808541271728,-0.0077449373068534,0.0000509286114285,0.0004870076570089,-0.0000417809085965,0.9999998792420798,-0.0697727422121326,0.3017045906296459,-0.0043790822358526,-0.0030165864154696,-0.0030540812294930,-0.0095399990677834,0.0000660082805553,-0.0000287355851469,0.0002058113022940,,0.0000000000000000,0.0000000000000000,
1559013414.2868406772613525,1.5326998233795166,,0.0038723284582669,-0.0039455399456261,-0.0022136753451754,-0.0000617045876685,-0.0000236386367817,0.0000608948943494,0.9999999959627854,-0.0826265384708752,0.2432045884344237,0.0074613371569351,0.0032834417269563,-0.0020721305564237,-0.0027911362475298,-0.0006774275620033,0.0001537108864569,0.0003168487739774,,0.0001515348646201,0.0012294817827928,-0.0051123345942179,0.0000495634790215,0.0004787440758719,-0.0000295359639095,0.9999998837375924,-0.0699224355375030,0.3007594300014954,-0.0029747703706644,-0.0074289659969509,-0.0072463871911168,-0.0031776153482497,0.0000637078628642,-0.0005068728933111,-0.0000599529594183,,0.0000000000000000,0.0000000000000000,
1559013414.3201606273651123,1.5660197734832764,,0.0039880110789607,-0.0039961745916142,-0.0023727607064854,-0.0000715369176539,-0.0000295970374241,0.0000630784753514,0.9999999950137953,-0.0837522113928599,0.2425222231848514,0.0077125348833436,0.0030617602907204,-0.0019310260458225,-0.0054861098138490,-0.0006779924283287,-0.0003807807175597,0.0005794125950468,,0.0034192999153591,0.0010579430106152,0.0064953994279523,0.0000345271351897,0.0005111463805106,-0.0000263829984575,0.9999998684205874,-0.0716438772364495,0.3044728703048402,-0.0026190585096938,0.0061334241181612,-0.0059950468130410,0.0181544125080109,-0.0012176220770925,0.0004556177300401,-0.0002580562722869,,0.0000000000000000,0.0000000000000000,
1559013414.3534808158874512,1.5993399620056152,,0.0040592537751460,-0.0039839397796170,-0.0024854416159896,-0.0000910600831987,-0.0000299616817322,0.0000644050644204,0.9999999933311734,-0.0859887555774387,0.2424807935791826,0.0078646769273618,0.0023431558855413,-0.0010932292915821,-0.0027365918213240,-0.0006691978804348,0.0006938310265581,-0.0007446067862061,,0.0034192999153591,0.0010579430106152,0.0064953994279523,0.0000345271351897,0.0005111463805106,-0.0000263829984575,0.9999998684205874,-0.0716438772364495,0.3044728703048402,-0.0026190585096938,0.0061334241181612,-0.0059950468130410,0.0181544125080109,-0.0012176220770925,0.0004556177300401,-0.0002580562722869,,0.0000000000000000,0.0000000000000000,
1559013414.3868007659912109,1.6326599121093750,,0.0041606671861871,-0.0040997753328906,-0.0025920344608796,-0.0000992286803723,-0.0000328249167469,0.0000640925838572,0.9999999924841674,-0.0869249794230819,0.2421527008999742,0.0078293621891372,0.0021750522289791,-0.0032964667129505,-0.0000642835518869,-0.0004080057672124,0.0006910557255917,-0.0002094504224248,,0.0021895927776940,0.0029798482027788,-0.0017919951850399,0.0000030791525065,0.0005051542388313,-0.0000423319240284,0.9999998715088527,-0.0752563039453160,0.3037837185136449,-0.0044476326101652,-0.0012074953410774,0.0004014892037958,0.0003388677432667,0.0008526051533408,0.0004610072937794,-0.0004364303313196,,0.0000000000000000,0.0000000000000000,
1559013414.4201207160949707,1.6659798622131348,,0.0041928409287375,-0.0041060600874002,-0.0023622580063696,-0.0000969946343573,-0.0000320207564509,0.0000597486918096,0.9999999929984030,-0.0866710918014512,0.2422441296817947,0.0073314460413761,0.0020196367599738,-0.0038334032609295,-0.0015396947125656,-0.0006789874686589,-0.0001144730023377,0.0005812793129380,,0.0021652563266717,0.0029830315984504,-0.0017711143889034,0.0000129066003569,0.0005100100540465,-0.0000459568410642,0.9999998688055579,-0.0741321804956379,0.3043396591730880,-0.0048631812643290,-0.0012841224670410,-0.0001002111966955,0.0015639855992049,0.0004832490230910,0.0007252815994434,-0.0001657244720263,,0.0000000000000000,0.0000000000000000,
1559013414.4534406661987305,1.6992998123168945,,0.0042730218706801,-0.0042358954775205,-0.0024814392759743,-0.0001049239849961,-0.0000413939988610,0.0000739503532219,0.9999999909044198,-0.0875728686110497,0.2411724073427474,0.0089604074816331,0.0029791935697166,-0.0039546760253180,-0.0066434323141603,-0.0004108301027711,-0.0019814022839336,0.0011033686947875,,-0.0010190916370042,0.0029305503448535,-0.0129715628905499,0.0000147787733985,0.0005115638677940,-0.0000305568678146,0.9999998685751288,-0.0739091776481601,0.3045200255605026,-0.0030985740714162,-0.0116727147251368,-0.0011033358750865,-0.0203522164374590,-0.0005853964248672,0.0004621939733624,-0.0006874375976622,,0.0000000000000000,0.0000000000000000,
1559013414.4867608547210693,1.7326200008392334,,0.0043191986541109,-0.0040640235439346,-0.0026399269482144,-0.0001037675460708,-0.0000504184833434,0.0000820909400308,0.9999999899756753,-0.0874364640079470,0.2401395956343159,0.0098947227110225,0.0023499071375048,-0.0037003539706043,-0.0041973068230377,0.0003872155414221,-0.0003768725017172,0.0005896600675449,,-0.0010190916370042,0.0029305503448535,-0.0129715628905499,0.0000147787733985,0.0005115638677940,-0.0000305568678146,0.9999998685751288,-0.0739091776481601,0.3045200255605026,-0.0030985740714162,-0.0116727147251368,-0.0011033358750865,-0.0203522164374590,-0.0005853964248672,0.0004621939733624,-0.0006874375976622,,0.0000000000000000,0.0000000000000000,
1559013414.5200808048248291,1.7659399509429932,,0.0044252891829621,-0.0041857625714391,-0.0027486668953832,-0.0001008585215516,-0.0000536185509946,0.0000790684659670,0.9999999903503937,-0.0871046103360628,0.2397723762700678,0.0095488737360432,0.0040015188077760,-0.0033598068873859,-0.0017330117200864,0.0001291432173332,0.0001622705948700,-0.0004743573581867,,-0.0014186147277336,0.0028985353920135,-0.0137229153900472,-0.0000057996978002,0.0005104819711338,-0.0000229059692081,0.9999998694249101,-0.0762630878852232,0.3043971376825290,-0.0022228761208905,-0.0113122472539544,-0.0013487567193806,-0.0224984772503376,0.0019746769685298,0.0005661716568284,0.0000881503365235,,0.0000000000000000,0.0000000000000000,
1559013414.5534007549285889,1.7992599010467529,,0.0045635661477625,-0.0041682517463326,-0.0025819020959159,-0.0000976035482622,-0.0000384516272798,0.0000693449570872,0.9999999920931485,-0.0867362303638103,0.2415087684793373,0.0084321516593426,0.0047396657254737,-0.0044758850830029,-0.0002172526674592,-0.0004166656313651,0.0009517348741318,0.0005913080114526,,-0.0014186147277336,0.0028985353920135,-0.0137229153900472,-0.0000057996978002,0.0005104819711338,-0.0000229059692081,0.9999998694249101,-0.0762630878852232,0.3043971376825290,-0.0022228761208905,-0.0113122472539544,-0.0013487567193806,-0.0224984772503376,0.0019746769685298,0.0005661716568284,0.0000881503365235,,0.0000000000000000,0.0000000000000000,
1559013414.5867207050323486,1.8325798511505127,,0.0047413626066426,-0.0042925570146464,-0.0026074676434159,-0.0001082023460379,-0.0000203536263839,0.0000723568561037,0.9999999913212337,-0.0879491573137197,0.2435832212371573,0.0087743801183036,0.0055253447890621,-0.0041324698578922,-0.0023189208010726,-0.0004146755618626,0.0004191194559138,0.0005875745849320,,0.0019871844674433,0.0011427158324406,0.0014052757964757,0.0000145126597581,0.0004981842610422,-0.0000104171448080,0.9999998757466462,-0.0739285600851628,0.3029898472145832,-0.0007887165253009,0.0037218257784843,-0.0071086878888309,0.0082138963043690,0.0013264474691823,-0.0008638858562335,-0.0011839268263429,,0.0000000000000000,0.0000000000000000,
1559013414.6200406551361084,1.8658998012542725,,0.0049705179181541,-0.0043526465517137,-0.0023379899830274,-0.0001067790419274,-0.0000109376926496,0.0000794398043606,0.9999999910839604,-0.0877825124132772,0.2446633517333924,0.0095844915002547,0.0045777744930514,-0.0046740741046420,-0.0033445705296652,-0.0001499334700866,0.0001519126223355,0.0008545669868510,,0.0047568128774480,0.0037095875125719,0.0024648328165501,0.0000356404946868,0.0005075731344468,-0.0000260096516513,0.9999998702113747,-0.0715160763899768,0.3040634651266995,-0.0025756846490801,0.0136421741917729,0.0022794245742261,0.0105858491733670,0.0010575925698504,0.0012645954266191,-0.0008035744540393,,0.0000000000000000,0.0000000000000000,
1559013414.6533608436584473,1.8992199897766113,,0.0050972068039412,-0.0044696151306152,-0.0024346121064831,-0.0001049152892165,-0.0000125746410502,0.0000822941765662,0.9999999910311647,-0.0875675560874691,0.2444762200733224,0.0099118458109268,0.0037495957216520,-0.0035412998980438,-0.0031245816391834,0.0001285783457074,-0.0003722210253755,-0.0002117935337985,,0.0052291259185608,0.0066394057520543,0.0041492087002540,0.0000389100275542,0.0005036717400379,-0.0000269764555915,0.9999998720365213,-0.0711419311843265,0.3036162666879023,-0.0026857110020908,0.0098902173340321,0.0114108640700579,0.0103509873151779,0.0004561709356494,0.0000499343514093,-0.0024497949052602,,0.0000000000000000,0.0000000000000000,
1559013414.6866807937622070,1.9325399398803711,,0.0052512911734328,-0.0049912070327693,-0.0023382649605704,-0.0000979101871717,-0.0000184014640494,0.0000745932876587,0.9999999922554116,-0.0867686528081869,0.2438071999804806,0.0090303175990512,0.0042735956489870,-0.0046306907556943,-0.0026631952919751,0.0001209135310372,-0.0003778495732062,0.0005870981981148,,0.0052291259185608,0.0066394057520543,0.0041492087002540,0.0000389100275542,0.0005036717400379,-0.0000269764555915,0.9999998720365213,-0.0711419311843265,0.3036162666879023,-0.0026857110020908,0.0098902173340321,0.0114108640700579,0.0103509873151779,0.0004561709356494,0.0000499343514093,-0.0024497949052602,,0.0000000000000000,0.0000000000000000,
1559013414.7200007438659668,1.9658598899841309,,0.0054173273160931,-0.0051225247994717,-0.0024170285886461,-0.0000997581739984,-0.0000136375974404,0.0000769242954154,0.9999999919724878,-0.0869792362353529,0.2443534929873477,0.0092966631720862,0.0052386185448672,-0.0046941228567473,-0.0021754106732602,-0.0004182255139363,0.0006835509534632,0.0008557385166913,,0.0048463070129249,-0.0018530932854782,-0.0043371194688543,0.0000496536779303,0.0005462905973898,-0.0000412375629876,0.9999998487002679,-0.0699188675543722,0.3084979834910337,-0.0043255173052810,0.0092678898945451,-0.0197609998285770,-0.0056686224415898,0.0003229734138586,0.0009426797041669,0.0000063279644564,,0.0000000000000000,0.0000000000000000,
1559013414.7533206939697266,1.9991798400878906,,0.0056460325229728,-0.0050678241416080,-0.0024748142368256,-0.0001067067926986,-0.0000086804493080,0.0000884441616437,0.9999999903579703,-0.0877697945749913,0.2449234824028424,0.0106159544746783,0.0061805770373262,-0.0049196010208567,-0.0034945221407226,-0.0009452894566830,-0.0001154501008239,0.0005787174085712,,0.0048463070129249,-0.0018530932854782,-0.0043371194688543,0.0000496536779303,0.0005462905973898,-0.0000412375629876,0.9999998487002679,-0.0699188675543722,0.3084979834910337,-0.0043255173052810,0.0092678898945451,-0.0197609998285770,-0.0056686224415898,0.0003229734138586,0.0009426797041669,0.0000063279644564,,0.0000000000000000,0.0000000000000000,
1559013414.7866406440734863,2.0324997901916504,,0.0058356625351907,-0.0051719722823657,-0.0025530411197916,-0.0000970878158872,0.0000015689656686,0.0000775574494643,0.9999999922781683,-0.0866728007457229,0.2460961141760145,0.0093667468936587,0.0052149342095630,-0.0023999981089450,-0.0021052583881550,0.0006684169936591,0.0004361609365638,-0.0012662586522173,,0.0050306412913612,-0.0022553857574116,-0.0044513011141840,0.0000528530867372,0.0005470135817998,-0.0000352669572085,0.9999998483694555,-0.0695489346579165,0.3085817133850298,-0.0036412316935952,0.0100358575582504,-0.0200687516480684,-0.0060759009793401,0.0004965229309164,0.0002437760995235,0.0009104041382670,,0.0000000000000000,0.0000000000000000,
1559013414.8199608325958252,2.0658199787139893,,0.0059292065805816,-0.0048086163757016,-0.0022609473731228,-0.0000784334932516,0.0000047661199464,0.0000652480534209,0.9999999947840815,-0.0845412074816478,0.2464603443334194,0.0079556741072730,0.0054986077093876,-0.0028054422961996,-0.0029105435079598,0.0009310343164058,-0.0006337213855350,-0.0004722718913081,,0.0052264772958771,-0.0026613178782102,-0.0045826045094389,0.0000475461241026,0.0005503896550055,-0.0000303206917289,0.9999998469456131,-0.0701543412170739,0.3089692817089975,-0.0030752484778133,0.0105025302618742,-0.0202286429703236,-0.0065599353983998,-0.0001585589197930,0.0001465858949814,-0.0005223532207310,,0.0000000000000000,0.0000000000000000,
1559013414.8532807826995850,2.0991399288177490,,0.0061146587442682,-0.0049237915231944,-0.0023345175492757,-0.0000742446686048,0.0000042042765484,0.0000676082997577,0.9999999949495855,-0.0840600453609063,0.2463963072959914,0.0082262326645274,0.0052483525772193,-0.0032069846049821,-0.0023978416749532,0.0001199184802627,-0.0001115418998056,0.0005889649215309,,0.0017678621869116,0.0015124191525959,-0.0011558191354735,0.0000500246131654,0.0005711314993747,-0.0000341708840095,0.9999998350693360,-0.0698725603466937,0.3113455691600101,-0.0035193152565481,-0.0028836037963629,-0.0044308807700872,0.0001653605722822,-0.0004792680847459,0.0003601763455663,-0.0004656376258936,,0.0000000000000000,0.0000000000000000,
1559013414.8865907192230225,2.1324498653411865,,0.0062412563322851,-0.0050567846489808,-0.0024484383748751,-0.0000781795152343,0.0000095762089912,0.0000779463917634,0.9999999938603099,-0.0845058117074989,0.2470135699843003,0.0094100388075537,0.0036825343112809,-0.0028037779384755,-0.0015960616018100,-0.0012094667216764,0.0006862483047217,0.0000491612245481,,0.0035853931829597,0.0016109033633505,0.0015901379357438,0.0000526102442627,0.0005726425298447,-0.0000379765869908,0.9999998339352233,-0.0695783964641965,0.3115181782101862,-0.0039554728880048,0.0037116021849215,-0.0034948575776070,0.0057091480121017,0.0006449705688283,0.0007822083425708,0.0002719526237343,,0.0000000000000000,0.0000000000000000,
1559013414.9199106693267822,2.1657698154449463,,0.0063446780392069,-0.0051478345400272,-0.0025133572486895,-0.0000953447132154,0.0000101385873036,0.0000811637942126,0.9999999921095167,-0.0864712077894364,0.2470786882983797,0.0097786188618428,0.0041210722187181,-0.0026604027368193,-0.0022898070668876,-0.0014661138285312,0.0001582843823700,-0.0007560257993326,,0.0035853931829597,0.0016109033633505,0.0015901379357438,0.0000526102442627,0.0005726425298447,-0.0000379765869908,0.9999998339352233,-0.0695783964641965,0.3115181782101862,-0.0039554728880048,0.0037116021849215,-0.0034948575776070,0.0057091480121017,0.0006449705688283,0.0007822083425708,0.0002719526237343,,0.0000000000000000,0.0000000000000000,
1559013414.9532308578491211,2.1990900039672852,,0.0064612944988058,-0.0052374221391014,-0.0023856101624666,-0.0000981652382301,0.0000091474892124,0.0000839781625101,0.9999999916137888,-0.0867930375294313,0.2469656000460269,0.0101012819682401,0.0041305436318272,-0.0040936521753722,-0.0016631238378419,0.0001214783837374,0.0001566419927210,0.0003245343821430,,0.0037245920093585,0.0014593189274381,0.0018194195298815,0.0000452053608667,0.0005873934933458,-0.0000412583801236,0.9999998256115376,-0.0704288468814915,0.3132080009324146,-0.0043341840155431,0.0031235220376402,-0.0038933986797929,0.0055238688364625,0.0007684917072766,-0.0006610307609662,0.0011769605334848,,0.0000000000000000,0.0000000000000000,
1559013414.9865508079528809,2.2324099540710449,,0.0066054266654199,-0.0053440203782955,-0.0024522344057908,-0.0000969160453211,0.0000068766063943,0.0000814740885025,0.9999999919609829,-0.0866511443935773,0.2467049581367126,0.0098147035034970,0.0048476925318299,-0.0038579736044541,-0.0017041049011774,-0.0001432637079133,0.0004238488120072,0.0000575419788308,,0.0037245920093585,0.0014593189274381,0.0018194195298815,0.0000452053608667,0.0005873934933458,-0.0000412583801236,0.9999998256115376,-0.0704288468814915,0.3132080009324146,-0.0043341840155431,0.0031235220376402,-0.0038933986797929,0.0055238688364625,0.0007684917072766,-0.0006610307609662,0.0011769605334848,,0.0000000000000000,0.0000000000000000,
1559013415.0198707580566406,2.2657299041748047,,0.0068113388229762,-0.0052189758681187,-0.0027208497876028,-0.0000921958561701,0.0000144522589902,0.0000875181916627,0.9999999918158113,-0.0861072023778791,0.2475739960931731,0.0105060916117131,0.0060825697669323,-0.0030103831628734,-0.0034067346813775,0.0006550774080560,-0.0001077116157405,0.0003277914062961,,0.0029704976370324,0.0010159144944673,-0.0068657866970963,0.0000582245274008,0.0005601235302483,0.0000018985634455,0.9999998414339528,-0.0689128105575490,0.3100893950405605,0.0006161232992979,0.0019557164050639,-0.0059154736809433,-0.0117896087467670,-0.0002207496145274,0.0013766620540991,-0.0006734695052728,,0.0000000000000000,0.0000000000000000,
1559013415.0531907081604004,2.2990498542785645,,0.0070120325215728,-0.0053643840467018,-0.0028257323465652,-0.0000974294740275,0.0000144851787443,0.0000958045599730,0.9999999905595818,-0.0867028412268065,0.2475791653142735,0.0114556333090989,0.0052102946903897,-0.0034345448732562,-0.0022557795545287,0.0001265882398869,0.0001603943627920,-0.0002080600976019,,0.0028302361133023,0.0011308112806345,-0.0055005617195409,0.0000614221750839,0.0005673859537669,0.0000062026473458,0.9999998371309983,-0.0685439934837356,0.3109222268541514,0.0011085002659068,0.0022205500863492,-0.0049788719043136,-0.0089428108185530,-0.0010673586511984,-0.0010183617705479,-0.0010928818956017,,0.0000000000000000,0.0000000000000000,
1559013415.0865106582641602,2.3323698043823242,,0.0071672798253524,-0.0053527805601395,-0.0028328951288070,-0.0000931208623371,0.0000153722931291,0.0000834527558160,0.9999999920639175,-0.0862151983922852,0.2476787757934139,0.0100400727228291,0.0049108198089364,-0.0022326275063038,-0.0025112380221126,-0.0003963608622187,-0.0003685466185079,-0.0010158089840137,,0.0029221986643147,0.0009211528264380,-0.0058647508733388,0.0000569818828218,0.0005542338034713,0.0000084162661342,0.9999998447535492,-0.0690515848017236,0.3094154253685485,0.0013637793337315,0.0021712789312005,-0.0055115297436714,-0.0089211678132415,0.0002103293809341,-0.0018684096867219,-0.0012658763444051,,0.0000000000000000,0.0000000000000000,
1559013415.1198308467864990,2.3656899929046631,,0.0073110788648332,-0.0054581696963665,-0.0029030717641254,-0.0001025931065543,0.0000150527345735,0.0000828651766666,0.9999999911907163,-0.0873009305357266,0.2476421519920603,0.0099727757756881,0.0048693954373463,-0.0023343586962572,-0.0023643023952653,-0.0001371588229016,0.0001612934933242,-0.0004769192252693,,0.0029519888838059,0.0008384119710609,-0.0059934795015772,0.0000581090590179,0.0005500910080263,-0.0000013667004831,0.9999998470106645,-0.0689278484126669,0.3089392815590514,0.0002433889468124,0.0020987750031054,-0.0055223274976015,-0.0086310729384422,-0.0007987834396772,0.0002558300329838,-0.0004012739227619,,0.0000000000000000,0.0000000000000000,
1559013415.1531507968902588,2.3990099430084229,,0.0074933779185096,-0.0053409655785745,-0.0029693513882260,-0.0001038406674207,0.0000204639184525,0.0000892192279711,0.9999999904191366,-0.0874407028667892,0.2482632748207921,0.0107000183856774,0.0047627585848331,-0.0023841173404892,-0.0029635669828931,0.0001240332948453,0.0001585181849024,0.0000582371302714,,0.0051925544355761,0.0023813793912971,-0.0010522355678721,0.0000469439347328,0.0005700122294068,-0.0000046649478309,0.9999998364302685,-0.0702091373472664,0.3112216003752460,-0.0001381758148190,0.0089325234293938,0.0004224320291542,0.0012637828476727,-0.0005778026534244,-0.0005969690391794,-0.0000826702453196,,0.0000000000000000,0.0000000000000000,
1559013415.1864707469940186,2.4323298931121826,,0.0076702873234467,-0.0054413592964597,-0.0030878832591760,-0.0001129830821434,0.0000125136110965,0.0000900563340379,0.9999999894840448,-0.0884880092373045,0.2473524683924231,0.0107972269967340,0.0046700625127557,-0.0009696272213227,-0.0026218839164515,0.0001362431002912,-0.0003665924973784,-0.0010106852640980,,0.0025138590955969,0.0033192539606244,0.0009078161052141,0.0000365193240325,0.0005775845015205,0.0000439068098541,0.9999998315673231,-0.0713766200413169,0.3120964502441695,0.0054260206836029,-0.0019299490377307,0.0016534070018679,0.0051813190802932,0.0001960064255400,0.0007469583069906,-0.0014681906905025,,0.0000000000000000,0.0000000000000000,
1559013415.2197906970977783,2.4656498432159424,,0.0077275636591807,-0.0053575084793738,-0.0029682666070440,-0.0001204624299973,0.0000122034583479,0.0000888174341770,0.9999999887256710,-0.0893456934682239,0.2473168004331553,0.0106552986584425,0.0042550429390056,-0.0032663757436010,-0.0008750689411810,-0.0001442587900192,0.0006901565464488,0.0000594086827906,,0.0024800863660486,0.0033513649754405,0.0010116650675939,0.0000366415274969,0.0005791132241942,0.0000401312039316,0.9999998308373650,-0.0713647175366044,0.3122710734938550,0.0049931456007309,-0.0014716660371050,0.0013657244853675,0.0051734177395701,-0.0005957818357274,0.0004247363540344,-0.0011405874975026,,0.0000000000000000,0.0000000000000000,
1559013415.2531106472015381,2.4989697933197021,,0.0079036339419516,-0.0054633666822300,-0.0030371432110986,-0.0001156276984696,0.0000196779884099,0.0000898982820072,0.9999999890806556,-0.0887910692133736,0.2481734460239274,0.0107779342388646,0.0054506746649085,-0.0032340268707824,-0.0031186853404491,0.0001214783219169,0.0001566419997225,0.0003245343750559,,0.0024471661835635,0.0033851684694178,0.0011746483241867,0.0000385319684051,0.0005825618436287,0.0000372835294294,0.9999998288734475,-0.0711496658668178,0.3126658295824273,0.0046664411182887,-0.0005564807215706,0.0006104572094046,0.0041742408648133,0.0009592136484571,-0.0004849921970163,-0.0003570724220481,,0.0000000000000000,0.0000000000000000,
1559013415.2864308357238770,2.5322899818420410,,0.0081039925853099,-0.0054048530513193,-0.0029595386898711,-0.0001149908344730,0.0000181185390454,0.0000800464976114,0.9999999900206924,-0.0887229708493377,0.2479931216200172,0.0096492510882771,0.0066478666575199,-0.0016303385288696,-0.0048580528925315,-0.0003979208061596,-0.0006367305067340,-0.0007513784649776,,0.0024471661835635,0.0033851684694178,0.0011746483241867,0.0000385319684051,0.0005825618436287,0.0000372835294294,0.9999998288734475,-0.0711496658668178,0.3126658295824273,0.0046664411182887,-0.0005564807215706,0.0006104572094046,0.0041742408648133,0.0009592136484571,-0.0004849921970163,-0.0003570724220481,,0.0000000000000000,0.0000000000000000,
1559013415.3197507858276367,2.5656099319458008,,0.0083028003571879,-0.0055086892583379,-0.0030685403306943,-0.0001128562931896,0.0000282468046494,0.0000831292795664,0.9999999897775491,-0.0884767585220640,0.2491542202471658,0.0100008580234188,0.0054252904000684,-0.0025106189299408,-0.0029831154877125,0.0003918951435007,0.0004276791098380,-0.0002036315288046,,-0.0004187368762987,0.0000351582624904,-0.0101975856681350,0.0000339133369935,0.0005851228979050,0.0000428547801781,0.9999998273222590,-0.0716758011117047,0.3129601442598663,0.0053041828621122,-0.0091990232467651,-0.0111310230568051,-0.0174473952502012,-0.0002537416294217,0.0002517852990422,0.0007231563213281,,0.0000000000000000,0.0000000000000000,
1559013415.3530707359313965,2.5989298820495605,,0.0083805281170861,-0.0055886735572358,-0.0027614085307327,-0.0000972662626427,0.0000264009252462,0.0000815654839827,0.9999999915946686,-0.0866910625363271,0.2489422961205140,0.0098220088793293,0.0049894330291841,-0.0023918856277896,-0.0020051825675676,0.0006581971376944,0.0004286561666366,-0.0002010696612061,,-0.0004187368762987,0.0000351582624904,-0.0101975856681350,0.0000339133369935,0.0005851228979050,0.0000428547801781,0.9999998273222590,-0.0716758011117047,0.3129601442598663,0.0053041828621122,-0.0091990232467651,-0.0111310230568051,-0.0174473952502012,-0.0002537416294217,0.0002517852990422,0.0007231563213281,,0.0000000000000000,0.0000000000000000,
1559013415.3863906860351562,2.6322498321533203,,0.0085547203807079,-0.0056864242270282,-0.0028841038539156,-0.0001007202831018,0.0000153811400487,0.0000849721600591,0.9999999911992886,-0.0870852778698260,0.2476801093290612,0.0102141701474778,0.0054076017344226,-0.0023494082900386,-0.0028671662187798,-0.0004070108385940,0.0004247478970531,-0.0002113171464773,,-0.0009817813704339,-0.0000302048205232,-0.0113073154465510,0.0000366397794939,0.0005790403470259,0.0000539893675716,0.9999998302274612,-0.0713571827692653,0.3122647584925159,0.0065812067841531,-0.0103610353544354,-0.0106029035523534,-0.0180826224386692,0.0003542889317032,0.0002166567428503,-0.0017341335769743,,0.0000000000000000,0.0000000000000000,
1559013415.4197106361389160,2.6655697822570801,,0.0086093582092177,-0.0056546215024905,-0.0030955088081634,-0.0001068801076293,0.0000224410318702,0.0000831250165200,0.9999999905816371,-0.0877919913086544,0.2484888707737094,0.0100013372367163,0.0054397790099905,-0.0015872169253262,-0.0037319521883842,-0.0006682029563409,0.0004275232054749,-0.0007464735020180,,-0.0014185691403290,-0.0004501569395737,-0.0120030723032950,0.0000434684384757,0.0005856383472689,0.0000345169022151,0.9999998269733873,-0.0705855220237378,0.3130179456839972,0.0043492845201148,-0.0107360417023301,-0.0110346311703324,-0.0169592592865229,-0.0017026001587510,0.0004706384497695,-0.0002738574403338,,0.0000000000000000,0.0000000000000000,
1559013415.4530308246612549,2.6988899707794189,,0.0088014392032001,-0.0057312463636460,-0.0032267751287348,-0.0001059713783530,0.0000245995700696,0.0000774463856529,0.9999999910834928,-0.0876906485210886,0.2487352851741226,0.0093502586022585,0.0050075004343414,-0.0016264269621232,-0.0026539802291555,0.0003970050074619,0.0004314314497528,-0.0007362260388617,,0.0003574812231935,0.0003619826310008,-0.0030307031033011,0.0000280967192277,0.0006463813474378,0.0000294119631035,0.9999997902683102,-0.0723496947302187,0.3199778806545092,0.0037542767039110,-0.0030758511275053,-0.0073704370297492,-0.0008689275127836,-0.0003743243869394,0.0005830600857735,-0.0002860996755771,,0.0000000000000000,0.0000000000000000,
1559013415.4863507747650146,2.7322099208831787,,0.0088943374674504,-0.0053938519769725,-0.0030018517289678,-0.0001071198723253,0.0000218920708171,0.0000774619405096,0.9999999910228590,-0.0878222706693325,0.2484250416589749,0.0093524801466909,0.0060653949863247,-0.0018860824564450,-0.0039429149694817,-0.0006632277902839,-0.0009040153162752,-0.0007558070575091,,0.0003574812231935,0.0003619826310008,-0.0030307031033011,0.0000280967192277,0.0006463813474378,0.0000294119631035,0.9999997902683102,-0.0723496947302187,0.3199778806545092,0.0037542767039110,-0.0030758511275053,-0.0073704370297492,-0.0008689275127836,-0.0003743243869394,0.0005830600857735,-0.0002860996755771,,0.0000000000000000,0.0000000000000000,
